{
  "mode": "opinet",
  "source": "한국석유공사 오피넷 Open API",
  "generatedAt": "2026-04-27T21:50:08.389Z",
  "notice": "한국석유공사 오피넷 Open API 기준 데이터입니다. 실제 판매 가격과 차이가 있을 수 있습니다.",
  "datasets": [
    {
      "regionCode": "ALL",
      "regionName": "전국",
      "fuelCode": "B027",
      "fuelName": "휘발유",
      "stations": [
        {
          "id": "A0014172",
          "name": "대일종합에너지주유소 태전점",
          "brand": "현대오일뱅크",
          "brandCode": "HDO",
          "price": 1929,
          "address": "대구 북구 태전동 148-7",
          "roadAddress": "대구 북구 태전로 14 (태전동)",
          "katecX": 449464.77744,
          "katecY": 369233.75327,
          "latitude": 35.9218714,
          "longitude": 128.5459301
        },
        {
          "id": "A0019115",
          "name": "광활농협주유소",
          "brand": "농협알뜰",
          "brandCode": "NHO",
          "price": 1929,
          "address": "전북 김제시 광활면 옥포리 668-10",
          "roadAddress": "전북 김제시 광활면 광활로 470",
          "katecX": 286320.9,
          "katecY": 359877.5,
          "latitude": 35.8321724,
          "longitude": 126.7395908
        },
        {
          "id": "A0026119",
          "name": "대왕석유무역㈜ 대왕주유소",
          "brand": "현대오일뱅크",
          "brandCode": "HDO",
          "price": 1934,
          "address": "경북 칠곡군 왜관읍 낙산리 630-1",
          "roadAddress": "경북 칠곡군 왜관읍 강변대로 700",
          "katecX": 436566,
          "katecY": 371241,
          "latitude": 35.9405275,
          "longitude": 128.4030951
        },
        {
          "id": "A0026409",
          "name": "(주)제이엠제7주유소지점",
          "brand": "RTO",
          "brandCode": "RTO",
          "price": 1937,
          "address": "경북 칠곡군 왜관읍 금산리 860-1",
          "roadAddress": "경북 칠곡군 왜관읍 강변대로 852",
          "katecX": 436251.17307,
          "katecY": 372691.08649,
          "latitude": 35.9536087,
          "longitude": 128.3996716
        },
        {
          "id": "A0018685",
          "name": "진봉농업협동조합주유소",
          "brand": "현대오일뱅크",
          "brandCode": "HDO",
          "price": 1939,
          "address": "전북 김제시 진봉면 고사리 4-14",
          "roadAddress": "전북 김제시 지평선로 1787",
          "katecX": 288997.75349,
          "katecY": 362603.42927,
          "latitude": 35.8570435,
          "longitude": 126.768833
        },
        {
          "id": "A0018612",
          "name": "수교주유소",
          "brand": "RTO",
          "brandCode": "RTO",
          "price": 1939,
          "address": "전북 김제시 성덕면 대석리 218-35",
          "roadAddress": "전북 김제시 성덕면 해학로 380",
          "katecX": 292208.76834,
          "katecY": 356425.22304,
          "latitude": 35.8017281,
          "longitude": 126.8052123
        },
        {
          "id": "A0021316",
          "name": "서영암농협 미암지점",
          "brand": "농협알뜰",
          "brandCode": "NHO",
          "price": 1945,
          "address": "전남 영암군 미암면 춘동리 106-53",
          "roadAddress": "전남 영암군 미암면 흑석로 1569-101",
          "katecX": 268875.78007,
          "katecY": 234810.98671,
          "latitude": 34.7029733,
          "longitude": 126.5665484
        },
        {
          "id": "A0033398",
          "name": "용두농협주유소",
          "brand": "농협알뜰",
          "brandCode": "NHO",
          "price": 1945,
          "address": "전남 장흥군 장동면 배산리 529",
          "roadAddress": "전남 장흥군 장동면 곰치로 9",
          "katecX": 308358.65278,
          "katecY": 239796.08989,
          "latitude": 34.7522147,
          "longitude": 126.9969136
        },
        {
          "id": "A0019581",
          "name": "한영주유소",
          "brand": "RTO",
          "brandCode": "RTO",
          "price": 1946,
          "address": "전남 화순군 동복면 유천리 491-1",
          "roadAddress": "전남 화순군 동복면 동주로 1414",
          "katecX": 324826.3,
          "katecY": 275963.8,
          "latitude": 35.0795724,
          "longitude": 127.173498
        },
        {
          "id": "A0018147",
          "name": "보물단지주유소",
          "brand": "RTO",
          "brandCode": "RTO",
          "price": 1949,
          "address": "전북 완주군 봉동읍 구만리 220-1",
          "roadAddress": "전북 완주군 봉동읍 완주로 533",
          "katecX": 324400.44513,
          "katecY": 368311.70674,
          "latitude": 35.9118653,
          "longitude": 127.1602112
        },
        {
          "id": "A0028484",
          "name": "㈜미니E 직영주유소",
          "brand": "RTO",
          "brandCode": "RTO",
          "price": 1950,
          "address": "경남 창원시 마산회원구 회원동 43-1",
          "roadAddress": "경남 창원시 마산회원구 3.15대로 524",
          "katecX": 452464.98915,
          "katecY": 291495.16461,
          "latitude": 35.2210333,
          "longitude": 128.5741527
        },
        {
          "id": "A0029821",
          "name": "차탄셀프주유소",
          "brand": "SK에너지",
          "brandCode": "SKE",
          "price": 1950,
          "address": "경남 산청군 산청읍 차탄리 703-4",
          "roadAddress": "경남 산청군 산청읍 산청대로 2083",
          "katecX": 388666.489,
          "katecY": 314768.5039,
          "latitude": 35.432117,
          "longitude": 127.8730057
        },
        {
          "id": "A0033247",
          "name": "미니주유소",
          "brand": "RTO",
          "brandCode": "RTO",
          "price": 1950,
          "address": "대구 북구 침산동 25-10",
          "roadAddress": "대구 북구 침산남로 224",
          "katecX": 454359.4543,
          "katecY": 365311.65891,
          "latitude": 35.8862636,
          "longitude": 128.5998983
        },
        {
          "id": "A0029773",
          "name": "경남주유소",
          "brand": "현대오일뱅크",
          "brandCode": "HDO",
          "price": 1950,
          "address": "경남 산청군 산청읍 지리 185",
          "roadAddress": "경남 산청군 산청읍 꽃봉산로 166",
          "katecX": 389465.1,
          "katecY": 312771.3,
          "latitude": 35.4141232,
          "longitude": 127.8818275
        },
        {
          "id": "A0029084",
          "name": "에이치디오티서비스㈜ 용당주유소/충전소",
          "brand": "현대오일뱅크",
          "brandCode": "HDO",
          "price": 1953,
          "address": "울산 울주군 웅촌면 대대리 1017-1",
          "roadAddress": "울산 울주군 웅촌면 웅촌로 22",
          "katecX": 508360.0465,
          "katecY": 315988.8892,
          "latitude": 35.4373074,
          "longitude": 129.1912984
        },
        {
          "id": "A0024530",
          "name": "청하self주유소",
          "brand": "RTO",
          "brandCode": "RTO",
          "price": 1953,
          "address": "경북 포항시 북구 청하면 미남리 133",
          "roadAddress": "경북 포항시 북구 청하면 동해대로 2405",
          "katecX": 520946,
          "katecY": 398970,
          "latitude": 36.1835994,
          "longitude": 129.3424146
        },
        {
          "id": "A0030597",
          "name": "에이디에너지(주)",
          "brand": "RTO",
          "brandCode": "RTO",
          "price": 1953,
          "address": "경남 김해시 안동 257-21",
          "roadAddress": "경남 김해시 김해대로 2651 (안동)",
          "katecX": 483621,
          "katecY": 292635,
          "latitude": 35.2292002,
          "longitude": 128.9164805
        },
        {
          "id": "A0027320",
          "name": "대양주유소",
          "brand": "RTO",
          "brandCode": "RTO",
          "price": 1953,
          "address": "부산 부산진구 부암동 669-3",
          "roadAddress": "부산 부산진구 새싹로 61-1 (부암동)",
          "katecX": 496251,
          "katecY": 285398,
          "latitude": 35.1628447,
          "longitude": 129.0543691
        },
        {
          "id": "A0023842",
          "name": "보성셀프주유소",
          "brand": "현대오일뱅크",
          "brandCode": "HDO",
          "price": 1954,
          "address": "경북 경주시 강동면 오금리 809-5",
          "roadAddress": "경북 경주시 강동면 산업로 5762",
          "katecX": 513550,
          "katecY": 376619,
          "latitude": 35.9830923,
          "longitude": 129.2569983
        },
        {
          "id": "A0023664",
          "name": "대광셀프주유소",
          "brand": "RTO",
          "brandCode": "RTO",
          "price": 1954,
          "address": "경북 칠곡군 동명면 봉암리 194-4",
          "roadAddress": "경북 칠곡군 동명면 경북대로 158",
          "katecX": 450152.7328,
          "katecY": 375173.5412,
          "latitude": 35.9753705,
          "longitude": 128.5539265
        }
      ]
    },
    {
      "regionCode": "ALL",
      "regionName": "전국",
      "fuelCode": "D047",
      "fuelName": "경유",
      "stations": [
        {
          "id": "A0020438",
          "name": "송암주유소",
          "brand": "GS칼텍스",
          "brandCode": "GSC",
          "price": 1855,
          "address": "전남 영광군 염산면 송암리 485",
          "roadAddress": "전남 영광군 염산면 칠산로 533",
          "katecX": 247977.15608,
          "katecY": 293208.10161,
          "latitude": 35.2262852,
          "longitude": 126.3278483
        },
        {
          "id": "A0026263",
          "name": "대황주유소",
          "brand": "현대오일뱅크",
          "brandCode": "HDO",
          "price": 1904,
          "address": "충북 제천시 봉양읍 원박리 903",
          "roadAddress": "충북 제천시 봉양읍 북부로 913",
          "katecX": 406691.13669,
          "katecY": 504135.99441,
          "latitude": 37.1388718,
          "longitude": 128.0730946
        },
        {
          "id": "A0023617",
          "name": "태백산가산톨게이트주유소",
          "brand": "SK에너지",
          "brandCode": "SKE",
          "price": 1914,
          "address": "경북 칠곡군 가산면 송학리 15-10",
          "roadAddress": "경북 칠곡군 가산면 송신로 11",
          "katecX": 448561.05091,
          "katecY": 387561.4104,
          "latitude": 36.0870985,
          "longitude": 128.5370352
        },
        {
          "id": "A0021026",
          "name": "청기와주유소",
          "brand": "SK에너지",
          "brandCode": "SKE",
          "price": 1920,
          "address": "전남 함평군 함평읍 대덕리 458-4",
          "roadAddress": "전남 함평군 함평읍 남일길 237",
          "katecX": 264011.2209,
          "katecY": 276219.1576,
          "latitude": 35.0754969,
          "longitude": 126.5067274
        },
        {
          "id": "A0023114",
          "name": "한국광유(주)청기와주유소",
          "brand": "SK에너지",
          "brandCode": "SKE",
          "price": 1920,
          "address": "대구 수성구 만촌동 132-3",
          "roadAddress": "대구 수성구 화랑로 222 (만촌동)",
          "katecX": 458840,
          "katecY": 364404,
          "latitude": 35.877825,
          "longitude": 128.6494551
        },
        {
          "id": "A0023757",
          "name": "한국광유(주) 칠곡매천주유소",
          "brand": "SK에너지",
          "brandCode": "SKE",
          "price": 1923,
          "address": "대구 북구 매천동 209-2",
          "roadAddress": "대구 북구 매천로 149 (매천동)",
          "katecX": 449102,
          "katecY": 367957,
          "latitude": 35.9103824,
          "longitude": 128.5418318
        },
        {
          "id": "A0023171",
          "name": "미래주유소",
          "brand": "SK에너지",
          "brandCode": "SKE",
          "price": 1923,
          "address": "경북 경산시 계양동 668",
          "roadAddress": "경북 경산시 원효로 148",
          "katecX": 468258.1442,
          "katecY": 358142.259,
          "latitude": 35.8207815,
          "longitude": 128.7532176
        },
        {
          "id": "A0014172",
          "name": "대일종합에너지주유소 태전점",
          "brand": "현대오일뱅크",
          "brandCode": "HDO",
          "price": 1929,
          "address": "대구 북구 태전동 148-7",
          "roadAddress": "대구 북구 태전로 14 (태전동)",
          "katecX": 449464.77744,
          "katecY": 369233.75327,
          "latitude": 35.9218714,
          "longitude": 128.5459301
        },
        {
          "id": "A0022528",
          "name": "청운주유소",
          "brand": "S-OIL",
          "brandCode": "SOL",
          "price": 1929,
          "address": "전북 김제시 용지면 부교리 194-23",
          "roadAddress": "전북 김제시 용지면 콩쥐팥쥐로 717",
          "katecX": 307961.41996,
          "katecY": 357782.39752,
          "latitude": 35.8155645,
          "longitude": 126.9793166
        },
        {
          "id": "A0026409",
          "name": "(주)제이엠제7주유소지점",
          "brand": "RTO",
          "brandCode": "RTO",
          "price": 1932,
          "address": "경북 칠곡군 왜관읍 금산리 860-1",
          "roadAddress": "경북 칠곡군 왜관읍 강변대로 852",
          "katecX": 436251.17307,
          "katecY": 372691.08649,
          "latitude": 35.9536087,
          "longitude": 128.3996716
        },
        {
          "id": "A0026119",
          "name": "대왕석유무역㈜ 대왕주유소",
          "brand": "현대오일뱅크",
          "brandCode": "HDO",
          "price": 1932,
          "address": "경북 칠곡군 왜관읍 낙산리 630-1",
          "roadAddress": "경북 칠곡군 왜관읍 강변대로 700",
          "katecX": 436566,
          "katecY": 371241,
          "latitude": 35.9405275,
          "longitude": 128.4030951
        },
        {
          "id": "A0018499",
          "name": "정주유소",
          "brand": "SK에너지",
          "brandCode": "SKE",
          "price": 1934,
          "address": "전북 김제시 순동 448-1",
          "roadAddress": "전북 김제시 콩쥐팥쥐로 155 (순동)",
          "katecX": 302561,
          "katecY": 357453,
          "latitude": 35.8120738,
          "longitude": 126.919605
        },
        {
          "id": "A0027718",
          "name": "(주)범방주유소",
          "brand": "SK에너지",
          "brandCode": "SKE",
          "price": 1934,
          "address": "부산 강서구 범방동 255-3",
          "roadAddress": "부산 강서구 가락대로 963",
          "katecX": 480782,
          "katecY": 284547,
          "latitude": 35.156533,
          "longitude": 128.8845046
        },
        {
          "id": "A0019598",
          "name": "덕암주유소",
          "brand": "SK에너지",
          "brandCode": "SKE",
          "price": 1934,
          "address": "전남 곡성군 겸면 699-1",
          "roadAddress": "전남 곡성군 겸면 곡순로 2046",
          "katecX": 323580.44,
          "katecY": 296717.5964,
          "latitude": 35.2665408,
          "longitude": 127.1579109
        },
        {
          "id": "A0024258",
          "name": "영천셀프주유소",
          "brand": "SK에너지",
          "brandCode": "SKE",
          "price": 1935,
          "address": "경북 영천시 금호읍 덕성리 33-4",
          "roadAddress": "경북 영천시 금호읍 금창로 97",
          "katecX": 479592.20282,
          "katecY": 369715.79582,
          "latitude": 35.9242338,
          "longitude": 128.8797897
        },
        {
          "id": "A0024382",
          "name": "청명주유소",
          "brand": "SK에너지",
          "brandCode": "SKE",
          "price": 1935,
          "address": "경북 영천시 고경면 덕암리 52-1",
          "roadAddress": "경북 영천시 고경면 호국로 1529",
          "katecX": 498527.00285,
          "katecY": 377393.99585,
          "latitude": 35.9917057,
          "longitude": 129.0905296
        },
        {
          "id": "A0019581",
          "name": "한영주유소",
          "brand": "RTO",
          "brandCode": "RTO",
          "price": 1935,
          "address": "전남 화순군 동복면 유천리 491-1",
          "roadAddress": "전남 화순군 동복면 동주로 1414",
          "katecX": 324826.3,
          "katecY": 275963.8,
          "latitude": 35.0795724,
          "longitude": 127.173498
        },
        {
          "id": "A0018612",
          "name": "수교주유소",
          "brand": "RTO",
          "brandCode": "RTO",
          "price": 1937,
          "address": "전북 김제시 성덕면 대석리 218-35",
          "roadAddress": "전북 김제시 성덕면 해학로 380",
          "katecX": 292208.76834,
          "katecY": 356425.22304,
          "latitude": 35.8017281,
          "longitude": 126.8052123
        },
        {
          "id": "A0021316",
          "name": "서영암농협 미암지점",
          "brand": "농협알뜰",
          "brandCode": "NHO",
          "price": 1939,
          "address": "전남 영암군 미암면 춘동리 106-53",
          "roadAddress": "전남 영암군 미암면 흑석로 1569-101",
          "katecX": 268875.78007,
          "katecY": 234810.98671,
          "latitude": 34.7029733,
          "longitude": 126.5665484
        },
        {
          "id": "A0001245",
          "name": "고암주유소",
          "brand": "SK에너지",
          "brandCode": "SKE",
          "price": 1939,
          "address": "충북 제천시 고암동 264-5",
          "roadAddress": "충북 제천시 내토로 1027",
          "katecX": 421215,
          "katecY": 507133,
          "latitude": 37.1656652,
          "longitude": 128.2366578
        }
      ]
    },
    {
      "regionCode": "01",
      "regionName": "서울",
      "fuelCode": "B027",
      "fuelName": "휘발유",
      "stations": [
        {
          "id": "A0001141",
          "name": "㈜씨더블유이엔지",
          "brand": "현대오일뱅크",
          "brandCode": "HDO",
          "price": 1976,
          "address": "서울 금천구 독산동 900-4",
          "roadAddress": "서울 금천구 남부순환로 1410 (독산동)",
          "katecX": 303569.4,
          "katecY": 542566.5,
          "latitude": 37.4801451,
          "longitude": 126.9074514
        },
        {
          "id": "A0001164",
          "name": "(주)화동유업 화동주유소",
          "brand": "SK에너지",
          "brandCode": "SKE",
          "price": 1977,
          "address": "서울 금천구 독산동 967",
          "roadAddress": "서울 금천구 시흥대로 484",
          "katecX": 302821.53096,
          "katecY": 542201.78194,
          "latitude": 37.4767808,
          "longitude": 126.8990451
        },
        {
          "id": "A0001132",
          "name": "㈜씨더블유 이엔지 금천지점",
          "brand": "현대오일뱅크",
          "brandCode": "HDO",
          "price": 1978,
          "address": "서울 금천구 시흥동 860-36",
          "roadAddress": "서울 금천구 독산로 147",
          "katecX": 303289.50294,
          "katecY": 540374.09535,
          "latitude": 37.4603639,
          "longitude": 126.9045755
        },
        {
          "id": "A0000549",
          "name": "이케이에너지(주) 강서주유소",
          "brand": "현대오일뱅크",
          "brandCode": "HDO",
          "price": 1979,
          "address": "서울 강서구 화곡동 983-1",
          "roadAddress": "서울 강서구 화곡로 273 (화곡동)",
          "katecX": 298318.039,
          "katecY": 550276.2648,
          "latitude": 37.5490384,
          "longitude": 126.8470181
        },
        {
          "id": "A0000519",
          "name": "화곡역주유소",
          "brand": "RTO",
          "brandCode": "RTO",
          "price": 1979,
          "address": "서울 강서구 화곡동 1076-14",
          "roadAddress": "서울 강서구 강서로 154 (화곡동)",
          "katecX": 297830.02778,
          "katecY": 549333.51356,
          "latitude": 37.5404911,
          "longitude": 126.8416277
        },
        {
          "id": "A0000011",
          "name": "이케이에너지(주) 무산주유소",
          "brand": "현대오일뱅크",
          "brandCode": "HDO",
          "price": 1984,
          "address": "서울 양천구 신정3동 1294-6",
          "roadAddress": "서울 양천구 신정로 236",
          "katecX": 298323.406,
          "katecY": 546013.55295,
          "latitude": 37.5106363,
          "longitude": 126.8476698
        },
        {
          "id": "A0001015",
          "name": "동일석유㈜개나리주유소",
          "brand": "SK에너지",
          "brandCode": "SKE",
          "price": 1984,
          "address": "서울 양천구 신월동 206-1",
          "roadAddress": "서울 양천구 남부순환로 442 (신월동)",
          "katecX": 297042.8987,
          "katecY": 548004.3926,
          "latitude": 37.5284295,
          "longitude": 126.832909
        },
        {
          "id": "A0000686",
          "name": "(주)디오티디 은평유니콘주유소",
          "brand": "현대오일뱅크",
          "brandCode": "HDO",
          "price": 1984,
          "address": "서울 은평구 진관동 73-22",
          "roadAddress": "서울 은평구 통일로 1151",
          "katecX": 304199,
          "katecY": 560741,
          "latitude": 37.6439469,
          "longitude": 126.9121908
        },
        {
          "id": "A0001005",
          "name": "현대주유소",
          "brand": "S-OIL",
          "brandCode": "SOL",
          "price": 1984,
          "address": "서울 양천구 신월동 167-1",
          "roadAddress": "서울 양천구 남부순환로 372 (신월동)",
          "katecX": 296738.3507,
          "katecY": 548590.8561,
          "latitude": 37.5336788,
          "longitude": 126.8293814
        },
        {
          "id": "A0000680",
          "name": "서정주유소",
          "brand": "GS칼텍스",
          "brandCode": "GSC",
          "price": 1984,
          "address": "서울 은평구 진관동 240-27",
          "roadAddress": "서울 은평구 통일로 968 (진관동)",
          "katecX": 304825,
          "katecY": 559220,
          "latitude": 37.6303093,
          "longitude": 126.9194817
        },
        {
          "id": "A0001029",
          "name": "(주)타이거오일 신정주유소",
          "brand": "SK에너지",
          "brandCode": "SKE",
          "price": 1984,
          "address": "서울 양천구 신정동 1052-12",
          "roadAddress": "서울 양천구 중앙로 226 (신정동)",
          "katecX": 298952.04545,
          "katecY": 546698.44763,
          "latitude": 37.5168757,
          "longitude": 126.854685
        },
        {
          "id": "A0001023",
          "name": "㈜자연에너지 남부주유소",
          "brand": "현대오일뱅크",
          "brandCode": "HDO",
          "price": 1984,
          "address": "서울 양천구 신월4동 525-1",
          "roadAddress": "서울 양천구 남부순환로 553",
          "katecX": 297546.1436,
          "katecY": 546999.2892,
          "latitude": 37.5194307,
          "longitude": 126.838742
        },
        {
          "id": "A0000992",
          "name": "신월주유소",
          "brand": "GS칼텍스",
          "brandCode": "GSC",
          "price": 1985,
          "address": "서울 양천구 신월동 534-24",
          "roadAddress": "서울 양천구 신월로 193",
          "katecX": 298014.58083,
          "katecY": 547054.30697,
          "latitude": 37.5199783,
          "longitude": 126.8440326
        },
        {
          "id": "A0001157",
          "name": "㈜CW창원",
          "brand": "현대오일뱅크",
          "brandCode": "HDO",
          "price": 1985,
          "address": "서울 관악구 남현동 602-306",
          "roadAddress": "서울 관악구 과천대로 921 (남현동)",
          "katecX": 310169.34427,
          "katecY": 541693.21359,
          "latitude": 37.4729436,
          "longitude": 126.982171
        },
        {
          "id": "A0001086",
          "name": "(주)백운주유소",
          "brand": "RTO",
          "brandCode": "RTO",
          "price": 1988,
          "address": "서울 금천구 독산동 1077-3",
          "roadAddress": "서울 금천구 시흥대로 282",
          "katecX": 302825.0476,
          "katecY": 540202.8721,
          "latitude": 37.4587725,
          "longitude": 126.8993489
        },
        {
          "id": "A0010071",
          "name": "신일셀프주유소",
          "brand": "SK에너지",
          "brandCode": "SKE",
          "price": 1988,
          "address": "서울 중랑구 망우동 523-4",
          "roadAddress": "서울 중랑구 상봉로 58 (망우동)",
          "katecX": 320159.4797,
          "katecY": 554686.3927,
          "latitude": 37.5909266,
          "longitude": 127.0936873
        },
        {
          "id": "A0000412",
          "name": "남서울고속주유소",
          "brand": "SK에너지",
          "brandCode": "SKE",
          "price": 1988,
          "address": "서울 영등포구 대림3동 667-13",
          "roadAddress": "서울 영등포구 가마산로 367 (대림동)",
          "katecX": 302838.00295,
          "katecY": 544942.99534,
          "latitude": 37.5014786,
          "longitude": 126.8988688
        },
        {
          "id": "A0001034",
          "name": "도림주유소",
          "brand": "RTO",
          "brandCode": "RTO",
          "price": 1988,
          "address": "서울 영등포구 도림동 243-2",
          "roadAddress": "서울 영등포구 도림로 343 (도림동)",
          "katecX": 302974.2252,
          "katecY": 545620.8573,
          "latitude": 37.5075999,
          "longitude": 126.9003196
        },
        {
          "id": "A0009272",
          "name": "(주)연우에너지 신관주유소",
          "brand": "RTO",
          "brandCode": "RTO",
          "price": 1988,
          "address": "서울 관악구 신림동 1641-58",
          "roadAddress": "서울 관악구 신림로 290 (신림동)",
          "katecX": 305616.56394,
          "katecY": 542563.88518,
          "latitude": 37.4803333,
          "longitude": 126.9305948
        },
        {
          "id": "A0006667",
          "name": "㈜자연에너지 고척주유소",
          "brand": "현대오일뱅크",
          "brandCode": "HDO",
          "price": 1989,
          "address": "서울 구로구 고척동 167-32",
          "roadAddress": "서울 구로구 고척로 199 (고척동)",
          "katecX": 298992.6826,
          "katecY": 545393.869,
          "latitude": 37.5051272,
          "longitude": 126.8553241
        }
      ]
    },
    {
      "regionCode": "01",
      "regionName": "서울",
      "fuelCode": "D047",
      "fuelName": "경유",
      "stations": [
        {
          "id": "A0000549",
          "name": "이케이에너지(주) 강서주유소",
          "brand": "현대오일뱅크",
          "brandCode": "HDO",
          "price": 1968,
          "address": "서울 강서구 화곡동 983-1",
          "roadAddress": "서울 강서구 화곡로 273 (화곡동)",
          "katecX": 298318.039,
          "katecY": 550276.2648,
          "latitude": 37.5490384,
          "longitude": 126.8470181
        },
        {
          "id": "A0000519",
          "name": "화곡역주유소",
          "brand": "RTO",
          "brandCode": "RTO",
          "price": 1968,
          "address": "서울 강서구 화곡동 1076-14",
          "roadAddress": "서울 강서구 강서로 154 (화곡동)",
          "katecX": 297830.02778,
          "katecY": 549333.51356,
          "latitude": 37.5404911,
          "longitude": 126.8416277
        },
        {
          "id": "A0000520",
          "name": "피트인 하이웨이",
          "brand": "S-OIL",
          "brandCode": "SOL",
          "price": 1975,
          "address": "서울 강서구 화곡동 1125",
          "roadAddress": "서울 강서구 공항대로 432",
          "katecX": 299017.7699,
          "katecY": 550893.5721,
          "latitude": 37.5546767,
          "longitude": 126.8548505
        },
        {
          "id": "A0000443",
          "name": "성락주유소",
          "brand": "S-OIL",
          "brandCode": "SOL",
          "price": 1979,
          "address": "서울 영등포구 신길5동 355-545",
          "roadAddress": "서울 영등포구 가마산로 414 (신길동)",
          "katecX": 303199,
          "katecY": 545191,
          "latitude": 37.5037509,
          "longitude": 126.9029183
        },
        {
          "id": "A0000427",
          "name": "영등포제일셀프주유소",
          "brand": "현대오일뱅크",
          "brandCode": "HDO",
          "price": 1979,
          "address": "서울 영등포구 대림동 667-9",
          "roadAddress": "서울 영등포구 가마산로 379",
          "katecX": 302896.0305,
          "katecY": 545023.6863,
          "latitude": 37.5022117,
          "longitude": 126.8995143
        },
        {
          "id": "A0001034",
          "name": "도림주유소",
          "brand": "RTO",
          "brandCode": "RTO",
          "price": 1979,
          "address": "서울 영등포구 도림동 243-2",
          "roadAddress": "서울 영등포구 도림로 343 (도림동)",
          "katecX": 302974.2252,
          "katecY": 545620.8573,
          "latitude": 37.5075999,
          "longitude": 126.9003196
        },
        {
          "id": "A0033659",
          "name": "오션네트웍스(주) 서울식물원지점",
          "brand": "SK에너지",
          "brandCode": "SKE",
          "price": 1980,
          "address": "서울 강서구 마곡동 813-3",
          "roadAddress": "서울 강서구 양천로 300",
          "katecX": 297446.36842,
          "katecY": 552663.67604,
          "latitude": 37.5704495,
          "longitude": 126.8368208
        },
        {
          "id": "A0001155",
          "name": "서일석유(주)락성주유소",
          "brand": "GS칼텍스",
          "brandCode": "GSC",
          "price": 1980,
          "address": "서울 관악구 봉천동 1659-1",
          "roadAddress": "서울 관악구 남부순환로 1920 (봉천동)",
          "katecX": 308420.93867,
          "katecY": 542175.23155,
          "latitude": 37.4771144,
          "longitude": 126.9623469
        },
        {
          "id": "A0001141",
          "name": "㈜씨더블유이엔지",
          "brand": "현대오일뱅크",
          "brandCode": "HDO",
          "price": 1982,
          "address": "서울 금천구 독산동 900-4",
          "roadAddress": "서울 금천구 남부순환로 1410 (독산동)",
          "katecX": 303569.4,
          "katecY": 542566.5,
          "latitude": 37.4801451,
          "longitude": 126.9074514
        },
        {
          "id": "A0000660",
          "name": "천호현대주유소",
          "brand": "현대오일뱅크",
          "brandCode": "HDO",
          "price": 1983,
          "address": "서울 강동구 천호동 308-11",
          "roadAddress": "서울 강동구 천중로 67 (천호동)",
          "katecX": 323270,
          "katecY": 549567,
          "latitude": 37.5450676,
          "longitude": 127.1294426
        },
        {
          "id": "A0005900",
          "name": "(주)아이에스피에너지(서울서부고속주유소)",
          "brand": "현대오일뱅크",
          "brandCode": "HDO",
          "price": 1983,
          "address": "서울 은평구 응암동 594-1",
          "roadAddress": "서울 은평구 응암로 163",
          "katecX": 304456.00039,
          "katecY": 554380.95521,
          "latitude": 37.5866758,
          "longitude": 126.9159347
        },
        {
          "id": "A0033424",
          "name": "㈜버드에너지 위례제일",
          "brand": "S-OIL",
          "brandCode": "SOL",
          "price": 1983,
          "address": "서울 송파구 거여동 601",
          "roadAddress": "서울 송파구 위례서로 260",
          "katecX": 324357.57594,
          "katecY": 543195.71808,
          "latitude": 37.4877538,
          "longitude": 127.1424062
        },
        {
          "id": "A0000491",
          "name": "(주)타이거오일 방화주유소",
          "brand": "SK에너지",
          "brandCode": "SKE",
          "price": 1983,
          "address": "서울 강서구 방화동 609-59",
          "roadAddress": "서울 강서구 방화동로 58-2",
          "katecX": 295279,
          "katecY": 552147.9,
          "latitude": 37.5655588,
          "longitude": 126.8123639
        },
        {
          "id": "A0009989",
          "name": "상아주유소",
          "brand": "S-OIL",
          "brandCode": "SOL",
          "price": 1983,
          "address": "서울 송파구 마천동 49-11",
          "roadAddress": "서울 송파구 거마로 82",
          "katecX": 324844.3,
          "katecY": 544548.6,
          "latitude": 37.4999828,
          "longitude": 127.147771
        },
        {
          "id": "A0001164",
          "name": "(주)화동유업 화동주유소",
          "brand": "SK에너지",
          "brandCode": "SKE",
          "price": 1983,
          "address": "서울 금천구 독산동 967",
          "roadAddress": "서울 금천구 시흥대로 484",
          "katecX": 302821.53096,
          "katecY": 542201.78194,
          "latitude": 37.4767808,
          "longitude": 126.8990451
        },
        {
          "id": "A0001015",
          "name": "동일석유㈜개나리주유소",
          "brand": "SK에너지",
          "brandCode": "SKE",
          "price": 1984,
          "address": "서울 양천구 신월동 206-1",
          "roadAddress": "서울 양천구 남부순환로 442 (신월동)",
          "katecX": 297042.8987,
          "katecY": 548004.3926,
          "latitude": 37.5284295,
          "longitude": 126.832909
        },
        {
          "id": "A0001023",
          "name": "㈜자연에너지 남부주유소",
          "brand": "현대오일뱅크",
          "brandCode": "HDO",
          "price": 1984,
          "address": "서울 양천구 신월4동 525-1",
          "roadAddress": "서울 양천구 남부순환로 553",
          "katecX": 297546.1436,
          "katecY": 546999.2892,
          "latitude": 37.5194307,
          "longitude": 126.838742
        },
        {
          "id": "A0001029",
          "name": "(주)타이거오일 신정주유소",
          "brand": "SK에너지",
          "brandCode": "SKE",
          "price": 1984,
          "address": "서울 양천구 신정동 1052-12",
          "roadAddress": "서울 양천구 중앙로 226 (신정동)",
          "katecX": 298952.04545,
          "katecY": 546698.44763,
          "latitude": 37.5168757,
          "longitude": 126.854685
        },
        {
          "id": "A0000139",
          "name": "(주)타이거통상 월드컵주유소",
          "brand": "S-OIL",
          "brandCode": "SOL",
          "price": 1984,
          "address": "서울 마포구 성산동 200-4",
          "roadAddress": "서울 마포구 월드컵북로 170 (성산제2동)",
          "katecX": 303877,
          "katecY": 552253,
          "latitude": 37.5674445,
          "longitude": 126.9096594
        },
        {
          "id": "A0000571",
          "name": "타이거주유소",
          "brand": "SK에너지",
          "brandCode": "SKE",
          "price": 1984,
          "address": "서울 은평구 증산동 222-6",
          "roadAddress": "서울 은평구 수색로 188 (증산동)",
          "katecX": 303210.6238,
          "katecY": 553470.303,
          "latitude": 37.5783413,
          "longitude": 126.9019564
        }
      ]
    },
    {
      "regionCode": "02",
      "regionName": "경기",
      "fuelCode": "B027",
      "fuelName": "휘발유",
      "stations": [
        {
          "id": "A0004155",
          "name": "광신직영(랜드마크셀프)",
          "brand": "S-OIL",
          "brandCode": "SOL",
          "price": 1955,
          "address": "경기 이천시 모가면 어농리 61-1",
          "roadAddress": "경기 이천시 모가면 사실로 878",
          "katecX": 350559.32839,
          "katecY": 509973.36797,
          "latitude": 37.1901778,
          "longitude": 127.440902
        },
        {
          "id": "A0001901",
          "name": "주식회사 기정에너지",
          "brand": "GS칼텍스",
          "brandCode": "GSC",
          "price": 1962,
          "address": "경기 시흥시 신천동 586-6",
          "roadAddress": "경기 시흥시 수인로 3471 (신천동)",
          "katecX": 291677,
          "katecY": 538576,
          "latitude": 37.4428757,
          "longitude": 126.7736009
        },
        {
          "id": "A0008371",
          "name": "㈜한경에너지",
          "brand": "GS칼텍스",
          "brandCode": "GSC",
          "price": 1964,
          "address": "경기 시흥시 신천동 83-65",
          "roadAddress": "경기 시흥시 수인로 3293 (신천동)",
          "katecX": 293359,
          "katecY": 538055,
          "latitude": 37.4383777,
          "longitude": 126.7926808
        },
        {
          "id": "A0007077",
          "name": "대야동주유소",
          "brand": "RTO",
          "brandCode": "RTO",
          "price": 1964,
          "address": "경기 시흥시 대야동 362-9",
          "roadAddress": "경기 시흥시 복지로 68",
          "katecX": 293165.6499,
          "katecY": 538804.2813,
          "latitude": 37.4451056,
          "longitude": 126.7903877
        },
        {
          "id": "A0004232",
          "name": "훼미리주유소",
          "brand": "S-OIL",
          "brandCode": "SOL",
          "price": 1965,
          "address": "경기 의정부시 장암동 90-11",
          "roadAddress": "경기 의정부시 동일로 207 (장암동)",
          "katecX": 317107.6987,
          "katecY": 567651.8751,
          "latitude": 37.7074673,
          "longitude": 127.0576597
        },
        {
          "id": "A0009753",
          "name": "마도알뜰주유소",
          "brand": "RTO",
          "brandCode": "RTO",
          "price": 1967,
          "address": "경기 화성시 만세구 마도면 두곡리 406-11",
          "roadAddress": "경기 화성시 만세구 마도면 두곡서길 58",
          "katecX": 291938,
          "katecY": 512277,
          "latitude": 37.2059771,
          "longitude": 126.7803853
        },
        {
          "id": "A0005046",
          "name": "의정부 코스모스주유소",
          "brand": "S-OIL",
          "brandCode": "SOL",
          "price": 1969,
          "address": "경기 의정부시 의정부동 238-1",
          "roadAddress": "경기 의정부시 평화로 593 (의정부동)",
          "katecX": 316108.303,
          "katecY": 571807.89534,
          "latitude": 37.7448187,
          "longitude": 127.0458465
        },
        {
          "id": "A0006954",
          "name": "㈜승지 승일주유소",
          "brand": "RTO",
          "brandCode": "RTO",
          "price": 1969,
          "address": "경기 부천시 원미구 상동 621-1",
          "roadAddress": "경기 부천시 원미구 상일로 42",
          "katecX": 289363,
          "katecY": 543979,
          "latitude": 37.4912756,
          "longitude": 126.7466433
        },
        {
          "id": "A0017620",
          "name": "오일필드㈜ 남양지점",
          "brand": "자가상표",
          "brandCode": "ETC",
          "price": 1973,
          "address": "경기 화성시 만세구 남양동 443-3",
          "roadAddress": "경기 화성시 만세구 남양성지로 17",
          "katecX": 294144.00578,
          "katecY": 512188.99072,
          "latitude": 37.2054375,
          "longitude": 126.805245
        },
        {
          "id": "A0009185",
          "name": "무지내주유소",
          "brand": "RTO",
          "brandCode": "RTO",
          "price": 1973,
          "address": "경기 시흥시 무지내동 277-1",
          "roadAddress": "경기 시흥시  금오로 144 (무지내동)",
          "katecX": 297552,
          "katecY": 535584,
          "latitude": 37.4165906,
          "longitude": 126.8403979
        },
        {
          "id": "A0005613",
          "name": "태림주유소",
          "brand": "현대오일뱅크",
          "brandCode": "HDO",
          "price": 1973,
          "address": "경기 고양시 일산서구 가좌동 220-1",
          "roadAddress": "경기 고양시 일산서구 송산로 406",
          "katecX": 287648.298,
          "katecY": 565555.1289,
          "latitude": 37.6854362,
          "longitude": 126.7239429
        },
        {
          "id": "A0005266",
          "name": "(주)원흥 원당동지점",
          "brand": "현대오일뱅크",
          "brandCode": "HDO",
          "price": 1974,
          "address": "경기 고양시 덕양구 원당동 179-1",
          "roadAddress": "경기 고양시 덕양구 호국로 1113",
          "katecX": 299700,
          "katecY": 564256,
          "latitude": 37.6751318,
          "longitude": 126.8607354
        },
        {
          "id": "A0006122",
          "name": "㈜원흥.양주지점 제이앤에스",
          "brand": "현대오일뱅크",
          "brandCode": "HDO",
          "price": 1974,
          "address": "경기 양주시 산북동 198-3",
          "roadAddress": "경기 양주시 평화로 1107 (산북동)",
          "katecX": 316375.4981,
          "katecY": 576840.0958,
          "latitude": 37.7901792,
          "longitude": 127.0482971
        },
        {
          "id": "A0006862",
          "name": "안현주유소",
          "brand": "S-OIL",
          "brandCode": "SOL",
          "price": 1974,
          "address": "경기 시흥시 안현동 184-3",
          "roadAddress": "경기 시흥시 수인로 3105 (안현동)",
          "katecX": 294914.284,
          "katecY": 537314.565,
          "latitude": 37.4318853,
          "longitude": 126.8103583
        },
        {
          "id": "A0006885",
          "name": "(주)푸른에너지",
          "brand": "GS칼텍스",
          "brandCode": "GSC",
          "price": 1974,
          "address": "경기 시흥시 금이동 136-3",
          "roadAddress": "경기 시흥시 수인로 2722 (금이동)",
          "katecX": 296731,
          "katecY": 534393,
          "latitude": 37.4057695,
          "longitude": 126.8312914
        },
        {
          "id": "A0005592",
          "name": "안양동주유소",
          "brand": "RTO",
          "brandCode": "RTO",
          "price": 1974,
          "address": "경기 안양시 만안구 안양동 695-2",
          "roadAddress": "경기 안양시 만안구 박달로 552 (안양동)",
          "katecX": 304062,
          "katecY": 533922,
          "latitude": 37.4023155,
          "longitude": 126.9141462
        },
        {
          "id": "A0008278",
          "name": "주유할인마트",
          "brand": "RTO",
          "brandCode": "RTO",
          "price": 1974,
          "address": "경기 시흥시 금이동 73-1",
          "roadAddress": "경기 시흥시 수인로 2648 (금이동)",
          "katecX": 297474,
          "katecY": 534313,
          "latitude": 37.4051314,
          "longitude": 126.8396936
        },
        {
          "id": "A0005163",
          "name": "㈜너멍골",
          "brand": "S-OIL",
          "brandCode": "SOL",
          "price": 1974,
          "address": "경기 고양시 덕양구 신원동 437-4",
          "roadAddress": "경기 고양시 덕양구 호국로 1259",
          "katecX": 301060.6,
          "katecY": 564428.4,
          "latitude": 37.6768329,
          "longitude": 126.8761333
        },
        {
          "id": "A0008438",
          "name": "KH에너지㈜직영 시흥주유소",
          "brand": "SK에너지",
          "brandCode": "SKE",
          "price": 1974,
          "address": "경기 시흥시 신천동 712-2",
          "roadAddress": "경기 시흥시 수인로 3380 (신천동)",
          "katecX": 292543.3906,
          "katecY": 538396.0738,
          "latitude": 37.4413559,
          "longitude": 126.7834162
        },
        {
          "id": "A0005030",
          "name": "(주)교현 알뜰주유소",
          "brand": "RTO",
          "brandCode": "RTO",
          "price": 1974,
          "address": "경기 양주시 장흥면 교현리 333-3",
          "roadAddress": "경기 양주시 장흥면 북한산로 863",
          "katecX": 309314,
          "katecY": 566778,
          "latitude": 37.698855,
          "longitude": 126.9693909
        }
      ]
    },
    {
      "regionCode": "02",
      "regionName": "경기",
      "fuelCode": "D047",
      "fuelName": "경유",
      "stations": [
        {
          "id": "A0004606",
          "name": "장군제2주유소",
          "brand": "SK에너지",
          "brandCode": "SKE",
          "price": 1940,
          "address": "경기 포천시 영북면 야미리 467-2",
          "roadAddress": "경기 포천시 영북면 호국로 3428",
          "katecX": 335884,
          "katecY": 604703,
          "latitude": 38.0427897,
          "longitude": 127.2672894
        },
        {
          "id": "A0001901",
          "name": "주식회사 기정에너지",
          "brand": "GS칼텍스",
          "brandCode": "GSC",
          "price": 1954,
          "address": "경기 시흥시 신천동 586-6",
          "roadAddress": "경기 시흥시 수인로 3471 (신천동)",
          "katecX": 291677,
          "katecY": 538576,
          "latitude": 37.4428757,
          "longitude": 126.7736009
        },
        {
          "id": "A0008371",
          "name": "㈜한경에너지",
          "brand": "GS칼텍스",
          "brandCode": "GSC",
          "price": 1954,
          "address": "경기 시흥시 신천동 83-65",
          "roadAddress": "경기 시흥시 수인로 3293 (신천동)",
          "katecX": 293359,
          "katecY": 538055,
          "latitude": 37.4383777,
          "longitude": 126.7926808
        },
        {
          "id": "A0007077",
          "name": "대야동주유소",
          "brand": "RTO",
          "brandCode": "RTO",
          "price": 1954,
          "address": "경기 시흥시 대야동 362-9",
          "roadAddress": "경기 시흥시 복지로 68",
          "katecX": 293165.6499,
          "katecY": 538804.2813,
          "latitude": 37.4451056,
          "longitude": 126.7903877
        },
        {
          "id": "A0004155",
          "name": "광신직영(랜드마크셀프)",
          "brand": "S-OIL",
          "brandCode": "SOL",
          "price": 1955,
          "address": "경기 이천시 모가면 어농리 61-1",
          "roadAddress": "경기 이천시 모가면 사실로 878",
          "katecX": 350559.32839,
          "katecY": 509973.36797,
          "latitude": 37.1901778,
          "longitude": 127.440902
        },
        {
          "id": "A0009753",
          "name": "마도알뜰주유소",
          "brand": "RTO",
          "brandCode": "RTO",
          "price": 1957,
          "address": "경기 화성시 만세구 마도면 두곡리 406-11",
          "roadAddress": "경기 화성시 만세구 마도면 두곡서길 58",
          "katecX": 291938,
          "katecY": 512277,
          "latitude": 37.2059771,
          "longitude": 126.7803853
        },
        {
          "id": "A0003357",
          "name": "한길주유소 안성점 한솔유화㈜",
          "brand": "현대오일뱅크",
          "brandCode": "HDO",
          "price": 1957,
          "address": "경기 안성시 대덕면 소현리 293",
          "roadAddress": "경기 안성시 대덕면 서동대로 5049",
          "katecX": 334202,
          "katecY": 491595,
          "latitude": 37.0235636,
          "longitude": 127.2582899
        },
        {
          "id": "A0007062",
          "name": "시흥버스터미널㈜",
          "brand": "S-OIL",
          "brandCode": "SOL",
          "price": 1958,
          "address": "경기 시흥시 정왕동 1745-6",
          "roadAddress": "경기 시흥시 옥구공원로 225 (정왕동)",
          "katecX": 288199.1,
          "katecY": 527483.4,
          "latitude": 37.3425303,
          "longitude": 126.7359846
        },
        {
          "id": "A0006992",
          "name": "(주)진성에너지 안성맞춤셀프주유소",
          "brand": "GS칼텍스",
          "brandCode": "GSC",
          "price": 1959,
          "address": "경기 안성시 당왕동 269-11",
          "roadAddress": "경기 안성시 안성맞춤대로 1253 (당왕동)",
          "katecX": 334838.57165,
          "katecY": 491613.67936,
          "latitude": 37.0237765,
          "longitude": 127.265442
        },
        {
          "id": "A0005046",
          "name": "의정부 코스모스주유소",
          "brand": "S-OIL",
          "brandCode": "SOL",
          "price": 1959,
          "address": "경기 의정부시 의정부동 238-1",
          "roadAddress": "경기 의정부시 평화로 593 (의정부동)",
          "katecX": 316108.303,
          "katecY": 571807.89534,
          "latitude": 37.7448187,
          "longitude": 127.0458465
        },
        {
          "id": "A0009000",
          "name": "신기알뜰주유소",
          "brand": "RTO",
          "brandCode": "RTO",
          "price": 1960,
          "address": "경기 화성시 만세구 남양읍 북양리 55-5",
          "roadAddress": "경기 화성시 만세구 남양읍 화성로 1472",
          "katecX": 297422,
          "katecY": 514023,
          "latitude": 37.2223275,
          "longitude": 126.841914
        },
        {
          "id": "A0005613",
          "name": "태림주유소",
          "brand": "현대오일뱅크",
          "brandCode": "HDO",
          "price": 1963,
          "address": "경기 고양시 일산서구 가좌동 220-1",
          "roadAddress": "경기 고양시 일산서구 송산로 406",
          "katecX": 287648.298,
          "katecY": 565555.1289,
          "latitude": 37.6854362,
          "longitude": 126.7239429
        },
        {
          "id": "A0006988",
          "name": "동백호수주유소",
          "brand": "S-OIL",
          "brandCode": "SOL",
          "price": 1963,
          "address": "경기 용인시 기흥구 중동 709",
          "roadAddress": "경기도 용인시 기흥구 동백죽전대로 381",
          "katecX": 324672.13544,
          "katecY": 519428.57526,
          "latitude": 37.2736371,
          "longitude": 127.1483879
        },
        {
          "id": "A0008431",
          "name": "㈜자연에너지 황소주유소",
          "brand": "현대오일뱅크",
          "brandCode": "HDO",
          "price": 1963,
          "address": "경기 시흥시 월곶동 165-2",
          "roadAddress": "경기 시흥시 동서로 174",
          "katecX": 290893,
          "katecY": 531850,
          "latitude": 37.3821897,
          "longitude": 126.7657374
        },
        {
          "id": "A0009185",
          "name": "무지내주유소",
          "brand": "RTO",
          "brandCode": "RTO",
          "price": 1963,
          "address": "경기 시흥시 무지내동 277-1",
          "roadAddress": "경기 시흥시  금오로 144 (무지내동)",
          "katecX": 297552,
          "katecY": 535584,
          "latitude": 37.4165906,
          "longitude": 126.8403979
        },
        {
          "id": "A0009709",
          "name": "남선석유(주)은계셀프주유소",
          "brand": "S-OIL",
          "brandCode": "SOL",
          "price": 1963,
          "address": "경기 시흥시 안현동 172-1",
          "roadAddress": "경기 시흥시 수인로 3142 (안현동)",
          "katecX": 294737.32911,
          "katecY": 537625.78176,
          "latitude": 37.4346689,
          "longitude": 126.8083148
        },
        {
          "id": "A0006885",
          "name": "(주)푸른에너지",
          "brand": "GS칼텍스",
          "brandCode": "GSC",
          "price": 1964,
          "address": "경기 시흥시 금이동 136-3",
          "roadAddress": "경기 시흥시 수인로 2722 (금이동)",
          "katecX": 296731,
          "katecY": 534393,
          "latitude": 37.4057695,
          "longitude": 126.8312914
        },
        {
          "id": "A0006954",
          "name": "㈜승지 승일주유소",
          "brand": "RTO",
          "brandCode": "RTO",
          "price": 1964,
          "address": "경기 부천시 원미구 상동 621-1",
          "roadAddress": "경기 부천시 원미구 상일로 42",
          "katecX": 289363,
          "katecY": 543979,
          "latitude": 37.4912756,
          "longitude": 126.7466433
        },
        {
          "id": "A0019284",
          "name": "시흥버스터미널㈜ 월곶점",
          "brand": "GS칼텍스",
          "brandCode": "GSC",
          "price": 1964,
          "address": "경기 시흥시 월곶동 645-1",
          "roadAddress": "경기 시흥시 서해안로 804-1",
          "katecX": 289295,
          "katecY": 532583,
          "latitude": 37.3886035,
          "longitude": 126.7475868
        },
        {
          "id": "A0005030",
          "name": "(주)교현 알뜰주유소",
          "brand": "RTO",
          "brandCode": "RTO",
          "price": 1964,
          "address": "경기 양주시 장흥면 교현리 333-3",
          "roadAddress": "경기 양주시 장흥면 북한산로 863",
          "katecX": 309314,
          "katecY": 566778,
          "latitude": 37.698855,
          "longitude": 126.9693909
        }
      ]
    },
    {
      "regionCode": "03",
      "regionName": "강원",
      "fuelCode": "B027",
      "fuelName": "휘발유",
      "stations": [
        {
          "id": "A0010839",
          "name": "기린농협주유소",
          "brand": "농협알뜰",
          "brandCode": "NHO",
          "price": 1959,
          "address": "강원 인제군 기린면 현리 695-6",
          "roadAddress": "강원 인제군 기린면 내린천로 3996",
          "katecX": 427971,
          "katecY": 594543,
          "latitude": 37.9531062,
          "longitude": 128.3160381
        },
        {
          "id": "A0011150",
          "name": "횡성농협 유현지점주유소",
          "brand": "농협알뜰",
          "brandCode": "NHO",
          "price": 1964,
          "address": "강원 횡성군 서원면 유현리 128-1",
          "roadAddress": "강원 횡성군 서원면 경강로 800",
          "katecX": 389998.5945,
          "katecY": 547190.9416,
          "latitude": 37.5268101,
          "longitude": 127.8846123
        },
        {
          "id": "A0011160",
          "name": "횡성농협클린주유소",
          "brand": "농협알뜰",
          "brandCode": "NHO",
          "price": 1964,
          "address": "강원 횡성군 횡성읍 읍상리 494",
          "roadAddress": "강원 횡성군 횡성읍 한우로 323",
          "katecX": 399201.87945,
          "katecY": 542759.60599,
          "latitude": 37.486936,
          "longitude": 127.988744
        },
        {
          "id": "A0011396",
          "name": "회산주유소",
          "brand": "S-OIL",
          "brandCode": "SOL",
          "price": 1966,
          "address": "강원 강릉시 회산동 234-1",
          "roadAddress": "강원 강릉시 관솔길 27 (회산동)",
          "katecX": 476869.0913,
          "katecY": 571111.1021,
          "latitude": 37.7391922,
          "longitude": 128.8699272
        },
        {
          "id": "A0011488",
          "name": "솔향주유소",
          "brand": "RTO",
          "brandCode": "RTO",
          "price": 1968,
          "address": "강원 강릉시 홍제동 757-1",
          "roadAddress": "강원 강릉시 공제로437번길 1 (홍제동)",
          "katecX": 476659,
          "katecY": 571877,
          "latitude": 37.7461101,
          "longitude": 128.8676243
        },
        {
          "id": "A0011566",
          "name": "주식회사 백두가스산업",
          "brand": "현대오일뱅크",
          "brandCode": "HDO",
          "price": 1970,
          "address": "강원 강릉시 연곡면 방내리 187-18",
          "roadAddress": "강원 강릉시 연곡면 동해대로 4357",
          "katecX": 473605.5143,
          "katecY": 585616.8422,
          "latitude": 37.8701478,
          "longitude": 128.834371
        },
        {
          "id": "A0010994",
          "name": "동명주유소",
          "brand": "RTO",
          "brandCode": "RTO",
          "price": 1973,
          "address": "강원 원주시 태장1동 155",
          "roadAddress": "강원 원주시 치악로 2090 (태장동)",
          "katecX": 396880,
          "katecY": 529274,
          "latitude": 37.3654125,
          "longitude": 127.9625489
        },
        {
          "id": "A0010431",
          "name": "㈜붕붕붕주유소",
          "brand": "GS칼텍스",
          "brandCode": "GSC",
          "price": 1974,
          "address": "강원 춘천시 석사동 430-1",
          "roadAddress": "강원 춘천시 공지로 156-3",
          "katecX": 377764.15575,
          "katecY": 584168.95196,
          "latitude": 37.8597823,
          "longitude": 127.7450548
        },
        {
          "id": "A0010392",
          "name": "춘천주유소",
          "brand": "SK에너지",
          "brandCode": "SKE",
          "price": 1974,
          "address": "강원 춘천시 효자동 287-1",
          "roadAddress": "강원 춘천시  공지로 234-1 (효자동)",
          "katecX": 377115.7567,
          "katecY": 584606.7506,
          "latitude": 37.8637108,
          "longitude": 127.7376721
        },
        {
          "id": "A0010326",
          "name": "새춘천주유소",
          "brand": "RTO",
          "brandCode": "RTO",
          "price": 1975,
          "address": "강원 춘천시 동내면 거두리 667-1",
          "roadAddress": "강원 춘천시 동내면 세실로 38",
          "katecX": 379030.8987,
          "katecY": 584271.8049,
          "latitude": 37.8607393,
          "longitude": 127.7594478
        },
        {
          "id": "A0010481",
          "name": "㈜갤럭시(Galaxy)E＆S",
          "brand": "GS칼텍스",
          "brandCode": "GSC",
          "price": 1975,
          "address": "강원 춘천시 동내면 거두리 682-8",
          "roadAddress": "강원 춘천시 동내면 세실로 20",
          "katecX": 379108.27023,
          "katecY": 584110.51545,
          "latitude": 37.8592879,
          "longitude": 127.7603318
        },
        {
          "id": "A0009382",
          "name": "지에스칼텍스(주) 이마트원주점",
          "brand": "GS칼텍스",
          "brandCode": "GSC",
          "price": 1978,
          "address": "강원 원주시 무실동 1062-1",
          "roadAddress": "강원 원주시 북원로 1930 (무실동)",
          "katecX": 392975.33922,
          "katecY": 524327.19674,
          "latitude": 37.3208143,
          "longitude": 127.9185146
        },
        {
          "id": "A0011147",
          "name": "둔내농협주유소",
          "brand": "농협알뜰",
          "brandCode": "NHO",
          "price": 1980,
          "address": "강원 횡성군 둔내면 자포곡리456-13",
          "roadAddress": "강원 횡성군 둔내면 둔내로48번길 15",
          "katecX": 419278.7,
          "katecY": 545470.4,
          "latitude": 37.5111658,
          "longitude": 128.2158416
        },
        {
          "id": "A0010714",
          "name": "명동주유소",
          "brand": "GS칼텍스",
          "brandCode": "GSC",
          "price": 1980,
          "address": "강원 홍천군 남면 명동리 6-1",
          "roadAddress": "강원 홍천군 남면 남노일로 226",
          "katecX": 380164.2211,
          "katecY": 559565.9329,
          "latitude": 37.6381556,
          "longitude": 127.7730087
        },
        {
          "id": "A0010677",
          "name": "묵호농협주유소",
          "brand": "농협알뜰",
          "brandCode": "NHO",
          "price": 1980,
          "address": "강원 동해시 부곡동 75-5",
          "roadAddress": "강원 동해시 발한로 39 (부곡동)",
          "katecX": 497678,
          "katecY": 548784,
          "latitude": 37.5360699,
          "longitude": 129.1030137
        },
        {
          "id": "A0033772",
          "name": "철원농협주유소",
          "brand": "농협알뜰",
          "brandCode": "NHO",
          "price": 1980,
          "address": "강원 철원군 철원읍 화지리 764 가동",
          "roadAddress": "강원 철원군 철원읍 금학로290번길 43",
          "katecX": 331818.08284,
          "katecY": 623992.2642,
          "latitude": 38.2162695,
          "longitude": 127.2191218
        },
        {
          "id": "A0011010",
          "name": "치악산주유소",
          "brand": "현대오일뱅크",
          "brandCode": "HDO",
          "price": 1982,
          "address": "강원 원주시 신림면 황둔리 689-3",
          "roadAddress": "강원 원주시 신림면 신림황둔로 1107",
          "katecX": 416088.5,
          "katecY": 517321.3,
          "latitude": 37.2575756,
          "longitude": 128.1791511
        },
        {
          "id": "A0010927",
          "name": "(주)치악제일주유소",
          "brand": "현대오일뱅크",
          "brandCode": "HDO",
          "price": 1982,
          "address": "강원 원주시 신림면 황둔리 1282-5",
          "roadAddress": "강원 원주시 신림면 신림황둔로 833",
          "katecX": 413937,
          "katecY": 516350,
          "latitude": 37.2488572,
          "longitude": 128.1548781
        },
        {
          "id": "A0033649",
          "name": "춘천농협주유소 엔타점",
          "brand": "농협알뜰",
          "brandCode": "NHO",
          "price": 1983,
          "address": "강원 춘천시 석사동 980",
          "roadAddress": "강원 춘천시 후석로 120",
          "katecX": 378016.80833,
          "katecY": 584557.98708,
          "latitude": 37.8632938,
          "longitude": 127.7479142
        },
        {
          "id": "A0011060",
          "name": "원유주유소",
          "brand": "GS칼텍스",
          "brandCode": "GSC",
          "price": 1983,
          "address": "강원 원주시 단계동 114-6",
          "roadAddress": "강원 원주시 원문로 149 (단계동)",
          "katecX": 394198.91485,
          "katecY": 528155.90609,
          "latitude": 37.3553238,
          "longitude": 127.9322893
        }
      ]
    },
    {
      "regionCode": "03",
      "regionName": "강원",
      "fuelCode": "D047",
      "fuelName": "경유",
      "stations": [
        {
          "id": "A0011150",
          "name": "횡성농협 유현지점주유소",
          "brand": "농협알뜰",
          "brandCode": "NHO",
          "price": 1949,
          "address": "강원 횡성군 서원면 유현리 128-1",
          "roadAddress": "강원 횡성군 서원면 경강로 800",
          "katecX": 389998.5945,
          "katecY": 547190.9416,
          "latitude": 37.5268101,
          "longitude": 127.8846123
        },
        {
          "id": "A0011160",
          "name": "횡성농협클린주유소",
          "brand": "농협알뜰",
          "brandCode": "NHO",
          "price": 1949,
          "address": "강원 횡성군 횡성읍 읍상리 494",
          "roadAddress": "강원 횡성군 횡성읍 한우로 323",
          "katecX": 399201.87945,
          "katecY": 542759.60599,
          "latitude": 37.486936,
          "longitude": 127.988744
        },
        {
          "id": "A0011396",
          "name": "회산주유소",
          "brand": "S-OIL",
          "brandCode": "SOL",
          "price": 1956,
          "address": "강원 강릉시 회산동 234-1",
          "roadAddress": "강원 강릉시 관솔길 27 (회산동)",
          "katecX": 476869.0913,
          "katecY": 571111.1021,
          "latitude": 37.7391922,
          "longitude": 128.8699272
        },
        {
          "id": "A0011488",
          "name": "솔향주유소",
          "brand": "RTO",
          "brandCode": "RTO",
          "price": 1958,
          "address": "강원 강릉시 홍제동 757-1",
          "roadAddress": "강원 강릉시 공제로437번길 1 (홍제동)",
          "katecX": 476659,
          "katecY": 571877,
          "latitude": 37.7461101,
          "longitude": 128.8676243
        },
        {
          "id": "A0011223",
          "name": "(주)중앙에너지산업귀래지점 석산주유소",
          "brand": "SK에너지",
          "brandCode": "SKE",
          "price": 1959,
          "address": "강원 원주시 귀래면 귀래리 1395-4",
          "roadAddress": "강원 원주시 귀래면 고청길 70",
          "katecX": 388479.21555,
          "katecY": 514032.72127,
          "latitude": 37.2280033,
          "longitude": 127.8679469
        },
        {
          "id": "A0011566",
          "name": "주식회사 백두가스산업",
          "brand": "현대오일뱅크",
          "brandCode": "HDO",
          "price": 1960,
          "address": "강원 강릉시 연곡면 방내리 187-18",
          "roadAddress": "강원 강릉시 연곡면 동해대로 4357",
          "katecX": 473605.5143,
          "katecY": 585616.8422,
          "latitude": 37.8701478,
          "longitude": 128.834371
        },
        {
          "id": "A0010392",
          "name": "춘천주유소",
          "brand": "SK에너지",
          "brandCode": "SKE",
          "price": 1963,
          "address": "강원 춘천시 효자동 287-1",
          "roadAddress": "강원 춘천시  공지로 234-1 (효자동)",
          "katecX": 377115.7567,
          "katecY": 584606.7506,
          "latitude": 37.8637108,
          "longitude": 127.7376721
        },
        {
          "id": "A0010431",
          "name": "㈜붕붕붕주유소",
          "brand": "GS칼텍스",
          "brandCode": "GSC",
          "price": 1963,
          "address": "강원 춘천시 석사동 430-1",
          "roadAddress": "강원 춘천시 공지로 156-3",
          "katecX": 377764.15575,
          "katecY": 584168.95196,
          "latitude": 37.8597823,
          "longitude": 127.7450548
        },
        {
          "id": "A0010481",
          "name": "㈜갤럭시(Galaxy)E＆S",
          "brand": "GS칼텍스",
          "brandCode": "GSC",
          "price": 1965,
          "address": "강원 춘천시 동내면 거두리 682-8",
          "roadAddress": "강원 춘천시 동내면 세실로 20",
          "katecX": 379108.27023,
          "katecY": 584110.51545,
          "latitude": 37.8592879,
          "longitude": 127.7603318
        },
        {
          "id": "A0010326",
          "name": "새춘천주유소",
          "brand": "RTO",
          "brandCode": "RTO",
          "price": 1965,
          "address": "강원 춘천시 동내면 거두리 667-1",
          "roadAddress": "강원 춘천시 동내면 세실로 38",
          "katecX": 379030.8987,
          "katecY": 584271.8049,
          "latitude": 37.8607393,
          "longitude": 127.7594478
        },
        {
          "id": "A0011147",
          "name": "둔내농협주유소",
          "brand": "농협알뜰",
          "brandCode": "NHO",
          "price": 1965,
          "address": "강원 횡성군 둔내면 자포곡리456-13",
          "roadAddress": "강원 횡성군 둔내면 둔내로48번길 15",
          "katecX": 419278.7,
          "katecY": 545470.4,
          "latitude": 37.5111658,
          "longitude": 128.2158416
        },
        {
          "id": "A0033649",
          "name": "춘천농협주유소 엔타점",
          "brand": "농협알뜰",
          "brandCode": "NHO",
          "price": 1970,
          "address": "강원 춘천시 석사동 980",
          "roadAddress": "강원 춘천시 후석로 120",
          "katecX": 378016.80833,
          "katecY": 584557.98708,
          "latitude": 37.8632938,
          "longitude": 127.7479142
        },
        {
          "id": "A0010677",
          "name": "묵호농협주유소",
          "brand": "농협알뜰",
          "brandCode": "NHO",
          "price": 1970,
          "address": "강원 동해시 부곡동 75-5",
          "roadAddress": "강원 동해시 발한로 39 (부곡동)",
          "katecX": 497678,
          "katecY": 548784,
          "latitude": 37.5360699,
          "longitude": 129.1030137
        },
        {
          "id": "A0011758",
          "name": "하조대농협주유소",
          "brand": "농협알뜰",
          "brandCode": "NHO",
          "price": 1970,
          "address": "강원 양양군 현남면 원포리 18",
          "roadAddress": "강원 양양군 현남면 화상천로 5-4",
          "katecX": 469748,
          "katecY": 592065,
          "latitude": 37.9285441,
          "longitude": 128.7911513
        },
        {
          "id": "A0011553",
          "name": "북강릉농협주유소",
          "brand": "농협알뜰",
          "brandCode": "NHO",
          "price": 1970,
          "address": "강원 강릉시 주문진읍 주문리 1157-8",
          "roadAddress": "강원 강릉시 주문진읍 신영길 43",
          "katecX": 472000.22036,
          "katecY": 589543.3872,
          "latitude": 37.9056512,
          "longitude": 128.8165172
        },
        {
          "id": "A0033812",
          "name": "여량농협 북평주유소",
          "brand": "농협알뜰",
          "brandCode": "NHO",
          "price": 1970,
          "address": "강원 정선군 북평면 나전리 144-3",
          "roadAddress": "강원 정선군 북평면 서동로 1838",
          "katecX": 457483.5729,
          "katecY": 537303.0846,
          "latitude": 37.4359958,
          "longitude": 128.6473486
        },
        {
          "id": "A0000084",
          "name": "강현농업협동조합(강현농협주유소)",
          "brand": "농협알뜰",
          "brandCode": "NHO",
          "price": 1970,
          "address": "강원 양양군 강현면 정암리 17-6",
          "roadAddress": "강원 양양군 강현면 동해대로 3415",
          "katecX": 453872.1,
          "katecY": 615656.9,
          "latitude": 38.1421707,
          "longitude": 128.6123382
        },
        {
          "id": "A0010994",
          "name": "동명주유소",
          "brand": "RTO",
          "brandCode": "RTO",
          "price": 1973,
          "address": "강원 원주시 태장1동 155",
          "roadAddress": "강원 원주시 치악로 2090 (태장동)",
          "katecX": 396880,
          "katecY": 529274,
          "latitude": 37.3654125,
          "longitude": 127.9625489
        },
        {
          "id": "A0011220",
          "name": "CJ대한통운㈜ 토지주유소",
          "brand": "S-OIL",
          "brandCode": "SOL",
          "price": 1975,
          "address": "강원 원주시 단구동 128-12",
          "roadAddress": "강원 원주시 서원대로 516",
          "katecX": 396649.38718,
          "katecY": 524693.92775,
          "latitude": 37.3241402,
          "longitude": 127.9599672
        },
        {
          "id": "A0010507",
          "name": "㈜대경유업 퇴계로주유소",
          "brand": "현대오일뱅크",
          "brandCode": "HDO",
          "price": 1975,
          "address": "강원 춘천시 석사동 818-6",
          "roadAddress": "강원 춘천시 퇴계로 231",
          "katecX": 377692.6239,
          "katecY": 583748.2141,
          "latitude": 37.8559896,
          "longitude": 127.744255
        }
      ]
    },
    {
      "regionCode": "04",
      "regionName": "충북",
      "fuelCode": "B027",
      "fuelName": "휘발유",
      "stations": [
        {
          "id": "A0017261",
          "name": "문당주유소",
          "brand": "SK에너지",
          "brandCode": "SKE",
          "price": 1959,
          "address": "충북 괴산군 청안면 문당리 80-8",
          "roadAddress": "충북 괴산군 청안면 질마로 865",
          "katecX": 372454,
          "katecY": 460270,
          "latitude": 36.743182,
          "longitude": 127.6893337
        },
        {
          "id": "A0012731",
          "name": "상평주유소",
          "brand": "자가상표",
          "brandCode": "ETC",
          "price": 1959,
          "address": "충북 음성군 감곡면 상평리 300-2",
          "roadAddress": "충북 음성군 감곡면 감노로 239",
          "katecX": 368262,
          "katecY": 496186.9,
          "latitude": 37.0667179,
          "longitude": 127.6408793
        },
        {
          "id": "A0012442",
          "name": "진천농협주유소",
          "brand": "농협알뜰",
          "brandCode": "NHO",
          "price": 1970,
          "address": "충북 진천군 진천읍 사석리 246-1",
          "roadAddress": "충북 진천군 진천읍 금사로 400",
          "katecX": 347579.48299,
          "katecY": 469428.67467,
          "latitude": 36.824662,
          "longitude": 127.4101696
        },
        {
          "id": "A0012178",
          "name": "장성주유소",
          "brand": "RTO",
          "brandCode": "RTO",
          "price": 1974,
          "address": "충북 청주시 서원구 남이면 양촌리 9-3",
          "roadAddress": "충북 청주시 서원구 남이면 양촌4길 3",
          "katecX": 353239.9,
          "katecY": 443819.1,
          "latitude": 36.5941748,
          "longitude": 127.4751904
        },
        {
          "id": "A0017130",
          "name": "(주)청주관문주유소",
          "brand": "RTO",
          "brandCode": "RTO",
          "price": 1974,
          "address": "충북 청주시 서원구 미평동 19-2",
          "roadAddress": "충북 청주시 서원구 청남로 1894",
          "katecX": 353571,
          "katecY": 444752,
          "latitude": 36.6025982,
          "longitude": 127.4788342
        },
        {
          "id": "A0012500",
          "name": "행복에너지㈜ 행복에너지2주유소",
          "brand": "GS칼텍스",
          "brandCode": "GSC",
          "price": 1974,
          "address": "충북 청주시 서원구 미평동 6",
          "roadAddress": "충북 청주시 서원구 청남로 1937 (미평동)",
          "katecX": 353716,
          "katecY": 445145,
          "latitude": 36.6061469,
          "longitude": 127.4804311
        },
        {
          "id": "A0016924",
          "name": "(유)그린 주유소",
          "brand": "RTO",
          "brandCode": "RTO",
          "price": 1974,
          "address": "충북 청주시 서원구 개신동 316-4",
          "roadAddress": "충북 청주시 서원구 서부로 1409 (개신동)",
          "katecX": 351380.9459,
          "katecY": 446648.4016,
          "latitude": 36.6195786,
          "longitude": 127.4542354
        },
        {
          "id": "A0012417",
          "name": "㈜상일주유소",
          "brand": "RTO",
          "brandCode": "RTO",
          "price": 1978,
          "address": "충북 청주시 서원구 남이면 외천리 172-1",
          "roadAddress": "충청북도 청주시 서원구 남이면 청남로 1164",
          "katecX": 349318,
          "katecY": 439624,
          "latitude": 36.5561684,
          "longitude": 127.4316371
        },
        {
          "id": "A0012494",
          "name": "㈜신화에너지 오해피주유소",
          "brand": "SK에너지",
          "brandCode": "SKE",
          "price": 1978,
          "address": "충북 청주시 서원구 산남동 334-7",
          "roadAddress": "충북 청주시 서원구 구룡산로 217",
          "katecX": 352784,
          "katecY": 446207,
          "latitude": 36.6156716,
          "longitude": 127.4699481
        },
        {
          "id": "A0012039",
          "name": "충북석유(주) 방고개주유소",
          "brand": "SK에너지",
          "brandCode": "SKE",
          "price": 1978,
          "address": "충북 청주시 청원구 내덕동 177-1",
          "roadAddress": "충북 청주시 청원구 공항로 8 (내덕동)",
          "katecX": 354439.4913,
          "katecY": 450894.0548,
          "latitude": 36.6579913,
          "longitude": 127.4881755
        },
        {
          "id": "A0017389",
          "name": "남청주농협주유소",
          "brand": "농협알뜰",
          "brandCode": "NHO",
          "price": 1978,
          "address": "충북 청주시 서원구 남이면 외천리 4-1",
          "roadAddress": "충북 청주시 서원구 남이면 청남로 1228",
          "katecX": 349694,
          "katecY": 440101,
          "latitude": 36.560487,
          "longitude": 127.4358059
        },
        {
          "id": "A0017227",
          "name": "스카이주유소",
          "brand": "현대오일뱅크",
          "brandCode": "HDO",
          "price": 1979,
          "address": "충북 괴산군 청안면 청용리 180-2",
          "roadAddress": "충북 괴산군 청안면 중부로 2973",
          "katecX": 367689.4765,
          "katecY": 465929.5235,
          "latitude": 36.7940331,
          "longitude": 127.6357408
        },
        {
          "id": "A0012007",
          "name": "맹꽁이주유소",
          "brand": "RTO",
          "brandCode": "RTO",
          "price": 1979,
          "address": "충북 괴산군 문광면 송평리 116-3",
          "roadAddress": "충북 괴산군 문광면 괴산로 3314",
          "katecX": 379589.0029,
          "katecY": 464953.99554,
          "latitude": 36.7855754,
          "longitude": 127.7691035
        },
        {
          "id": "A0012072",
          "name": "증평self주유소",
          "brand": "현대오일뱅크",
          "brandCode": "HDO",
          "price": 1979,
          "address": "충북 증평군 연탄리 507-1",
          "roadAddress": "충북 증평군 증평읍 삼보로 7",
          "katecX": 361775.24852,
          "katecY": 465275.00385,
          "latitude": 36.7879134,
          "longitude": 127.5695048
        },
        {
          "id": "A0017127",
          "name": "두꺼비주유소",
          "brand": "RTO",
          "brandCode": "RTO",
          "price": 1979,
          "address": "충북 괴산군 청안면 청용리 202",
          "roadAddress": "충북 괴산군 중부로 2974",
          "katecX": 367712.8,
          "katecY": 465855,
          "latitude": 36.7933623,
          "longitude": 127.6360054
        },
        {
          "id": "A0012001",
          "name": "거북이주유소",
          "brand": "RTO",
          "brandCode": "RTO",
          "price": 1979,
          "address": "충북 청주시 청원구 북이면 대율리 160-14",
          "roadAddress": "충북 청주시 청원구 북이면 팔결신대로 517",
          "katecX": 357397,
          "katecY": 459468.4,
          "latitude": 36.7353987,
          "longitude": 127.5207764
        },
        {
          "id": "A0017311",
          "name": "너구리주유소",
          "brand": "RTO",
          "brandCode": "RTO",
          "price": 1979,
          "address": "충북 괴산군 사리면 방축리 236",
          "roadAddress": "충북 괴산군 사리면 중부로 321",
          "katecX": 369116.21437,
          "katecY": 467580.27242,
          "latitude": 36.8089571,
          "longitude": 127.6516602
        },
        {
          "id": "A0012896",
          "name": "선인주유소",
          "brand": "현대오일뱅크",
          "brandCode": "HDO",
          "price": 1979,
          "address": "충북 음성군 음성읍 신천리 107-5",
          "roadAddress": "충북 음성군 음성읍 충청대로 1235",
          "katecX": 372782.96601,
          "katecY": 479709.11911,
          "latitude": 36.9183717,
          "longitude": 127.6923167
        },
        {
          "id": "A0017307",
          "name": "현도주유소",
          "brand": "현대오일뱅크",
          "brandCode": "HDO",
          "price": 1979,
          "address": "충북 청주시 서원구 현도면 달계리 543",
          "roadAddress": "충북 청주시 서원구 현도면 청남로 264",
          "katecX": 348811.85953,
          "katecY": 431025.03728,
          "latitude": 36.4786484,
          "longitude": 127.4265554
        },
        {
          "id": "A0017291",
          "name": "칠성알뜰주유소",
          "brand": "RTO",
          "brandCode": "RTO",
          "price": 1980,
          "address": "충북 괴산군 칠성면 사평리 8-1번지 외 3필지",
          "roadAddress": "충북 괴산군 칠성면 중부로 5609",
          "katecX": 389332.47862,
          "katecY": 464665.7522,
          "latitude": 36.7831396,
          "longitude": 127.8782738
        }
      ]
    },
    {
      "regionCode": "04",
      "regionName": "충북",
      "fuelCode": "D047",
      "fuelName": "경유",
      "stations": [
        {
          "id": "A0026263",
          "name": "대황주유소",
          "brand": "현대오일뱅크",
          "brandCode": "HDO",
          "price": 1904,
          "address": "충북 제천시 봉양읍 원박리 903",
          "roadAddress": "충북 제천시 봉양읍 북부로 913",
          "katecX": 406691.13669,
          "katecY": 504135.99441,
          "latitude": 37.1388718,
          "longitude": 128.0730946
        },
        {
          "id": "A0001245",
          "name": "고암주유소",
          "brand": "SK에너지",
          "brandCode": "SKE",
          "price": 1939,
          "address": "충북 제천시 고암동 264-5",
          "roadAddress": "충북 제천시 내토로 1027",
          "katecX": 421215,
          "katecY": 507133,
          "latitude": 37.1656652,
          "longitude": 128.2366578
        },
        {
          "id": "A0033621",
          "name": "㈜신화에너지서울 박물관주유소",
          "brand": "SK에너지",
          "brandCode": "SKE",
          "price": 1940,
          "address": "충북 진천군 진천읍 장관리 357-9",
          "roadAddress": "충북 진천군 진천읍 생거진천로 1399",
          "katecX": 349598.72985,
          "katecY": 474555.80356,
          "latitude": 36.8709747,
          "longitude": 127.4324624
        },
        {
          "id": "A0012084",
          "name": "남일주유소",
          "brand": "현대오일뱅크",
          "brandCode": "HDO",
          "price": 1943,
          "address": "충북 청주시 상당구 남일면 고은리 207-8",
          "roadAddress": "충북 청주시 상당구 남일면 단재로 828",
          "katecX": 357016,
          "katecY": 440532,
          "latitude": 36.5647301,
          "longitude": 127.5175761
        },
        {
          "id": "A0013186",
          "name": "금대주유소",
          "brand": "GS칼텍스",
          "brandCode": "GSC",
          "price": 1955,
          "address": "충북 괴산군 연풍면 갈금리 255-13",
          "roadAddress": "충북 괴산군 연풍면 연풍로 805",
          "katecX": 395875,
          "katecY": 464380,
          "latitude": 36.7806168,
          "longitude": 127.951576
        },
        {
          "id": "A0012731",
          "name": "상평주유소",
          "brand": "자가상표",
          "brandCode": "ETC",
          "price": 1959,
          "address": "충북 음성군 감곡면 상평리 300-2",
          "roadAddress": "충북 음성군 감곡면 감노로 239",
          "katecX": 368262,
          "katecY": 496186.9,
          "latitude": 37.0667179,
          "longitude": 127.6408793
        },
        {
          "id": "A0013514",
          "name": "제이앤비코리아㈜ 중문주유소",
          "brand": "현대오일뱅크",
          "brandCode": "HDO",
          "price": 1959,
          "address": "충북 제천시 청전동 125-12",
          "roadAddress": "충북 제천시 의림대로 226",
          "katecX": 419262.2909,
          "katecY": 505121.9117,
          "latitude": 37.1475845,
          "longitude": 128.2146194
        },
        {
          "id": "A0016924",
          "name": "(유)그린 주유소",
          "brand": "RTO",
          "brandCode": "RTO",
          "price": 1959,
          "address": "충북 청주시 서원구 개신동 316-4",
          "roadAddress": "충북 청주시 서원구 서부로 1409 (개신동)",
          "katecX": 351380.9459,
          "katecY": 446648.4016,
          "latitude": 36.6195786,
          "longitude": 127.4542354
        },
        {
          "id": "A0017261",
          "name": "문당주유소",
          "brand": "SK에너지",
          "brandCode": "SKE",
          "price": 1959,
          "address": "충북 괴산군 청안면 문당리 80-8",
          "roadAddress": "충북 괴산군 청안면 질마로 865",
          "katecX": 372454,
          "katecY": 460270,
          "latitude": 36.743182,
          "longitude": 127.6893337
        },
        {
          "id": "A0017402",
          "name": "자유에너지(주)황제주유소",
          "brand": "RTO",
          "brandCode": "RTO",
          "price": 1959,
          "address": "충북 청주시 상당구 용암동 1687",
          "roadAddress": "충북 청주시 상당구 1순환로 1249",
          "katecX": 355852.97257,
          "katecY": 445316.22597,
          "latitude": 36.6077918,
          "longitude": 127.5043075
        },
        {
          "id": "A0010975",
          "name": "이포에너지㈜",
          "brand": "RTO",
          "brandCode": "RTO",
          "price": 1959,
          "address": "충청북도 제천시 장락동 415-1",
          "roadAddress": "충청북도 제천시 내토로 868",
          "katecX": 420484,
          "katecY": 505739,
          "latitude": 37.1531196,
          "longitude": 128.2283891
        },
        {
          "id": "A0013334",
          "name": "지산주유소",
          "brand": "현대오일뱅크",
          "brandCode": "HDO",
          "price": 1959,
          "address": "충북 제천시 봉양읍 원박리 896",
          "roadAddress": "충북 제천시 봉양읍 북부로 918",
          "katecX": 406714.3672,
          "katecY": 504073.1363,
          "latitude": 37.1383052,
          "longitude": 128.0733555
        },
        {
          "id": "A0012462",
          "name": "SK에너지㈜신세계주유소",
          "brand": "SK에너지",
          "brandCode": "SKE",
          "price": 1960,
          "address": "충북 청주시 서원구 모충동 121-14",
          "roadAddress": "충북 청주시 서원구 청남로 2125 (모충동)",
          "katecX": 354353,
          "katecY": 446878,
          "latitude": 36.6217953,
          "longitude": 127.4874479
        },
        {
          "id": "A0012442",
          "name": "진천농협주유소",
          "brand": "농협알뜰",
          "brandCode": "NHO",
          "price": 1960,
          "address": "충북 진천군 진천읍 사석리 246-1",
          "roadAddress": "충북 진천군 진천읍 금사로 400",
          "katecX": 347579.48299,
          "katecY": 469428.67467,
          "latitude": 36.824662,
          "longitude": 127.4101696
        },
        {
          "id": "A0017130",
          "name": "(주)청주관문주유소",
          "brand": "RTO",
          "brandCode": "RTO",
          "price": 1962,
          "address": "충북 청주시 서원구 미평동 19-2",
          "roadAddress": "충북 청주시 서원구 청남로 1894",
          "katecX": 353571,
          "katecY": 444752,
          "latitude": 36.6025982,
          "longitude": 127.4788342
        },
        {
          "id": "A0012500",
          "name": "행복에너지㈜ 행복에너지2주유소",
          "brand": "GS칼텍스",
          "brandCode": "GSC",
          "price": 1962,
          "address": "충북 청주시 서원구 미평동 6",
          "roadAddress": "충북 청주시 서원구 청남로 1937 (미평동)",
          "katecX": 353716,
          "katecY": 445145,
          "latitude": 36.6061469,
          "longitude": 127.4804311
        },
        {
          "id": "A0012178",
          "name": "장성주유소",
          "brand": "RTO",
          "brandCode": "RTO",
          "price": 1965,
          "address": "충북 청주시 서원구 남이면 양촌리 9-3",
          "roadAddress": "충북 청주시 서원구 남이면 양촌4길 3",
          "katecX": 353239.9,
          "katecY": 443819.1,
          "latitude": 36.5941748,
          "longitude": 127.4751904
        },
        {
          "id": "A0012417",
          "name": "㈜상일주유소",
          "brand": "RTO",
          "brandCode": "RTO",
          "price": 1968,
          "address": "충북 청주시 서원구 남이면 외천리 172-1",
          "roadAddress": "충청북도 청주시 서원구 남이면 청남로 1164",
          "katecX": 349318,
          "katecY": 439624,
          "latitude": 36.5561684,
          "longitude": 127.4316371
        },
        {
          "id": "A0012255",
          "name": "충북석유(주) 새터주유소",
          "brand": "SK에너지",
          "brandCode": "SKE",
          "price": 1968,
          "address": "충북 청주시 청원구사천동 206-3",
          "roadAddress": "충북 청주시 청원구 새터로 203",
          "katecX": 352912.51072,
          "katecY": 451636.17748,
          "latitude": 36.6646045,
          "longitude": 127.4710503
        },
        {
          "id": "A0013340",
          "name": "(주)북단양IC주유소",
          "brand": "SK에너지",
          "brandCode": "SKE",
          "price": 1968,
          "address": "충북 단양군 매포읍 평동리 393-3",
          "roadAddress": "충북 단양군 매포읍 적성로 28-12",
          "katecX": 426866.7662,
          "katecY": 491880.1787,
          "latitude": 37.0280728,
          "longitude": 128.2997536
        }
      ]
    },
    {
      "regionCode": "05",
      "regionName": "충남",
      "fuelCode": "B027",
      "fuelName": "휘발유",
      "stations": [
        {
          "id": "A0014141",
          "name": "㈜기인개발 중부제1주유소",
          "brand": "S-OIL",
          "brandCode": "SOL",
          "price": 1969,
          "address": "충남 공주시 정안면 운궁리 9-2",
          "roadAddress": "충남 공주시 정안면 차령로 3337-39",
          "katecX": 321176,
          "katecY": 443646,
          "latitude": 36.5904987,
          "longitude": 127.1168832
        },
        {
          "id": "A0014719",
          "name": "(주)오케이에너지 수정주유소",
          "brand": "SK에너지",
          "brandCode": "SKE",
          "price": 1969,
          "address": "충남 논산시 연무읍 마전리 287-35",
          "roadAddress": "충남 논산시 연무읍 황화로 116",
          "katecX": 318494.94213,
          "katecY": 387432.19794,
          "latitude": 36.0837037,
          "longitude": 127.0928172
        },
        {
          "id": "A0014446",
          "name": "정산농협목면지점주유소",
          "brand": "현대오일뱅크",
          "brandCode": "HDO",
          "price": 1970,
          "address": "충남 청양군 목면 안심리 262",
          "roadAddress": "충남 청양군 목면 안심길 167",
          "katecX": 311234,
          "katecY": 425123,
          "latitude": 36.4227131,
          "longitude": 127.007921
        },
        {
          "id": "A0014447",
          "name": "정산농협청남지점주유소",
          "brand": "현대오일뱅크",
          "brandCode": "HDO",
          "price": 1970,
          "address": "충청남도 청양군 청남면 청소리 193",
          "roadAddress": "충청남도 청양군 청남면 명덕로 193",
          "katecX": 306170.67392,
          "katecY": 417471.22534,
          "latitude": 36.3532803,
          "longitude": 126.9523908
        },
        {
          "id": "A0016399",
          "name": "천북농협주유소",
          "brand": "농협알뜰",
          "brandCode": "NHO",
          "price": 1970,
          "address": "충남 보령시 천북면 장은리 112-1",
          "roadAddress": "충남 보령시 천북면 홍보로 670",
          "katecX": 267895.1,
          "katecY": 433848.9,
          "latitude": 36.4963361,
          "longitude": 126.5232559
        },
        {
          "id": "A0033801",
          "name": "만수르기름창고㈜",
          "brand": "SK에너지",
          "brandCode": "SKE",
          "price": 1974,
          "address": "충남 아산시 음봉면 송촌리 54-3",
          "roadAddress": "충남 아산시 음봉면 음봉로 315",
          "katecX": 315114.62661,
          "katecY": 472016.52257,
          "latitude": 36.8456183,
          "longitude": 127.0459954
        },
        {
          "id": "A0033800",
          "name": "주식회사 만수르에너지",
          "brand": "S-OIL",
          "brandCode": "SOL",
          "price": 1974,
          "address": "충남 아산시 음봉면 송촌리 54-5",
          "roadAddress": "충남 아산시 음봉면 음봉로 319",
          "katecX": 315145.83875,
          "katecY": 472017.68747,
          "latitude": 36.8456316,
          "longitude": 127.0463452
        },
        {
          "id": "A0016542",
          "name": "햇님주유소",
          "brand": "RTO",
          "brandCode": "RTO",
          "price": 1974,
          "address": "충남 논산시 연산면 송정리 200-3번지",
          "roadAddress": "충남 논산시 연산면 계백로 2435",
          "katecX": 330691,
          "katecY": 402978.2,
          "latitude": 36.2247539,
          "longitude": 127.2268502
        },
        {
          "id": "A0016058",
          "name": "천안대로셀프",
          "brand": "S-OIL",
          "brandCode": "SOL",
          "price": 1975,
          "address": "충남 천안시 동남구 원성동 11-11",
          "roadAddress": "충남 천안시 동남구 천안대로 727",
          "katecX": 325646.44184,
          "katecY": 468322.85853,
          "latitude": 36.813224,
          "longitude": 127.1644351
        },
        {
          "id": "A0016224",
          "name": "(주)대성제2주유소",
          "brand": "GS칼텍스",
          "brandCode": "GSC",
          "price": 1975,
          "address": "충남 천안시 동남구 신부동 115-32",
          "roadAddress": "충남 천안시 동남구 가마골1길 10 (신부동)",
          "katecX": 325559.11593,
          "katecY": 469177.88704,
          "latitude": 36.8209217,
          "longitude": 127.1633726
        },
        {
          "id": "A0014741",
          "name": "처음주유소",
          "brand": "현대오일뱅크",
          "brandCode": "HDO",
          "price": 1975,
          "address": "충남 논산시 연산면 청동리 178-137",
          "roadAddress": "충남 논산시 연산면 계백로 2091",
          "katecX": 328595.14943,
          "katecY": 401287.02587,
          "latitude": 36.2093603,
          "longitude": 127.2036935
        },
        {
          "id": "A0016452",
          "name": "계백주유소",
          "brand": "RTO",
          "brandCode": "RTO",
          "price": 1975,
          "address": "충남 논산시 부적면 마구평리 6-92",
          "roadAddress": "충남 논산시 부적면 계백로 1428",
          "katecX": 322571.90275,
          "katecY": 401838.79551,
          "latitude": 36.2138683,
          "longitude": 127.1366594
        },
        {
          "id": "A0013640",
          "name": "청룡휴게주유소",
          "brand": "S-OIL",
          "brandCode": "SOL",
          "price": 1978,
          "address": "충남 공주시 의당면 청룡리 478-5",
          "roadAddress": "충남 공주시 의당면 차령로 2218",
          "katecX": 323391,
          "katecY": 433748,
          "latitude": 36.5014858,
          "longitude": 127.1426204
        },
        {
          "id": "A0015797",
          "name": "(주)오일마스터아산지점 송촌주유소",
          "brand": "SK에너지",
          "brandCode": "SKE",
          "price": 1978,
          "address": "충남 아산시 음봉면 송촌리 61",
          "roadAddress": "충남 아산시 음봉면 음봉로 336",
          "katecX": 315303.61771,
          "katecY": 471946.42956,
          "latitude": 36.8450037,
          "longitude": 127.0481221
        },
        {
          "id": "A0014401",
          "name": "㈜삼화에너지 일월",
          "brand": "현대오일뱅크",
          "brandCode": "HDO",
          "price": 1979,
          "address": "충남 공주시 정안면 인풍리 50-27 외 1필지",
          "roadAddress": "충남 공주시 정안면 차령로 3953",
          "katecX": 321672.00282,
          "katecY": 449191.99546,
          "latitude": 36.6405153,
          "longitude": 127.1218593
        },
        {
          "id": "A0014435",
          "name": "동현주유소",
          "brand": "RTO",
          "brandCode": "RTO",
          "price": 1979,
          "address": "충남 공주시 장기면 동현리 562-2",
          "roadAddress": "충남 공주시 장기면 차령로 1851",
          "katecX": 325479.966,
          "katecY": 431195.1176,
          "latitude": 36.478646,
          "longitude": 127.1661836
        },
        {
          "id": "A0014388",
          "name": "한옥마을주유소",
          "brand": "현대오일뱅크",
          "brandCode": "HDO",
          "price": 1979,
          "address": "충남 공주시 신기동 450-1",
          "roadAddress": "충남 공주시 전진배길 283",
          "katecX": 323801.87764,
          "katecY": 425322.38852,
          "latitude": 36.425592,
          "longitude": 127.1480376
        },
        {
          "id": "A0014402",
          "name": "(유) 대명케이에프 차에너지주유소",
          "brand": "현대오일뱅크",
          "brandCode": "HDO",
          "price": 1979,
          "address": "충남 공주시 동현동 562",
          "roadAddress": "충청남도 공주시 차령로 1856 (동현동)",
          "katecX": 325621.71816,
          "katecY": 431349.2608,
          "latitude": 36.4800461,
          "longitude": 127.1677505
        },
        {
          "id": "A0014807",
          "name": "강경농협주유소",
          "brand": "농협알뜰",
          "brandCode": "NHO",
          "price": 1979,
          "address": "충남 논산시 강경읍 채산리 534-3",
          "roadAddress": "충남 논산시 강경읍 계백로 57",
          "katecX": 311062.7,
          "katecY": 395066.9,
          "latitude": 36.1518516,
          "longitude": 127.0094401
        },
        {
          "id": "A0014658",
          "name": "명품셀프주유소",
          "brand": "SK에너지",
          "brandCode": "SKE",
          "price": 1979,
          "address": "충남 논산시 부창동 143-1",
          "roadAddress": "충남 논산시 계백로 896",
          "katecX": 317474,
          "katecY": 399954.5,
          "latitude": 36.1964653,
          "longitude": 127.0801662
        }
      ]
    },
    {
      "regionCode": "05",
      "regionName": "충남",
      "fuelCode": "D047",
      "fuelName": "경유",
      "stations": [
        {
          "id": "A0014748",
          "name": "㈜행운",
          "brand": "GS칼텍스",
          "brandCode": "GSC",
          "price": 1949,
          "address": "충남 논산시 연산면 송정리 343",
          "roadAddress": "충남 논산시 연산면 계백로 2500",
          "katecX": 330818,
          "katecY": 403648,
          "latitude": 36.2307992,
          "longitude": 127.2282034
        },
        {
          "id": "A0032939",
          "name": "탑셀프주유소",
          "brand": "현대오일뱅크",
          "brandCode": "HDO",
          "price": 1949,
          "address": "충남 홍성군 은하면 장척리 40-3",
          "roadAddress": "충남 홍성군 은하면 충서로 87-1",
          "katecX": 276056.51079,
          "katecY": 433298.73803,
          "latitude": 36.4924719,
          "longitude": 126.6144162
        },
        {
          "id": "A0014518",
          "name": "중앙주유소",
          "brand": "GS칼텍스",
          "brandCode": "GSC",
          "price": 1955,
          "address": "충남 논산시 상월면 월오리 141-2",
          "roadAddress": "충남 논산시 상월면 득안대로 3035",
          "katecX": 322353.20484,
          "katecY": 412475.62599,
          "latitude": 36.3097066,
          "longitude": 127.1331688
        },
        {
          "id": "A0014719",
          "name": "(주)오케이에너지 수정주유소",
          "brand": "SK에너지",
          "brandCode": "SKE",
          "price": 1959,
          "address": "충남 논산시 연무읍 마전리 287-35",
          "roadAddress": "충남 논산시 연무읍 황화로 116",
          "katecX": 318494.94213,
          "katecY": 387432.19794,
          "latitude": 36.0837037,
          "longitude": 127.0928172
        },
        {
          "id": "A0016542",
          "name": "햇님주유소",
          "brand": "RTO",
          "brandCode": "RTO",
          "price": 1959,
          "address": "충남 논산시 연산면 송정리 200-3번지",
          "roadAddress": "충남 논산시 연산면 계백로 2435",
          "katecX": 330691,
          "katecY": 402978.2,
          "latitude": 36.2247539,
          "longitude": 127.2268502
        },
        {
          "id": "A0014435",
          "name": "동현주유소",
          "brand": "RTO",
          "brandCode": "RTO",
          "price": 1959,
          "address": "충남 공주시 장기면 동현리 562-2",
          "roadAddress": "충남 공주시 장기면 차령로 1851",
          "katecX": 325479.966,
          "katecY": 431195.1176,
          "latitude": 36.478646,
          "longitude": 127.1661836
        },
        {
          "id": "A0014531",
          "name": "미래주유소",
          "brand": "RTO",
          "brandCode": "RTO",
          "price": 1963,
          "address": "충남 논산시 연산면 한전리 127-7",
          "roadAddress": "충남 논산시 연산면 계백로 1983",
          "katecX": 327545.00275,
          "katecY": 401184.99552,
          "latitude": 36.2083625,
          "longitude": 127.1920251
        },
        {
          "id": "A0013640",
          "name": "청룡휴게주유소",
          "brand": "S-OIL",
          "brandCode": "SOL",
          "price": 1963,
          "address": "충남 공주시 의당면 청룡리 478-5",
          "roadAddress": "충남 공주시 의당면 차령로 2218",
          "katecX": 323391,
          "katecY": 433748,
          "latitude": 36.5014858,
          "longitude": 127.1426204
        },
        {
          "id": "A0014573",
          "name": "㈜자연주유소",
          "brand": "SK에너지",
          "brandCode": "SKE",
          "price": 1964,
          "address": "충남 홍성군 홍성읍 학계리 368-1",
          "roadAddress": "충남 홍성군 홍성읍 남부순환로 377",
          "katecX": 280968,
          "katecY": 442351,
          "latitude": 36.5746556,
          "longitude": 126.6678233
        },
        {
          "id": "A0015069",
          "name": "주식회사 우리들",
          "brand": "GS칼텍스",
          "brandCode": "GSC",
          "price": 1964,
          "address": "충남 홍성군 구항면 마온리 1-1",
          "roadAddress": "충청남도 홍성군 구항면 충서로 1067-13",
          "katecX": 279610.16606,
          "katecY": 442164.846,
          "latitude": 36.5728079,
          "longitude": 126.6526848
        },
        {
          "id": "A0016452",
          "name": "계백주유소",
          "brand": "RTO",
          "brandCode": "RTO",
          "price": 1965,
          "address": "충남 논산시 부적면 마구평리 6-92",
          "roadAddress": "충남 논산시 부적면 계백로 1428",
          "katecX": 322571.90275,
          "katecY": 401838.79551,
          "latitude": 36.2138683,
          "longitude": 127.1366594
        },
        {
          "id": "A0015014",
          "name": "서해안이데아주유소",
          "brand": "GS칼텍스",
          "brandCode": "GSC",
          "price": 1965,
          "address": "충남 홍성군 광천읍 은하면 장척리 627-1",
          "roadAddress": "충남 홍성군 은하면 홍남로 435",
          "katecX": 275130.67053,
          "katecY": 433968.3925,
          "latitude": 36.4983849,
          "longitude": 126.603977
        },
        {
          "id": "A0016287",
          "name": "유한회사 우진에너지",
          "brand": "RTO",
          "brandCode": "RTO",
          "price": 1965,
          "address": "충남 보령시 남곡동 288-1",
          "roadAddress": "충남 보령시 대해로 294",
          "katecX": 271783.2675,
          "katecY": 415934.0462,
          "latitude": 36.3354584,
          "longitude": 126.5696059
        },
        {
          "id": "A0014447",
          "name": "정산농협청남지점주유소",
          "brand": "현대오일뱅크",
          "brandCode": "HDO",
          "price": 1965,
          "address": "충청남도 청양군 청남면 청소리 193",
          "roadAddress": "충청남도 청양군 청남면 명덕로 193",
          "katecX": 306170.67392,
          "katecY": 417471.22534,
          "latitude": 36.3532803,
          "longitude": 126.9523908
        },
        {
          "id": "A0032692",
          "name": "백두산주유소",
          "brand": "자가상표",
          "brandCode": "ETC",
          "price": 1965,
          "address": "충남 보령시 요암동 371-6",
          "roadAddress": "충남 보령시 대해로 498 (요암동)",
          "katecX": 270336.8,
          "katecY": 414653.8,
          "latitude": 36.3237298,
          "longitude": 126.5537117
        },
        {
          "id": "A0016228",
          "name": "서해안주유소",
          "brand": "현대오일뱅크",
          "brandCode": "HDO",
          "price": 1966,
          "address": "충남 아산시 도고면 금산리 161-6",
          "roadAddress": "충남 아산시 도고면 온천대로 102",
          "katecX": 298968.02155,
          "katecY": 461181.25346,
          "latitude": 36.7464005,
          "longitude": 126.8664179
        },
        {
          "id": "A0017029",
          "name": "금솔주유소",
          "brand": "GS칼텍스",
          "brandCode": "GSC",
          "price": 1966,
          "address": "충남 예산군 예산읍 창소리 644-7",
          "roadAddress": "충남 예산군 예산읍 충서로 1204",
          "katecX": 295906.00281,
          "katecY": 457762.99541,
          "latitude": 36.71527,
          "longitude": 126.8326017
        },
        {
          "id": "A0014401",
          "name": "㈜삼화에너지 일월",
          "brand": "현대오일뱅크",
          "brandCode": "HDO",
          "price": 1967,
          "address": "충남 공주시 정안면 인풍리 50-27 외 1필지",
          "roadAddress": "충남 공주시 정안면 차령로 3953",
          "katecX": 321672.00282,
          "katecY": 449191.99546,
          "latitude": 36.6405153,
          "longitude": 127.1218593
        },
        {
          "id": "A0014372",
          "name": "㈜삼화에너지 차령",
          "brand": "현대오일뱅크",
          "brandCode": "HDO",
          "price": 1967,
          "address": "충남 공주시 정안면 인풍리 50-16",
          "roadAddress": "충남 공주시 정안면 차령로 3952-18",
          "katecX": 321779.64697,
          "katecY": 449373.02069,
          "latitude": 36.6421554,
          "longitude": 127.1230444
        },
        {
          "id": "A0016946",
          "name": "행운오일뱅크",
          "brand": "현대오일뱅크",
          "brandCode": "HDO",
          "price": 1968,
          "address": "충남 태안군 태안읍 삭선리 478-4",
          "roadAddress": "충남 태안군 태안읍 원이로 111",
          "katecX": 247143.94678,
          "katecY": 464160.33758,
          "latitude": 36.7662948,
          "longitude": 126.2856818
        }
      ]
    },
    {
      "regionCode": "06",
      "regionName": "전북",
      "fuelCode": "B027",
      "fuelName": "휘발유",
      "stations": [
        {
          "id": "A0019115",
          "name": "광활농협주유소",
          "brand": "농협알뜰",
          "brandCode": "NHO",
          "price": 1929,
          "address": "전북 김제시 광활면 옥포리 668-10",
          "roadAddress": "전북 김제시 광활면 광활로 470",
          "katecX": 286320.9,
          "katecY": 359877.5,
          "latitude": 35.8321724,
          "longitude": 126.7395908
        },
        {
          "id": "A0018685",
          "name": "진봉농업협동조합주유소",
          "brand": "현대오일뱅크",
          "brandCode": "HDO",
          "price": 1939,
          "address": "전북 김제시 진봉면 고사리 4-14",
          "roadAddress": "전북 김제시 지평선로 1787",
          "katecX": 288997.75349,
          "katecY": 362603.42927,
          "latitude": 35.8570435,
          "longitude": 126.768833
        },
        {
          "id": "A0018612",
          "name": "수교주유소",
          "brand": "RTO",
          "brandCode": "RTO",
          "price": 1939,
          "address": "전북 김제시 성덕면 대석리 218-35",
          "roadAddress": "전북 김제시 성덕면 해학로 380",
          "katecX": 292208.76834,
          "katecY": 356425.22304,
          "latitude": 35.8017281,
          "longitude": 126.8052123
        },
        {
          "id": "A0018147",
          "name": "보물단지주유소",
          "brand": "RTO",
          "brandCode": "RTO",
          "price": 1949,
          "address": "전북 완주군 봉동읍 구만리 220-1",
          "roadAddress": "전북 완주군 봉동읍 완주로 533",
          "katecX": 324400.44513,
          "katecY": 368311.70674,
          "latitude": 35.9118653,
          "longitude": 127.1602112
        },
        {
          "id": "A0018986",
          "name": "에이스주유소",
          "brand": "RTO",
          "brandCode": "RTO",
          "price": 1959,
          "address": "전북 정읍시 농소동 189-23",
          "roadAddress": "전북 정읍시 벚꽃로 70",
          "katecX": 295063.91693,
          "katecY": 331913.4153,
          "latitude": 35.581144,
          "longitude": 126.8399988
        },
        {
          "id": "A0018848",
          "name": "상리2주유소",
          "brand": "SK에너지",
          "brandCode": "SKE",
          "price": 1963,
          "address": "전북 전주시 덕진구 인후동2가 4-173",
          "roadAddress": "전북 전주시 덕진구 심방죽로 63 (인후동2가)",
          "katecX": 323545.8,
          "katecY": 360505.1,
          "latitude": 35.8414431,
          "longitude": 127.1514937
        },
        {
          "id": "A0017955",
          "name": "행복주유소",
          "brand": "RTO",
          "brandCode": "RTO",
          "price": 1964,
          "address": "전북 전주시 덕진구 우아동3가 258-5",
          "roadAddress": "전북 전주시 덕진구 동부대로 641 (우아동3가)",
          "katecX": 324557.2,
          "katecY": 361028.8,
          "latitude": 35.8462414,
          "longitude": 127.1626389
        },
        {
          "id": "A0018432",
          "name": "㈜태성에너지",
          "brand": "S-OIL",
          "brandCode": "SOL",
          "price": 1964,
          "address": "전북 김제시 금구면 대화리 7-4",
          "roadAddress": "전북 김제시 금구면 선비로 1311",
          "katecX": 314654,
          "katecY": 355042,
          "latitude": 35.7914735,
          "longitude": 127.0536604
        },
        {
          "id": "A0018663",
          "name": "(유)우주에너지주유소/충전소",
          "brand": "현대오일뱅크",
          "brandCode": "HDO",
          "price": 1964,
          "address": "전북 김제시 금구면 용지리10-3",
          "roadAddress": "전북 김제시 금구면 선비로 905",
          "katecX": 311156,
          "katecY": 354105,
          "latitude": 35.7827184,
          "longitude": 127.0150723
        },
        {
          "id": "A0018988",
          "name": "고산주유소",
          "brand": "자가상표",
          "brandCode": "ETC",
          "price": 1965,
          "address": "전북 고창군 신림면 무림리559",
          "roadAddress": "전북 고창군 신림면 고인돌대로 2430",
          "katecX": 282360.8374,
          "katecY": 322571.9705,
          "latitude": 35.4955335,
          "longitude": 126.7012262
        },
        {
          "id": "A0017471",
          "name": "동군산셀프주유소",
          "brand": "RTO",
          "brandCode": "RTO",
          "price": 1968,
          "address": "전북 군산시 대야면 복교리 463-8",
          "roadAddress": "전북 군산시 대야면 만경로 1767",
          "katecX": 294300.5162,
          "katecY": 370721.871,
          "latitude": 35.9307892,
          "longitude": 126.826453
        },
        {
          "id": "A0018540",
          "name": "㈜한영 부송지점",
          "brand": "현대오일뱅크",
          "brandCode": "HDO",
          "price": 1968,
          "address": "전북 익산시 부송동 215-38",
          "roadAddress": "전북 익산시 무왕로 1277",
          "katecX": 309855.32638,
          "katecY": 373894.61049,
          "latitude": 35.9609425,
          "longitude": 126.9984448
        },
        {
          "id": "A0018879",
          "name": "(주)모악산주유소",
          "brand": "RTO",
          "brandCode": "RTO",
          "price": 1969,
          "address": "전북 완주군 구이면 항가리 604-2",
          "roadAddress": "전북 완주군 구이면 모악로 3850",
          "katecX": 320180.16241,
          "katecY": 346566.40923,
          "latitude": 35.7155535,
          "longitude": 127.1156334
        },