{
  "mode": "opinet",
  "source": "한국석유공사 오피넷 Open API",
  "generatedAt": "2026-06-23T09:36:48.189Z",
  "notice": "한국석유공사 오피넷 Open API 기준 데이터입니다. 실제 판매 가격과 차이가 있을 수 있습니다.",
  "datasets": [
    {
      "regionCode": "ALL",
      "regionName": "전국",
      "fuelCode": "B027",
      "fuelName": "휘발유",
      "stations": [
        {
          "id": "A0023397",
          "name": "효령주유소",
          "brand": "SK에너지",
          "brandCode": "SKE",
          "price": 1929,
          "address": "대구 군위군 효령면 고곡리 471",
          "roadAddress": "대구 군위군 효령면 경북대로 2164",
          "katecX": 451981.8526,
          "katecY": 390722.2805,
          "latitude": 36.1154097,
          "longitude": 128.575226,
          "coordinateSource": "katec-converted"
        },
        {
          "id": "A0026114",
          "name": "만남의주유소",
          "brand": "RTO",
          "brandCode": "RTO",
          "price": 1929,
          "address": "경북 칠곡군 가산면 석우리 53-1",
          "roadAddress": "경북 칠곡군 가산면 경북대로 1883",
          "katecX": 449874,
          "katecY": 389776.5,
          "latitude": 36.106996,
          "longitude": 128.5517533,
          "coordinateSource": "katec-converted"
        },
        {
          "id": "A0020637",
          "name": "CJ대한통운㈜ 장성터미널주유소",
          "brand": "GS칼텍스",
          "brandCode": "GSC",
          "price": 1930,
          "address": "전남 장성군 서삼면 용흥리 576",
          "roadAddress": "전남 장성군 서삼면 물류로 335",
          "katecX": 287095.2767,
          "katecY": 302906.57295,
          "latitude": 35.3188615,
          "longitude": 126.7561232,
          "coordinateSource": "katec-converted"
        },
        {
          "id": "A0014172",
          "name": "대일종합에너지주유소 태전점",
          "brand": "HDO",
          "brandCode": "HDO",
          "price": 1939,
          "address": "대구 북구 태전동 148-7",
          "roadAddress": "대구 북구 태전로 14 (태전동)",
          "katecX": 449464.77744,
          "katecY": 369233.75327,
          "latitude": 35.9218714,
          "longitude": 128.5459301,
          "coordinateSource": "katec-converted"
        },
        {
          "id": "A0029025",
          "name": "(주)흥연주유소",
          "brand": "RTO",
          "brandCode": "RTO",
          "price": 1943,
          "address": "울산 울주군 웅촌면 곡천리 252-1",
          "roadAddress": "울산 울주군 웅촌면 웅촌로 377",
          "katecX": 509953,
          "katecY": 319061,
          "latitude": 35.4648187,
          "longitude": 129.2092538,
          "coordinateSource": "katec-converted"
        },
        {
          "id": "A0026270",
          "name": "이비티에스주유소8",
          "brand": "GS칼텍스",
          "brandCode": "GSC",
          "price": 1945,
          "address": "경북 구미시 도량동 18-2",
          "roadAddress": "경북 구미시 송동로 198",
          "katecX": 429300.90102,
          "katecY": 394470.30191,
          "latitude": 36.1501345,
          "longitude": 128.3234283,
          "coordinateSource": "katec-converted"
        },
        {
          "id": "A0028919",
          "name": "율선주유소",
          "brand": "GS칼텍스",
          "brandCode": "GSC",
          "price": 1945,
          "address": "울산 울주군 청량면 율리 767-2",
          "roadAddress": "울산 울주군 청량면 웅촌로 1035",
          "katecX": 512350.00276,
          "katecY": 324199.99595,
          "latitude": 35.5108628,
          "longitude": 129.236367,
          "coordinateSource": "katec-converted"
        },
        {
          "id": "A0025373",
          "name": "이비티에스주유소7",
          "brand": "SK에너지",
          "brandCode": "SKE",
          "price": 1945,
          "address": "경북 김천시 아포읍 송천리 1035-1",
          "roadAddress": "경북 김천시 아포대로 1295",
          "katecX": 424372,
          "katecY": 395153,
          "latitude": 36.1564229,
          "longitude": 128.268675,
          "coordinateSource": "katec-converted"
        },
        {
          "id": "A0026032",
          "name": "독도사랑주유소2",
          "brand": "자가상표",
          "brandCode": "ETC",
          "price": 1945,
          "address": "경북 구미시 장천면 하장리 507-1",
          "roadAddress": "경북 구미시 장천면 강동로 231",
          "katecX": 444632.2001,
          "katecY": 392302.7007,
          "latitude": 36.1300176,
          "longitude": 128.4936778,
          "coordinateSource": "katec-converted"
        },
        {
          "id": "A0028937",
          "name": "율리셀프주유소",
          "brand": "S-OIL",
          "brandCode": "SOL",
          "price": 1945,
          "address": "울산 울주군 청량면 율리 772-3",
          "roadAddress": "울산 울주군 청량면 웅촌로 1044",
          "katecX": 512416,
          "katecY": 324305,
          "latitude": 35.5118017,
          "longitude": 129.2371089,
          "coordinateSource": "katec-converted"
        },
        {
          "id": "A0029821",
          "name": "차탄셀프주유소",
          "brand": "SK에너지",
          "brandCode": "SKE",
          "price": 1947,
          "address": "경남 산청군 산청읍 차탄리 703-4",
          "roadAddress": "경남 산청군 산청읍 산청대로 2083",
          "katecX": 388666.489,
          "katecY": 314768.5039,
          "latitude": 35.432117,
          "longitude": 127.8730057,
          "coordinateSource": "katec-converted"
        },
        {
          "id": "A0026102",
          "name": "행운에너지",
          "brand": "SK에너지",
          "brandCode": "SKE",
          "price": 1948,
          "address": "경북 칠곡군 약목면 복성리 639-1",
          "roadAddress": "경북 칠곡군 약목면 칠곡대로 504",
          "katecX": 431892.5353,
          "katecY": 382542.8176,
          "latitude": 36.0425531,
          "longitude": 128.3517493,
          "coordinateSource": "katec-converted"
        },
        {
          "id": "A0022841",
          "name": "하양주유소",
          "brand": "S-OIL",
          "brandCode": "SOL",
          "price": 1949,
          "address": "경북 경산시 하양읍 금락2리 226-4",
          "roadAddress": "경북 경산시 대경로 616",
          "katecX": 473382.2466,
          "katecY": 367656.732,
          "latitude": 35.9061613,
          "longitude": 128.8107931,
          "coordinateSource": "katec-converted"
        },
        {
          "id": "A0023362",
          "name": "㈜다원컴퍼니",
          "brand": "HDO",
          "brandCode": "HDO",
          "price": 1949,
          "address": "대구 서구 중리동 1082-7",
          "roadAddress": "대구 서구 국채보상로 122 (중리동)",
          "katecX": 449354,
          "katecY": 363310,
          "latitude": 35.8684869,
          "longitude": 128.544337,
          "coordinateSource": "katec-converted"
        },
        {
          "id": "A0016058",
          "name": "천안대로셀프",
          "brand": "S-OIL",
          "brandCode": "SOL",
          "price": 1949,
          "address": "충남 천안시 동남구 원성동 11-11",
          "roadAddress": "충남 천안시 동남구 천안대로 727",
          "katecX": 325646.44184,
          "katecY": 468322.85853,
          "latitude": 36.813224,
          "longitude": 127.1644351,
          "coordinateSource": "katec-converted"
        },
        {
          "id": "A0023133",
          "name": "삼원주유소",
          "brand": "SK에너지",
          "brandCode": "SKE",
          "price": 1949,
          "address": "대구 동구 지저동 667-4",
          "roadAddress": "대구 동구 공항로 241",
          "katecX": 457977.6595,
          "katecY": 366528.10649,
          "latitude": 35.8970202,
          "longitude": 128.6400595,
          "coordinateSource": "katec-converted"
        },
        {
          "id": "A0029698",
          "name": "석풍주유소",
          "brand": "RTO",
          "brandCode": "RTO",
          "price": 1949,
          "address": "경남 산청군 신안면 외송리 782-2",
          "roadAddress": "경남 산청군 신안면 산청대로 1169",
          "katecX": 392803.8707,
          "katecY": 307101.1581,
          "latitude": 35.3630427,
          "longitude": 127.9186421,
          "coordinateSource": "katec-converted"
        },
        {
          "id": "A0022955",
          "name": "팔공산IC주유소",
          "brand": "S-OIL",
          "brandCode": "SOL",
          "price": 1949,
          "address": "대구 동구 지저동 662-19",
          "roadAddress": "대구 동구 공항로 247",
          "katecX": 458007.5,
          "katecY": 366465.4,
          "latitude": 35.8964533,
          "longitude": 128.6403854,
          "coordinateSource": "katec-converted"
        },
        {
          "id": "A0022913",
          "name": "㈜송라오일뱅크 공항점",
          "brand": "HDO",
          "brandCode": "HDO",
          "price": 1949,
          "address": "대구 동구 지저동 678-6",
          "roadAddress": "대구 동구 공항로 259",
          "katecX": 458057.64177,
          "katecY": 366396.46328,
          "latitude": 35.8958291,
          "longitude": 128.6409358,
          "coordinateSource": "katec-converted"
        },
        {
          "id": "A0027022",
          "name": "착한셀프주유소",
          "brand": "SK에너지",
          "brandCode": "SKE",
          "price": 1949,
          "address": "경북 경산시 자인면 일언리 10-2",
          "roadAddress": "경북 경산시 자인면 공단로 146",
          "katecX": 473887,
          "katecY": 360897,
          "latitude": 35.845202,
          "longitude": 128.8157598,
          "coordinateSource": "katec-converted"
        }
      ]
    },
    {
      "regionCode": "ALL",
      "regionName": "전국",
      "fuelCode": "D047",
      "fuelName": "경유",
      "stations": [
        {
          "id": "A0026811",
          "name": "흥국주유소",
          "brand": "HDO",
          "brandCode": "HDO",
          "price": 1919,
          "address": "경북 경산시 와촌면 소월리 73-1",
          "roadAddress": "경북 경산시 와촌면 금송로 377",
          "katecX": 475508.4009,
          "katecY": 371758.1313,
          "latitude": 35.9429629,
          "longitude": 128.8347342,
          "coordinateSource": "katec-converted"
        },
        {
          "id": "A0026733",
          "name": "활주로주유소",
          "brand": "자가상표",
          "brandCode": "ETC",
          "price": 1919,
          "address": "대구 달서구 월암동 998-1",
          "roadAddress": "대구 달서구 성서로36길 75 (월암동)",
          "katecX": 446789,
          "katecY": 359364,
          "latitude": 35.833047,
          "longitude": 128.5157042,
          "coordinateSource": "katec-converted"
        },
        {
          "id": "A0022528",
          "name": "청운주유소",
          "brand": "S-OIL",
          "brandCode": "SOL",
          "price": 1919,
          "address": "전북 김제시 용지면 부교리 194-23",
          "roadAddress": "전북 김제시 용지면 콩쥐팥쥐로 717",
          "katecX": 307961.41996,
          "katecY": 357782.39752,
          "latitude": 35.8155645,
          "longitude": 126.9793166,
          "coordinateSource": "katec-converted"
        },
        {
          "id": "A0027356",
          "name": "가야주유소",
          "brand": "SK에너지",
          "brandCode": "SKE",
          "price": 1929,
          "address": "부산 부산진구 가야동 200-1",
          "roadAddress": "부산 부산진구 가야대로552번길 39",
          "katecX": 494309.85888,
          "katecY": 284213.83132,
          "latitude": 35.1523554,
          "longitude": 129.0329296,
          "coordinateSource": "katec-converted"
        },
        {
          "id": "A0019253",
          "name": "김제으뜸주유소",
          "brand": "S-OIL",
          "brandCode": "SOL",
          "price": 1929,
          "address": "전북 김제시 서암동 524-1",
          "roadAddress": "전북 김제시 벽성로 355",
          "katecX": 298359.00265,
          "katecY": 356715.99553,
          "latitude": 35.8050054,
          "longitude": 126.8732094,
          "coordinateSource": "katec-converted"
        },
        {
          "id": "A0023397",
          "name": "효령주유소",
          "brand": "SK에너지",
          "brandCode": "SKE",
          "price": 1929,
          "address": "대구 군위군 효령면 고곡리 471",
          "roadAddress": "대구 군위군 효령면 경북대로 2164",
          "katecX": 451981.8526,
          "katecY": 390722.2805,
          "latitude": 36.1154097,
          "longitude": 128.575226,
          "coordinateSource": "katec-converted"
        },
        {
          "id": "A0017307",
          "name": "현도주유소",
          "brand": "HDO",
          "brandCode": "HDO",
          "price": 1929,
          "address": "충북 청주시 서원구 현도면 달계리 543",
          "roadAddress": "충북 청주시 서원구 현도면 청남로 264",
          "katecX": 348811.85953,
          "katecY": 431025.03728,
          "latitude": 36.4786484,
          "longitude": 127.4265554,
          "coordinateSource": "katec-converted"
        },
        {
          "id": "A0018969",
          "name": "고창으뜸주유소",
          "brand": "HDO",
          "brandCode": "HDO",
          "price": 1929,
          "address": "전북 고창군 고창읍 덕산리 115-1",
          "roadAddress": "전북 고창군 고창읍 중거리당산로 29",
          "katecX": 281509.2,
          "katecY": 314687,
          "latitude": 35.424376,
          "longitude": 126.6929917,
          "coordinateSource": "katec-converted"
        },
        {
          "id": "A0026114",
          "name": "만남의주유소",
          "brand": "RTO",
          "brandCode": "RTO",
          "price": 1929,
          "address": "경북 칠곡군 가산면 석우리 53-1",
          "roadAddress": "경북 칠곡군 가산면 경북대로 1883",
          "katecX": 449874,
          "katecY": 389776.5,
          "latitude": 36.106996,
          "longitude": 128.5517533,
          "coordinateSource": "katec-converted"
        },
        {
          "id": "A0017508",
          "name": "(유)으뜸 삼례지점",
          "brand": "HDO",
          "brandCode": "HDO",
          "price": 1929,
          "address": "전북 완주군 삼례읍 삼례리 922-10",
          "roadAddress": "전북 완주군 삼례읍 삼례로 363",
          "katecX": 316535.55272,
          "katecY": 368138.76452,
          "latitude": 35.9096657,
          "longitude": 127.0731003,
          "coordinateSource": "katec-converted"
        },
        {
          "id": "A0026275",
          "name": "아리랑관광주유소",
          "brand": "SK에너지",
          "brandCode": "SKE",
          "price": 1930,
          "address": "경북 구미시 고아읍 관심리 665-6",
          "roadAddress": "경북 구미시 고아읍 선산대로 948",
          "katecX": 429969.00284,
          "katecY": 400965.9957,
          "latitude": 36.208658,
          "longitude": 128.331099,
          "coordinateSource": "katec-converted"
        },
        {
          "id": "A0017442",
          "name": "㈜오일마스터 도안대로주유소 유성지점",
          "brand": "SK에너지",
          "brandCode": "SKE",
          "price": 1933,
          "address": "대전 유성구 교촌동 331-14",
          "roadAddress": "대전 유성구 유성대로 142 (교촌동)",
          "katecX": 338959.13127,
          "katecY": 412454.43172,
          "latitude": 36.3107133,
          "longitude": 127.318072,
          "coordinateSource": "katec-converted"
        },
        {
          "id": "A0016850",
          "name": "KH에너지㈜직영 하이웨이주유소",
          "brand": "SK에너지",
          "brandCode": "SKE",
          "price": 1933,
          "address": "대전 유성구 장대동 176-10",
          "roadAddress": "대전 유성구 현충원로 531",
          "katecX": 340039,
          "katecY": 417788,
          "latitude": 36.3588474,
          "longitude": 127.3296846,
          "coordinateSource": "katec-converted"
        },
        {
          "id": "A0015156",
          "name": "행복주유소",
          "brand": "GS칼텍스",
          "brandCode": "GSC",
          "price": 1933,
          "address": "충남 당진시 신평면 신흥리 59-9",
          "roadAddress": "충남 당진시 신평면 서해로 7410",
          "katecX": 293086.4647,
          "katecY": 475980.0975,
          "latitude": 36.8790911,
          "longitude": 126.7984859,
          "coordinateSource": "katec-converted"
        },
        {
          "id": "A0033801",
          "name": "만수르기름창고㈜",
          "brand": "SK에너지",
          "brandCode": "SKE",
          "price": 1933,
          "address": "충남 아산시 음봉면 송촌리 54-3",
          "roadAddress": "충남 아산시 음봉면 음봉로 315",
          "katecX": 315114.62661,
          "katecY": 472016.52257,
          "latitude": 36.8456183,
          "longitude": 127.0459954,
          "coordinateSource": "katec-converted"
        },
        {
          "id": "A0015797",
          "name": "(주)오일마스터아산지점 송촌주유소",
          "brand": "SK에너지",
          "brandCode": "SKE",
          "price": 1933,
          "address": "충남 아산시 음봉면 송촌리 61",
          "roadAddress": "충남 아산시 음봉면 음봉로 336",
          "katecX": 315303.61771,
          "katecY": 471946.42956,
          "latitude": 36.8450037,
          "longitude": 127.0481221,
          "coordinateSource": "katec-converted"
        },
        {
          "id": "A0016036",
          "name": "(주)이아이디 천안대로주유소 지점",
          "brand": "HDO",
          "brandCode": "HDO",
          "price": 1933,
          "address": "충남 천안시 서북구 성환읍 대홍리 195-28",
          "roadAddress": "충남 천안시 서북구 성환읍 천안대로 2230",
          "katecX": 323141.97802,
          "katecY": 482161.43338,
          "latitude": 36.9377196,
          "longitude": 127.1349629,
          "coordinateSource": "katec-converted"
        },
        {
          "id": "A0024382",
          "name": "청명주유소",
          "brand": "SK에너지",
          "brandCode": "SKE",
          "price": 1935,
          "address": "경북 영천시 고경면 덕암리 52-1",
          "roadAddress": "경북 영천시 고경면 호국로 1529",
          "katecX": 498527.00285,
          "katecY": 377393.99585,
          "latitude": 35.9917057,
          "longitude": 129.0905296,
          "coordinateSource": "katec-converted"
        },
        {
          "id": "A0022942",
          "name": "국가대표제2주유소",
          "brand": "SK에너지",
          "brandCode": "SKE",
          "price": 1935,
          "address": "대구 동구 방촌동 1084-700",
          "roadAddress": "대구 동구 화랑로 377",
          "katecX": 460274.0967,
          "katecY": 364389.3888,
          "latitude": 35.8776064,
          "longitude": 128.6653354,
          "coordinateSource": "katec-converted"
        },
        {
          "id": "A0022913",
          "name": "㈜송라오일뱅크 공항점",
          "brand": "HDO",
          "brandCode": "HDO",
          "price": 1937,
          "address": "대구 동구 지저동 678-6",
          "roadAddress": "대구 동구 공항로 259",
          "katecX": 458057.64177,
          "katecY": 366396.46328,
          "latitude": 35.8958291,
          "longitude": 128.6409358,
          "coordinateSource": "katec-converted"
        }
      ]
    },
    {
      "regionCode": "ALL",
      "regionName": "전국",
      "fuelCode": "K015",
      "fuelName": "LPG",
      "stations": [
        {
          "id": "A0012372",
          "name": "청주LPG충전소",
          "brand": "E1",
          "brandCode": "E1G",
          "price": 969,
          "address": "충북 청주시 흥덕구 지동동 431-2",
          "roadAddress": "충북 청주시 흥덕구 직지대로 231",
          "katecX": 348237.25868,
          "katecY": 449736.7916,
          "latitude": 36.6472441,
          "longitude": 127.4188818,
          "coordinateSource": "katec-converted"
        },
        {
          "id": "A0033408",
          "name": "(주)삼융만남의충전소",
          "brand": "GS칼텍스",
          "brandCode": "GSC",
          "price": 983,
          "address": "충남 천안시 서북구 직산읍 군서리 293-21",
          "roadAddress": "충남 천안시 서북구 직산읍 군삼길 105",
          "katecX": 325026.56778,
          "katecY": 477256.21834,
          "latitude": 36.8936721,
          "longitude": 127.1566044,
          "coordinateSource": "katec-converted"
        },
        {
          "id": "A0015698",
          "name": "번영충전소",
          "brand": "HDO",
          "brandCode": "HDO",
          "price": 984,
          "address": "충남 천안시 서북구 성성동 343-11",
          "roadAddress": "충남 천안시 서북구 2공단1로 10 (성성동)",
          "katecX": 321864,
          "katecY": 471978,
          "latitude": 36.8458544,
          "longitude": 127.1216695,
          "coordinateSource": "katec-converted"
        },
        {
          "id": "A0033504",
          "name": "행복에너지충전소",
          "brand": "SK가스",
          "brandCode": "SKG",
          "price": 989,
          "address": "충북 청주시 흥덕구 외북동 312",
          "roadAddress": "충북 청주시 흥덕구 엘지로 5",
          "katecX": 349697.44137,
          "katecY": 450983.43363,
          "latitude": 36.658557,
          "longitude": 127.4351296,
          "coordinateSource": "katec-converted"
        },
        {
          "id": "A0007594",
          "name": "SK행복충전 조암충전소",
          "brand": "SK가스",
          "brandCode": "SKG",
          "price": 990,
          "address": "경기 화성시 만세구 우정읍 호곡리 89-1",
          "roadAddress": "경기 화성시 만세구 우정읍 호곡길 84",
          "katecX": 292305,
          "katecY": 502668,
          "latitude": 37.119449,
          "longitude": 126.7859044,
          "coordinateSource": "katec-converted"
        },
        {
          "id": "A0013658",
          "name": "행복에너지 충전소",
          "brand": "SK에너지",
          "brandCode": "SKE",
          "price": 992,
          "address": "대전 대덕구 연축동 294-2",
          "roadAddress": "대전 대덕구 신탄진로 71",
          "katecX": 348391,
          "katecY": 420900,
          "latitude": 36.3873788,
          "longitude": 127.4225352,
          "coordinateSource": "katec-converted"
        },
        {
          "id": "A0016516",
          "name": "신탄진충전소",
          "brand": "SK에너지",
          "brandCode": "SKE",
          "price": 992,
          "address": "대전 대덕구 상서동 349-12",
          "roadAddress": "대전 대덕구 신탄진로 520",
          "katecX": 348227.67743,
          "katecY": 425101.14895,
          "latitude": 36.425231,
          "longitude": 127.4204337,
          "coordinateSource": "katec-converted"
        },
        {
          "id": "A0016728",
          "name": "대덕밸리LPG충전소",
          "brand": "HDO",
          "brandCode": "HDO",
          "price": 992,
          "address": "대전 대덕구 평촌동 226-5",
          "roadAddress": "대전 대덕구 신탄진로 650",
          "katecX": 348726,
          "katecY": 426309,
          "latitude": 36.436143,
          "longitude": 127.4259106,
          "coordinateSource": "katec-converted"
        },
        {
          "id": "A0016481",
          "name": "시온가스충전소",
          "brand": "자가상표",
          "brandCode": "ETC",
          "price": 992,
          "address": "대전 대덕구 신탄진동 294-5",
          "roadAddress": "대전 대덕구 신탄진로 737 (신탄진동)",
          "katecX": 349001.18753,
          "katecY": 427082.851,
          "latitude": 36.4431316,
          "longitude": 127.4289287,
          "coordinateSource": "katec-converted"
        },
        {
          "id": "A0003403",
          "name": "성원이앤에스(주)안성지점",
          "brand": "GS칼텍스",
          "brandCode": "GSC",
          "price": 994,
          "address": "경기 안성시 대덕면 모산리 359-13",
          "roadAddress": "경기 안성시 대덕면 안성대로 1284",
          "katecX": 332379.39956,
          "katecY": 492485.30988,
          "latitude": 37.0314562,
          "longitude": 127.2377274,
          "coordinateSource": "katec-converted"
        },
        {
          "id": "A0003035",
          "name": "평화lpg충전소",
          "brand": "SK에너지",
          "brandCode": "SKE",
          "price": 995,
          "address": "경기 안성시 공도읍 승두리 593-6",
          "roadAddress": "경기 안성시 공도읍 서동대로 4068",
          "katecX": 325389.85097,
          "katecY": 488787.01039,
          "latitude": 36.9976017,
          "longitude": 127.1595394,
          "coordinateSource": "katec-converted"
        },
        {
          "id": "A0003238",
          "name": "(유)유성홀딩스 공도충전소",
          "brand": "SK가스",
          "brandCode": "SKG",
          "price": 995,
          "address": "경기 안성시 공도읍 만정리 290-7",
          "roadAddress": "경기 안성시 공도읍 서동대로 4287-12",
          "katecX": 327160.00289,
          "katecY": 489628.99543,
          "latitude": 37.0053277,
          "longitude": 127.1793436,
          "coordinateSource": "katec-converted"
        },
        {
          "id": "A0033217",
          "name": "비봉충전소 ㈜대원에너지",
          "brand": "HDO",
          "brandCode": "HDO",
          "price": 996,
          "address": "경기 안성시 죽산면 장능리 580",
          "roadAddress": "경기 안성시 죽산면 서동대로 6617",
          "katecX": 346078.32881,
          "katecY": 496938.35038,
          "latitude": 37.0724718,
          "longitude": 127.3913741,
          "coordinateSource": "katec-converted"
        },
        {
          "id": "A0010546",
          "name": "녹박재충전소",
          "brand": "자가상표",
          "brandCode": "ETC",
          "price": 996,
          "address": "경기 안성시 죽산면 장릉리 660-4",
          "roadAddress": "경기 안성시 죽산면 서동대로 6516",
          "katecX": 345135.5,
          "katecY": 496570.1,
          "latitude": 37.0690986,
          "longitude": 127.3807985,
          "coordinateSource": "katec-converted"
        },
        {
          "id": "A0015652",
          "name": "태양주유소/충전소",
          "brand": "GS칼텍스",
          "brandCode": "GSC",
          "price": 997,
          "address": "충남 천안시 서북구 업성동 484-7",
          "roadAddress": "충남 천안시 서북구 번영로 613",
          "katecX": 322472.53243,
          "katecY": 472805.10875,
          "latitude": 36.8533575,
          "longitude": 127.1284075,
          "coordinateSource": "katec-converted"
        },
        {
          "id": "A0018234",
          "name": "오케이완주충전소",
          "brand": "HDO",
          "brandCode": "HDO",
          "price": 997,
          "address": "전북 완주군 상관면 용암리 305-1",
          "roadAddress": "전북 완주군 상관면 춘향로 4082",
          "katecX": 330979,
          "katecY": 346647,
          "latitude": 35.7170976,
          "longitude": 127.2349673,
          "coordinateSource": "katec-converted"
        },
        {
          "id": "A0012083",
          "name": "주식회사 삼보에너지",
          "brand": "GS칼텍스",
          "brandCode": "GSC",
          "price": 998,
          "address": "충북 청주시 서원구미평동  229-1",
          "roadAddress": "충북 청주시 서원구 산미로 41",
          "katecX": 352630.88799,
          "katecY": 444684.18745,
          "latitude": 36.6019407,
          "longitude": 127.4683307,
          "coordinateSource": "katec-converted"
        },
        {
          "id": "A0022712",
          "name": "㈜나라가스충전소",
          "brand": "SK에너지",
          "brandCode": "SKE",
          "price": 999,
          "address": "전북 전주시 완산구 색장동 872-15",
          "roadAddress": "전북 전주시 완산구 춘향로 4900 (색장동)",
          "katecX": 327787.58236,
          "katecY": 353756.97445,
          "latitude": 35.7809477,
          "longitude": 127.1990556,
          "coordinateSource": "katec-converted"
        },
        {
          "id": "A0002759",
          "name": "이화LPG충전소",
          "brand": "HDO",
          "brandCode": "HDO",
          "price": 999,
          "address": "경기 안성시 보개면 상삼리 211",
          "roadAddress": "경기 안성시 보개면 서동대로 5894",
          "katecX": 341476.3,
          "katecY": 492034.8,
          "latitude": 37.0280094,
          "longitude": 127.340005,
          "coordinateSource": "katec-converted"
        },
        {
          "id": "A0033393",
          "name": "(주)조은에너지 편백",
          "brand": "SK가스",
          "brandCode": "SKG",
          "price": 999,
          "address": "전북 완주군 상관면 죽림리 267-1",
          "roadAddress": "전북 완주군 상관면 춘향로 4449",
          "katecX": 329732.6648,
          "katecY": 350026.58834,
          "latitude": 35.7474684,
          "longitude": 127.2208968,
          "coordinateSource": "katec-converted"
        }
      ]
    },
    {
      "regionCode": "01",
      "regionName": "서울",
      "fuelCode": "B027",
      "fuelName": "휘발유",
      "stations": [
        {
          "id": "A0001132",
          "name": "㈜씨더블유 이엔지 금천지점",
          "brand": "HDO",
          "brandCode": "HDO",
          "price": 1961,
          "address": "서울 금천구 시흥동 860-36",
          "roadAddress": "서울 금천구 독산로 147",
          "katecX": 303289.50294,
          "katecY": 540374.09535,
          "latitude": 37.4603639,
          "longitude": 126.9045755,
          "coordinateSource": "katec-converted"
        },
        {
          "id": "A0001086",
          "name": "(주)백운주유소",
          "brand": "RTO",
          "brandCode": "RTO",
          "price": 1965,
          "address": "서울 금천구 독산동 1077-3",
          "roadAddress": "서울 금천구 시흥대로 282",
          "katecX": 302825.0476,
          "katecY": 540202.8721,
          "latitude": 37.4587725,
          "longitude": 126.8993489,
          "coordinateSource": "katec-converted"
        },
        {
          "id": "A0001164",
          "name": "(주)화동유업 화동주유소",
          "brand": "SK에너지",
          "brandCode": "SKE",
          "price": 1966,
          "address": "서울 금천구 독산동 967",
          "roadAddress": "서울 금천구 시흥대로 484",
          "katecX": 302821.53096,
          "katecY": 542201.78194,
          "latitude": 37.4767808,
          "longitude": 126.8990451,
          "coordinateSource": "katec-converted"
        },
        {
          "id": "A0000428",
          "name": "주식회사 새서울글로벌",
          "brand": "HDO",
          "brandCode": "HDO",
          "price": 1969,
          "address": "서울 동작구 신대방동 686-44",
          "roadAddress": "서울 동작구 시흥대로 616 (신대방동)",
          "katecX": 303404.15715,
          "katecY": 543341.8704,
          "latitude": 37.4871133,
          "longitude": 126.9054815,
          "coordinateSource": "katec-converted"
        },
        {
          "id": "A0000686",
          "name": "(주)디오티디 은평유니콘주유소",
          "brand": "HDO",
          "brandCode": "HDO",
          "price": 1971,
          "address": "서울 은평구 진관동 73-22",
          "roadAddress": "서울 은평구 통일로 1151",
          "katecX": 304199,
          "katecY": 560741,
          "latitude": 37.6439469,
          "longitude": 126.9121908,
          "coordinateSource": "katec-converted"
        },
        {
          "id": "A0009932",
          "name": "남성대주유소",
          "brand": "SK에너지",
          "brandCode": "SKE",
          "price": 1973,
          "address": "서울 송파구 장지동 645-13",
          "roadAddress": "서울 송파구 송파대로 52 (장지동)",
          "katecX": 323016.65605,
          "katecY": 541837.69536,
          "latitude": 37.4754072,
          "longitude": 127.127387,
          "coordinateSource": "katec-converted"
        },
        {
          "id": "A0000992",
          "name": "신월주유소",
          "brand": "GS칼텍스",
          "brandCode": "GSC",
          "price": 1975,
          "address": "서울 양천구 신월동 534-24",
          "roadAddress": "서울 양천구 신월로 193",
          "katecX": 298014.58083,
          "katecY": 547054.30697,
          "latitude": 37.5199783,
          "longitude": 126.8440326,
          "coordinateSource": "katec-converted"
        },
        {
          "id": "A0001141",
          "name": "㈜씨더블유이엔지",
          "brand": "HDO",
          "brandCode": "HDO",
          "price": 1976,
          "address": "서울 금천구 독산동 900-4",
          "roadAddress": "서울 금천구 남부순환로 1410 (독산동)",
          "katecX": 303569.4,
          "katecY": 542566.5,
          "latitude": 37.4801451,
          "longitude": 126.9074514,
          "coordinateSource": "katec-converted"
        },
        {
          "id": "A0001005",
          "name": "현대주유소",
          "brand": "S-OIL",
          "brandCode": "SOL",
          "price": 1977,
          "address": "서울 양천구 신월동 167-1",
          "roadAddress": "서울 양천구 남부순환로 372 (신월동)",
          "katecX": 296738.3507,
          "katecY": 548590.8561,
          "latitude": 37.5336788,
          "longitude": 126.8293814,
          "coordinateSource": "katec-converted"
        },
        {
          "id": "A0009641",
          "name": "(주)석산에너지",
          "brand": "HDO",
          "brandCode": "HDO",
          "price": 1977,
          "address": "서울 강북구 수유동 472-211",
          "roadAddress": "서울 강북구 삼양로 316 (수유동)",
          "katecX": 313510.1896,
          "katecY": 559272.5183,
          "latitude": 37.6316425,
          "longitude": 127.0178602,
          "coordinateSource": "katec-converted"
        },
        {
          "id": "A0009678",
          "name": "북서울고속주유소",
          "brand": "SK에너지",
          "brandCode": "SKE",
          "price": 1977,
          "address": "서울 강북구 수유동 392",
          "roadAddress": "서울 강북구 삼양로 410 (수유동)",
          "katecX": 313458.33212,
          "katecY": 560213.64206,
          "latitude": 37.6401164,
          "longitude": 127.0171611,
          "coordinateSource": "katec-converted"
        },
        {
          "id": "A0000011",
          "name": "이케이에너지(주) 무산주유소",
          "brand": "HDO",
          "brandCode": "HDO",
          "price": 1977,
          "address": "서울 양천구 신정3동 1294-6",
          "roadAddress": "서울 양천구 신정로 236",
          "katecX": 298323.406,
          "katecY": 546013.55295,
          "latitude": 37.5106363,
          "longitude": 126.8476698,
          "coordinateSource": "katec-converted"
        },
        {
          "id": "A0000519",
          "name": "화곡역주유소",
          "brand": "RTO",
          "brandCode": "RTO",
          "price": 1977,
          "address": "서울 강서구 화곡동 1076-14",
          "roadAddress": "서울 강서구 강서로 154 (화곡동)",
          "katecX": 297830.02778,
          "katecY": 549333.51356,
          "latitude": 37.5404911,
          "longitude": 126.8416277,
          "coordinateSource": "katec-converted"
        },
        {
          "id": "A0000189",
          "name": "(주)서울에너지 시민주유소",
          "brand": "HDO",
          "brandCode": "HDO",
          "price": 1977,
          "address": "서울 강북구 수유동 440-36",
          "roadAddress": "서울 강북구 인수봉로 185 (수유동)",
          "katecX": 313067,
          "katecY": 559776,
          "latitude": 37.6361366,
          "longitude": 127.0127796,
          "coordinateSource": "katec-converted"
        },
        {
          "id": "A0032866",
          "name": "경동석유산업㈜ 강서오곡SELF주유소",
          "brand": "SK에너지",
          "brandCode": "SKE",
          "price": 1977,
          "address": "서울 강서구 오곡동 594-1",
          "roadAddress": "서울 강서구 벌말로 254 (오곡동)",
          "katecX": 291371.26835,
          "katecY": 550919.91578,
          "latitude": 37.5540431,
          "longitude": 126.7683212,
          "coordinateSource": "katec-converted"
        },
        {
          "id": "A0009640",
          "name": "(주)자연에너지 번동주유소",
          "brand": "HDO",
          "brandCode": "HDO",
          "price": 1977,
          "address": "서울 강북구 번동 410-95",
          "roadAddress": "서울 강북구 한천로 963 (번동)",
          "katecX": 314838,
          "katecY": 559686,
          "latitude": 37.6354919,
          "longitude": 127.0328536,
          "coordinateSource": "katec-converted"
        },
        {
          "id": "A0000549",
          "name": "이케이에너지(주) 강서주유소",
          "brand": "HDO",
          "brandCode": "HDO",
          "price": 1977,
          "address": "서울 강서구 화곡동 983-1",
          "roadAddress": "서울 강서구 화곡로 273 (화곡동)",
          "katecX": 298318.039,
          "katecY": 550276.2648,
          "latitude": 37.5490384,
          "longitude": 126.8470181,
          "coordinateSource": "katec-converted"
        },
        {
          "id": "A0001023",
          "name": "㈜자연에너지 남부주유소",
          "brand": "HDO",
          "brandCode": "HDO",
          "price": 1977,
          "address": "서울 양천구 신월4동 525-1",
          "roadAddress": "서울 양천구 남부순환로 553",
          "katecX": 297546.1436,
          "katecY": 546999.2892,
          "latitude": 37.5194307,
          "longitude": 126.838742,
          "coordinateSource": "katec-converted"
        },
        {
          "id": "A0001015",
          "name": "동일석유㈜개나리주유소",
          "brand": "SK에너지",
          "brandCode": "SKE",
          "price": 1977,
          "address": "서울 양천구 신월동 206-1",
          "roadAddress": "서울 양천구 남부순환로 442 (신월동)",
          "katecX": 297042.8987,
          "katecY": 548004.3926,
          "latitude": 37.5284295,
          "longitude": 126.832909,
          "coordinateSource": "katec-converted"
        },
        {
          "id": "A0009610",
          "name": "덕릉로주유소",
          "brand": "S-OIL",
          "brandCode": "SOL",
          "price": 1977,
          "address": "서울 강북구 번동 436-38",
          "roadAddress": "서울 강북구 덕릉로 158 (번동)",
          "katecX": 314697.92876,
          "katecY": 559622.82557,
          "latitude": 37.6349097,
          "longitude": 127.0312742,
          "coordinateSource": "katec-converted"
        }
      ]
    },
    {
      "regionCode": "01",
      "regionName": "서울",
      "fuelCode": "D047",
      "fuelName": "경유",
      "stations": [
        {
          "id": "A0001146",
          "name": "SK에너지(주) 박미주유소",
          "brand": "SK에너지",
          "brandCode": "SKE",
          "price": 1947,
          "address": "서울 금천구 시흥동 980",
          "roadAddress": "서울 금천구 시흥대로 39-7 (시흥동)",
          "katecX": 303084.8522,
          "katecY": 537816.7868,
          "latitude": 37.437303,
          "longitude": 126.9025992,
          "coordinateSource": "katec-converted"
        },
        {
          "id": "A0001132",
          "name": "㈜씨더블유 이엔지 금천지점",
          "brand": "HDO",
          "brandCode": "HDO",
          "price": 1949,
          "address": "서울 금천구 시흥동 860-36",
          "roadAddress": "서울 금천구 독산로 147",
          "katecX": 303289.50294,
          "katecY": 540374.09535,
          "latitude": 37.4603639,
          "longitude": 126.9045755,
          "coordinateSource": "katec-converted"
        },
        {
          "id": "A0009682",
          "name": "이케이에너지 주식회사",
          "brand": "HDO",
          "brandCode": "HDO",
          "price": 1949,
          "address": "서울 도봉구 도봉동 298-2",
          "roadAddress": "서울 도봉구 도봉로 941 (도봉동)",
          "katecX": 315996.4144,
          "katecY": 565545.23458,
          "latitude": 37.6883866,
          "longitude": 127.0453013,
          "coordinateSource": "katec-converted"
        },
        {
          "id": "A0009845",
          "name": "요한주유소",
          "brand": "HDO",
          "brandCode": "HDO",
          "price": 1949,
          "address": "서울 도봉구 도봉동 629",
          "roadAddress": "서울 도봉구 마들로 776",
          "katecX": 316371,
          "katecY": 564492,
          "latitude": 37.678932,
          "longitude": 127.049669,
          "coordinateSource": "katec-converted"
        },
        {
          "id": "A0001108",
          "name": "대득에너지(금천셀프주유소)",
          "brand": "GS칼텍스",
          "brandCode": "GSC",
          "price": 1953,
          "address": "서울 금천구 시흥동 983",
          "roadAddress": "서울 금천구  시흥대로 81 (시흥동)",
          "katecX": 303133,
          "katecY": 538280,
          "latitude": 37.4414812,
          "longitude": 126.9030823,
          "coordinateSource": "katec-converted"
        },
        {
          "id": "A0001164",
          "name": "(주)화동유업 화동주유소",
          "brand": "SK에너지",
          "brandCode": "SKE",
          "price": 1954,
          "address": "서울 금천구 독산동 967",
          "roadAddress": "서울 금천구 시흥대로 484",
          "katecX": 302821.53096,
          "katecY": 542201.78194,
          "latitude": 37.4767808,
          "longitude": 126.8990451,
          "coordinateSource": "katec-converted"
        },
        {
          "id": "A0001022",
          "name": "SK에너지㈜ 신평",
          "brand": "SK에너지",
          "brandCode": "SKE",
          "price": 1954,
          "address": "서울 양천구 신정동 209-6",
          "roadAddress": "서울 양천구 목동남로 62",
          "katecX": 299970.9505,
          "katecY": 545862.9872,
          "latitude": 37.5094602,
          "longitude": 126.8663229,
          "coordinateSource": "katec-converted"
        },
        {
          "id": "A0001086",
          "name": "(주)백운주유소",
          "brand": "RTO",
          "brandCode": "RTO",
          "price": 1955,
          "address": "서울 금천구 독산동 1077-3",
          "roadAddress": "서울 금천구 시흥대로 282",
          "katecX": 302825.0476,
          "katecY": 540202.8721,
          "latitude": 37.4587725,
          "longitude": 126.8993489,
          "coordinateSource": "katec-converted"
        },
        {
          "id": "A0000431",
          "name": "SK에너지(주) 신길동주유소",
          "brand": "SK에너지",
          "brandCode": "SKE",
          "price": 1958,
          "address": "서울 영등포구 신길동 50-8",
          "roadAddress": "서울 영등포구 영등포로 348 (신길동)",
          "katecX": 304467.4051,
          "katecY": 546469.8666,
          "latitude": 37.5154048,
          "longitude": 126.9170956,
          "coordinateSource": "katec-converted"
        },
        {
          "id": "A0001024",
          "name": "SK에너지(주) 경인주유소",
          "brand": "SK에너지",
          "brandCode": "SKE",
          "price": 1959,
          "address": "서울 양천구 신정동 872-5",
          "roadAddress": "서울 양천구 국회대로 170 (신정동)",
          "katecX": 298878.7968,
          "katecY": 547944.8592,
          "latitude": 37.5280966,
          "longitude": 126.8536847,
          "coordinateSource": "katec-converted"
        },
        {
          "id": "A0000686",
          "name": "(주)디오티디 은평유니콘주유소",
          "brand": "HDO",
          "brandCode": "HDO",
          "price": 1961,
          "address": "서울 은평구 진관동 73-22",
          "roadAddress": "서울 은평구 통일로 1151",
          "katecX": 304199,
          "katecY": 560741,
          "latitude": 37.6439469,
          "longitude": 126.9121908,
          "coordinateSource": "katec-converted"
        },
        {
          "id": "A0009932",
          "name": "남성대주유소",
          "brand": "SK에너지",
          "brandCode": "SKE",
          "price": 1963,
          "address": "서울 송파구 장지동 645-13",
          "roadAddress": "서울 송파구 송파대로 52 (장지동)",
          "katecX": 323016.65605,
          "katecY": 541837.69536,
          "latitude": 37.4754072,
          "longitude": 127.127387,
          "coordinateSource": "katec-converted"
        },
        {
          "id": "A0001141",
          "name": "㈜씨더블유이엔지",
          "brand": "HDO",
          "brandCode": "HDO",
          "price": 1964,
          "address": "서울 금천구 독산동 900-4",
          "roadAddress": "서울 금천구 남부순환로 1410 (독산동)",
          "katecX": 303569.4,
          "katecY": 542566.5,
          "latitude": 37.4801451,
          "longitude": 126.9074514,
          "coordinateSource": "katec-converted"
        },
        {
          "id": "A0001144",
          "name": "SK에너지(주)직영 신봉천주유소",
          "brand": "SK에너지",
          "brandCode": "SKE",
          "price": 1966,
          "address": "서울 관악구 낙성대동 1663-11",
          "roadAddress": "서울 관악구 남부순환로 1880 (봉천동)",
          "katecX": 308077.68423,
          "katecY": 542361.34829,
          "latitude": 37.4787571,
          "longitude": 126.9584433,
          "coordinateSource": "katec-converted"
        },
        {
          "id": "A0000501",
          "name": "㈜오일마스터강서지점 등촌주유소",
          "brand": "HDO",
          "brandCode": "HDO",
          "price": 1967,
          "address": "서울 강서구 등촌동 511-5",
          "roadAddress": "서울 강서구 등촌로 189",
          "katecX": 299684.89865,
          "katecY": 550004.65832,
          "latitude": 37.5467415,
          "longitude": 126.8625214,
          "coordinateSource": "katec-converted"
        },
        {
          "id": "A0000992",
          "name": "신월주유소",
          "brand": "GS칼텍스",
          "brandCode": "GSC",
          "price": 1969,
          "address": "서울 양천구 신월동 534-24",
          "roadAddress": "서울 양천구 신월로 193",
          "katecX": 298014.58083,
          "katecY": 547054.30697,
          "latitude": 37.5199783,
          "longitude": 126.8440326,
          "coordinateSource": "katec-converted"
        },
        {
          "id": "A0001129",
          "name": "HD현대오일뱅크㈜직영 관악셀프주유소",
          "brand": "HDO",
          "brandCode": "HDO",
          "price": 1969,
          "address": "서울 관악구 신림동 1571-8",
          "roadAddress": "서울 관악구 남부순환로 1520 (신림동)",
          "katecX": 304629.00295,
          "katecY": 542795.99535,
          "latitude": 37.4823228,
          "longitude": 126.9194004,
          "coordinateSource": "katec-converted"
        },
        {
          "id": "A0000129",
          "name": "SK에너지(주) 양지주유소",
          "brand": "SK에너지",
          "brandCode": "SKE",
          "price": 1969,
          "address": "서울 마포구 도화동 174-1",
          "roadAddress": "서울 마포구 마포대로 69 (도화동)",
          "katecX": 307294,
          "katecY": 549386,
          "latitude": 37.5419659,
          "longitude": 126.9486966,
          "coordinateSource": "katec-converted"
        },
        {
          "id": "A0009272",
          "name": "(주)연우에너지 신관주유소",
          "brand": "RTO",
          "brandCode": "RTO",
          "price": 1974,
          "address": "서울 관악구 신림동 1641-58",
          "roadAddress": "서울 관악구 신림로 290 (신림동)",
          "katecX": 305616.56394,
          "katecY": 542563.88518,
          "latitude": 37.4803333,
          "longitude": 126.9305948,
          "coordinateSource": "katec-converted"
        },
        {
          "id": "A0009359",
          "name": "SK에너지(주) 군자동주유소",
          "brand": "SK에너지",
          "brandCode": "SKE",
          "price": 1974,
          "address": "서울 성동구 용답동 236-1",
          "roadAddress": "서울특별시 성동구  천호대로 446 (용답동)",
          "katecX": 317886.5771,
          "katecY": 551332.9406,
          "latitude": 37.5605132,
          "longitude": 127.0683295,
          "coordinateSource": "katec-converted"
        }
      ]
    },
    {
      "regionCode": "01",
      "regionName": "서울",
      "fuelCode": "K015",
      "fuelName": "LPG",
      "stations": [
        {
          "id": "A0032953",
          "name": "한경에너지",
          "brand": "SK에너지",
          "brandCode": "SKE",
          "price": 1087,
          "address": "서울 강서구 개화동 215-6",
          "roadAddress": "서울 강서구 개화동로 255",
          "katecX": 294104.61392,
          "katecY": 554571.18999,
          "latitude": 37.5872551,
          "longitude": 126.7987223,
          "coordinateSource": "katec-converted"
        },
        {
          "id": "A0000559",
          "name": "오곡동충전소",
          "brand": "E1",
          "brandCode": "E1G",
          "price": 1116,
          "address": "서울 강서구 오곡동 699-14",
          "roadAddress": "서울 강서구 벌말로 271 (오곡동)",
          "katecX": 291362.00588,
          "katecY": 551107.99064,
          "latitude": 37.5557363,
          "longitude": 126.7681885,
          "coordinateSource": "katec-converted"
        },
        {
          "id": "A0000481",
          "name": "강서충전소",
          "brand": "SK가스",
          "brandCode": "SKG",
          "price": 1116,
          "address": "서울 강서구 오곡동 593-2",
          "roadAddress": "서울 강서구 벌말로 266",
          "katecX": 291406.00294,
          "katecY": 551023.99532,
          "latitude": 37.5549848,
          "longitude": 126.7686988,
          "coordinateSource": "katec-converted"
        },
        {
          "id": "A0033750",
          "name": "강남세곡충전소 셀프세차장㈜",
          "brand": "SK에너지",
          "brandCode": "SKE",
          "price": 1152,
          "address": "서울 강남구 세곡동 34-3",
          "roadAddress": "서울 강남구 헌릉로 717",
          "katecX": 322120.86079,
          "katecY": 540867.46644,
          "latitude": 37.4665904,
          "longitude": 127.1173629,
          "coordinateSource": "katec-converted"
        },
        {
          "id": "A0000291",
          "name": "양평동충전소",
          "brand": "SK가스",
          "brandCode": "SKG",
          "price": 1155,
          "address": "서울 영등포구 양평동3가 59",
          "roadAddress": "서울 영등포구 선유로 157",
          "katecX": 302183.00295,
          "katecY": 547885.99534,
          "latitude": 37.5279232,
          "longitude": 126.8910698,
          "coordinateSource": "katec-converted"
        },
        {
          "id": "A0011826",
          "name": "㈜에이치앤디이 만남의광장주유소",
          "brand": "GS칼텍스",
          "brandCode": "GSC",
          "price": 1157,
          "address": "서울 서초구 원지동 10-16",
          "roadAddress": "서울 서초구 양재대로12길 73-71",
          "katecX": 315535.76499,
          "katecY": 540150.38545,
          "latitude": 37.4595503,
          "longitude": 127.0430113,
          "coordinateSource": "katec-converted"
        },
        {
          "id": "A0010145",
          "name": "(주)평안에너지 상계충전소",
          "brand": "E1",
          "brandCode": "E1G",
          "price": 1165,
          "address": "서울 노원구 중계동 515-5",
          "roadAddress": "서울 노원구 동일로210길 86 (중계동)",
          "katecX": 317868,
          "katecY": 561177,
          "latitude": 37.6492014,
          "longitude": 127.0670122,
          "coordinateSource": "katec-converted"
        },
        {
          "id": "A0010082",
          "name": "태능가스(주)",
          "brand": "S-OIL",
          "brandCode": "SOL",
          "price": 1165,
          "address": "서울 노원구 공릉동 690-11",
          "roadAddress": "서울 노원구 화랑로 405 (공릉동)",
          "katecX": 318316,
          "katecY": 557588,
          "latitude": 37.6169065,
          "longitude": 127.0724905,
          "coordinateSource": "katec-converted"
        },
        {
          "id": "A0009683",
          "name": "한영가스충전소",
          "brand": "GS칼텍스",
          "brandCode": "GSC",
          "price": 1165,
          "address": "서울 도봉구 쌍문동 715-1",
          "roadAddress": "서울 도봉구 도봉로 627",
          "katecX": 315616.83397,
          "katecY": 562454.54833,
          "latitude": 37.6605067,
          "longitude": 127.0413564,
          "coordinateSource": "katec-converted"
        },
        {
          "id": "A0012841",
          "name": "(주)평안에너지 도봉충전소",
          "brand": "E1",
          "brandCode": "E1G",
          "price": 1165,
          "address": "서울 도봉구 도봉동 376",
          "roadAddress": "서울 도봉구 도봉로 983 (도봉동)",
          "katecX": 315939.24421,
          "katecY": 565987.46091,
          "latitude": 37.6923655,
          "longitude": 127.0446021,
          "coordinateSource": "katec-converted"
        },
        {
          "id": "A0010132",
          "name": "복지공릉충전소 ㈜서울개인택시복지법인",
          "brand": "E1",
          "brandCode": "E1G",
          "price": 1166,
          "address": "서울 노원구 공릉동 26-69",
          "roadAddress": "서울 노원구 화랑로 826",
          "katecX": 321612,
          "katecY": 559996,
          "latitude": 37.638889,
          "longitude": 127.1095629,
          "coordinateSource": "katec-converted"
        },
        {
          "id": "A0010129",
          "name": "SK행복충전 노일가스충전소",
          "brand": "SK가스",
          "brandCode": "SKG",
          "price": 1167,
          "address": "서울 노원구 상계동 1034-1",
          "roadAddress": "서울 노원구 동일로 1601 (상계동)",
          "katecX": 316881.3,
          "katecY": 563646,
          "latitude": 37.6713565,
          "longitude": 127.0555502,
          "coordinateSource": "katec-converted"
        },
        {
          "id": "A0001874",
          "name": "복지강북충전소 ㈜서울개인택시복지법인",
          "brand": "GS칼텍스",
          "brandCode": "GSC",
          "price": 1167,
          "address": "서울 도봉구 창동 643-2",
          "roadAddress": "서울특별시 도봉구 도봉로 430 (창동)",
          "katecX": 314819,
          "katecY": 560656,
          "latitude": 37.6442292,
          "longitude": 127.0325251,
          "coordinateSource": "katec-converted"
        },
        {
          "id": "A0009627",
          "name": "SK행복충전 서울와사공업충전소",
          "brand": "SK가스",
          "brandCode": "SKG",
          "price": 1167,
          "address": "서울 강북구 번동 446-31",
          "roadAddress": "서울 강북구 도봉로 318 (번동)",
          "katecX": 314101.6,
          "katecY": 559768.7,
          "latitude": 37.6361683,
          "longitude": 127.0245014,
          "coordinateSource": "katec-converted"
        },
        {
          "id": "A0009491",
          "name": "SK행복충전 장위가스충전소",
          "brand": "SK가스",
          "brandCode": "SKG",
          "price": 1167,
          "address": "서울 성북구 장위3동44-3",
          "roadAddress": "서울 성북구 화랑로 291 (장위동)",
          "katecX": 317260,
          "katecY": 557194,
          "latitude": 37.6132622,
          "longitude": 127.0605748,
          "coordinateSource": "katec-converted"
        },
        {
          "id": "A0009625",
          "name": "국제가스공업(주)",
          "brand": "SK에너지",
          "brandCode": "SKE",
          "price": 1167,
          "address": "서울 강북구 수유동 48-83",
          "roadAddress": "서울 강북구 덕릉로 70",
          "katecX": 313864,
          "katecY": 559556,
          "latitude": 37.6342297,
          "longitude": 127.0218347,
          "coordinateSource": "katec-converted"
        },
        {
          "id": "A0009630",
          "name": "SK행복충전 청학에너지충전소",
          "brand": "SK가스",
          "brandCode": "SKG",
          "price": 1167,
          "address": "서울 강북구 번3동 267",
          "roadAddress": "서울 강북구 한천로 833 (번동)",
          "katecX": 315808.2,
          "katecY": 558866.3,
          "latitude": 37.6281965,
          "longitude": 127.0439395,
          "coordinateSource": "katec-converted"
        },
        {
          "id": "A0009165",
          "name": "복지장안충전소 ㈜서울개인택시복지법인",
          "brand": "SK가스",
          "brandCode": "SKG",
          "price": 1168,
          "address": "서울 동대문구 답십리동 1-478",
          "roadAddress": "서울 동대문구 한천로 169",
          "katecX": 317796,
          "katecY": 553070,
          "latitude": 37.5761552,
          "longitude": 127.0671092,
          "coordinateSource": "katec-converted"
        },
        {
          "id": "A0032948",
          "name": "대영가스충전소",
          "brand": "SK에너지",
          "brandCode": "SKE",
          "price": 1168,
          "address": "서울 강서구 마곡동 761-2",
          "roadAddress": "서울 강서구 양천로 242  (마곡동)",
          "katecX": 296974.59686,
          "katecY": 552884.01417,
          "latitude": 37.5723818,
          "longitude": 126.8314502,
          "coordinateSource": "katec-converted"
        },
        {
          "id": "A0009243",
          "name": "장안동가스충전소",
          "brand": "E1",
          "brandCode": "E1G",
          "price": 1168,
          "address": "서울 동대문구 장안동 413-6",
          "roadAddress": "서울 동대문구 천호대로 353 (장안동)",
          "katecX": 317038.6,
          "katecY": 551599.6,
          "latitude": 37.5628395,
          "longitude": 127.0587023,
          "coordinateSource": "katec-converted"
        }
      ]
    },
    {
      "regionCode": "02",
      "regionName": "경기",
      "fuelCode": "B027",
      "fuelName": "휘발유",
      "stations": [
        {
          "id": "A0004713",
          "name": "㈜영광에너지 영광셀프주유소",
          "brand": "RTO",
          "brandCode": "RTO",
          "price": 1958,
          "address": "경기 포천시 내촌면 음현리 293-1",
          "roadAddress": "경기 포천시 내촌면 금강로 2182",
          "katecX": 332230,
          "katecY": 574600,
          "latitude": 37.7713133,
          "longitude": 127.2285003,
          "coordinateSource": "katec-converted"
        },
        {
          "id": "A0011885",
          "name": "㈜오일오일",
          "brand": "HDO",
          "brandCode": "HDO",
          "price": 1959,
          "address": "경기 포천시 가산면 정교리 12-8",
          "roadAddress": "경기 포천시 가산면 부흥로 656",
          "katecX": 328382.07223,
          "katecY": 578767.33412,
          "latitude": 37.8085648,
          "longitude": 127.1844137,
          "coordinateSource": "katec-converted"
        },
        {
          "id": "A0006122",
          "name": "㈜원흥.양주지점 제이앤에스",
          "brand": "HDO",
          "brandCode": "HDO",
          "price": 1961,
          "address": "경기 양주시 산북동 198-3",
          "roadAddress": "경기 양주시 평화로 1107 (산북동)",
          "katecX": 316375.4981,
          "katecY": 576840.0958,
          "latitude": 37.7901792,
          "longitude": 127.0482971,
          "coordinateSource": "katec-converted"
        },
        {
          "id": "A0005030",
          "name": "(주)교현 알뜰주유소",
          "brand": "RTO",
          "brandCode": "RTO",
          "price": 1961,
          "address": "경기 양주시 장흥면 교현리 333-3",
          "roadAddress": "경기 양주시 장흥면 북한산로 863",
          "katecX": 309314,
          "katecY": 566778,
          "latitude": 37.698855,
          "longitude": 126.9693909,
          "coordinateSource": "katec-converted"
        },
        {
          "id": "A0004808",
          "name": "서울이엔지㈜ 일월주유소",
          "brand": "HDO",
          "brandCode": "HDO",
          "price": 1961,
          "address": "경기 양주시 백석읍 방성리 471-4",
          "roadAddress": "경기 양주시 백석읍 부흥로 1126",
          "katecX": 312834.00301,
          "katecY": 577764.99533,
          "latitude": 37.7981801,
          "longitude": 127.0079814,
          "coordinateSource": "katec-converted"
        },
        {
          "id": "A0004417",
          "name": "KH에너지㈜직영 대복주유소",
          "brand": "자가상표",
          "brandCode": "ETC",
          "price": 1961,
          "address": "경기 양주시 광사동 401",
          "roadAddress": "경기 양주시 부흥로 1807",
          "katecX": 318243,
          "katecY": 576398,
          "latitude": 37.7863656,
          "longitude": 127.0695478,
          "coordinateSource": "katec-converted"
        },
        {
          "id": "A0017725",
          "name": "광적주유소",
          "brand": "S-OIL",
          "brandCode": "SOL",
          "price": 1963,
          "address": "경기 양주시 광적면 가납리 444-25",
          "roadAddress": "경기 양주시 광적면 부흥로 917",
          "katecX": 311466.46291,
          "katecY": 579265.73919,
          "latitude": 37.8115684,
          "longitude": 126.9922713,
          "coordinateSource": "katec-converted"
        },
        {
          "id": "A0005003",
          "name": "(주)어하둥둥알뜰주유소",
          "brand": "RTO",
          "brandCode": "RTO",
          "price": 1963,
          "address": "경기 양주시 유양동 612-4",
          "roadAddress": "경기 양주시 부흥로 1300",
          "katecX": 313875.60453,
          "katecY": 576535.82059,
          "latitude": 37.7872053,
          "longitude": 127.0199536,
          "coordinateSource": "katec-converted"
        },
        {
          "id": "A0004826",
          "name": "하나셀프주유소",
          "brand": "GS칼텍스",
          "brandCode": "GSC",
          "price": 1963,
          "address": "경기 양주시 백석읍 방성리 86-3",
          "roadAddress": "경기 양주시 백석읍 부흥로 1024",
          "katecX": 312246,
          "katecY": 578576,
          "latitude": 37.80543,
          "longitude": 127.0012071,
          "coordinateSource": "katec-converted"
        },
        {
          "id": "A0004712",
          "name": "㈜신원",
          "brand": "HDO",
          "brandCode": "HDO",
          "price": 1963,
          "address": "경기 양주시 백석읍 오산리 521-1",
          "roadAddress": "경기 양주시 백석읍 중앙로 246",
          "katecX": 310934,
          "katecY": 577676,
          "latitude": 37.7971947,
          "longitude": 126.9864207,
          "coordinateSource": "katec-converted"
        },
        {
          "id": "A0005046",
          "name": "의정부 코스모스주유소",
          "brand": "S-OIL",
          "brandCode": "SOL",
          "price": 1965,
          "address": "경기 의정부시 의정부동 238-1",
          "roadAddress": "경기 의정부시 평화로 593 (의정부동)",
          "katecX": 316108.303,
          "katecY": 571807.89534,
          "latitude": 37.7448187,
          "longitude": 127.0458465,
          "coordinateSource": "katec-converted"
        },
        {
          "id": "A0004529",
          "name": "씨앤에스유통㈜ 장암IC주유소",
          "brand": "S-OIL",
          "brandCode": "SOL",
          "price": 1965,
          "address": "경기 의정부시 신곡동 266-9외10",
          "roadAddress": "경기 의정부시 금신로 30 (신곡동)",
          "katecX": 317604.2,
          "katecY": 569471.1,
          "latitude": 37.7239021,
          "longitude": 127.0630836,
          "coordinateSource": "katec-converted"
        },
        {
          "id": "A0009000",
          "name": "신기알뜰주유소",
          "brand": "RTO",
          "brandCode": "RTO",
          "price": 1965,
          "address": "경기 화성시 만세구 남양읍 북양리 55-5",
          "roadAddress": "경기 화성시 만세구 남양읍 화성로 1472",
          "katecX": 297422,
          "katecY": 514023,
          "latitude": 37.2223275,
          "longitude": 126.841914,
          "coordinateSource": "katec-converted"
        },
        {
          "id": "A0000573",
          "name": "이케이에너지(주) 예당주유소",
          "brand": "HDO",
          "brandCode": "HDO",
          "price": 1965,
          "address": "경기 의정부시 의정부동 533-8",
          "roadAddress": "경기 의정부시 의정로 10 (의정부동)",
          "katecX": 315174,
          "katecY": 570590,
          "latitude": 37.7337602,
          "longitude": 127.0353887,
          "coordinateSource": "katec-converted"
        },
        {
          "id": "A0004551",
          "name": "흥산에너지",
          "brand": "GS칼텍스",
          "brandCode": "GSC",
          "price": 1965,
          "address": "경기 의정부시 신곡동 312-38",
          "roadAddress": "경기 의정부시 금신로 91 (신곡동)",
          "katecX": 317625.7,
          "katecY": 570051.3,
          "latitude": 37.7291312,
          "longitude": 127.0632616,
          "coordinateSource": "katec-converted"
        },
        {
          "id": "A0011930",
          "name": "행정타운주유소",
          "brand": "SK에너지",
          "brandCode": "SKE",
          "price": 1965,
          "address": "경기 광주시 송정동 195-2",
          "roadAddress": "경기 광주시 회안대로 843 (송정동)",
          "katecX": 334122,
          "katecY": 535909,
          "latitude": 37.4228493,
          "longitude": 127.2534657,
          "coordinateSource": "katec-converted"
        },
        {
          "id": "A0004264",
          "name": "이케이에너지㈜ 바다주유소",
          "brand": "HDO",
          "brandCode": "HDO",
          "price": 1965,
          "address": "경기 의정부시 용현동 399-19",
          "roadAddress": "경기 의정부시 시민로 367",
          "katecX": 318705.8099,
          "katecY": 570752.7509,
          "latitude": 37.7355475,
          "longitude": 127.0754349,
          "coordinateSource": "katec-converted"
        },
        {
          "id": "A0004799",
          "name": "서울주유소",
          "brand": "HDO",
          "brandCode": "HDO",
          "price": 1965,
          "address": "경기 의정부시 신곡동 146-9",
          "roadAddress": "경기 의정부시 시민로 284",
          "katecX": 317884.00533,
          "katecY": 570874.26029,
          "latitude": 37.7365687,
          "longitude": 127.0660985,
          "coordinateSource": "katec-converted"
        },
        {
          "id": "A0004822",
          "name": "카이에너지㈜ 복지주유소",
          "brand": "SK에너지",
          "brandCode": "SKE",
          "price": 1965,
          "address": "경기 양주시 백석읍 복지리 197-3",
          "roadAddress": "경기 양주시 백석읍 중앙로 175",
          "katecX": 311424.14242,
          "katecY": 577192.14209,
          "latitude": 37.7928834,
          "longitude": 126.9920446,
          "coordinateSource": "katec-converted"
        },
        {
          "id": "A0007066",
          "name": "소망주유소",
          "brand": "S-OIL",
          "brandCode": "SOL",
          "price": 1965,
          "address": "경기 안산시 상록구 사동 1318-3",
          "roadAddress": "경기 안산시 상록구 석호로 202 (사동)",
          "katecX": 298495.9789,
          "katecY": 522077.7725,
          "latitude": 37.2950138,
          "longitude": 126.8529136,
          "coordinateSource": "katec-converted"
        }
      ]
    },
    {
      "regionCode": "02",
      "regionName": "경기",
      "fuelCode": "D047",
      "fuelName": "경유",
      "stations": [
        {
          "id": "A0003480",
          "name": "㈜이아이디 서하남고속주유소 지점",
          "brand": "SK에너지",
          "brandCode": "SKE",
          "price": 1938,
          "address": "경기 하남시 감북동 377-1",
          "roadAddress": "경기 하남시 서하남로 77",
          "katecX": 325289,
          "katecY": 546277,
          "latitude": 37.5155916,
          "longitude": 127.152624,
          "coordinateSource": "katec-converted"
        },
        {
          "id": "A0004627",
          "name": "석우리주유소",
          "brand": "S-OIL",
          "brandCode": "SOL",
          "price": 1939,
          "address": "경기 양주시 광적면 석우리 441-9",
          "roadAddress": "경기 양주시 광적면 광적로 192",
          "katecX": 310089,
          "katecY": 581873,
          "latitude": 37.8349221,
          "longitude": 126.9763051,
          "coordinateSource": "katec-converted"
        },
        {
          "id": "A0007955",
          "name": "하성셀프제1주유소 (주)태평석유 직영",
          "brand": "SK에너지",
          "brandCode": "SKE",
          "price": 1939,
          "address": "경기 김포시 하성면 하사리 256-4",
          "roadAddress": "경기 김포시 하성면 하성로 247",
          "katecX": 279766.72296,
          "katecY": 566979.78179,
          "latitude": 37.6972688,
          "longitude": 126.6343704,
          "coordinateSource": "katec-converted"
        },
        {
          "id": "A0004907",
          "name": "SK에너지(주) 엔크린셀프주유소",
          "brand": "SK에너지",
          "brandCode": "SKE",
          "price": 1939,
          "address": "경기 의정부시 의정부동 609-2",
          "roadAddress": "경기 의정부시 경의로 20 (의정부동)",
          "katecX": 315363.0717,
          "katecY": 570450.33,
          "latitude": 37.7325194,
          "longitude": 127.0375498,
          "coordinateSource": "katec-converted"
        },
        {
          "id": "A0011945",
          "name": "하성셀프제2주유소 (주)태평석유 직영",
          "brand": "SK에너지",
          "brandCode": "SKE",
          "price": 1939,
          "address": "경기 김포시 하성면 하사리 256-6",
          "roadAddress": "경기 김포시 하성면 하성로 243",
          "katecX": 279740.16961,
          "katecY": 566924.89952,
          "latitude": 37.6967709,
          "longitude": 126.6340785,
          "coordinateSource": "katec-converted"
        },
        {
          "id": "A0008652",
          "name": "㈜현대가스텍 파동주유소",
          "brand": "HDO",
          "brandCode": "HDO",
          "price": 1940,
          "address": "경기 파주시 아동동112-3",
          "roadAddress": "경기 파주시 통일로 645",
          "katecX": 293856,
          "katecY": 574573,
          "latitude": 37.767414,
          "longitude": 126.7929921,
          "coordinateSource": "katec-converted"
        },
        {
          "id": "A0008829",
          "name": "(주)이엘에스 양변주유소/충전소",
          "brand": "HDO",
          "brandCode": "HDO",
          "price": 1943,
          "address": "경기 안성시 미양면 양변리 211",
          "roadAddress": "경기 안성시 미양면 211-0",
          "katecX": 332941.31188,
          "katecY": 483529.20852,
          "latitude": 36.9507947,
          "longitude": 127.2448411,
          "coordinateSource": "katec-converted"
        },
        {
          "id": "A0004808",
          "name": "서울이엔지㈜ 일월주유소",
          "brand": "HDO",
          "brandCode": "HDO",
          "price": 1943,
          "address": "경기 양주시 백석읍 방성리 471-4",
          "roadAddress": "경기 양주시 백석읍 부흥로 1126",
          "katecX": 312834.00301,
          "katecY": 577764.99533,
          "latitude": 37.7981801,
          "longitude": 127.0079814,
          "coordinateSource": "katec-converted"
        },
        {
          "id": "A0008750",
          "name": "SK에너지(주) 대흥셀프주유소",
          "brand": "SK에너지",
          "brandCode": "SKE",
          "price": 1945,
          "address": "경기 용인시 기흥구 보정동 474-2",
          "roadAddress": "경기 용인시 기흥구 신수로 570 (보정동)",
          "katecX": 320685,
          "katecY": 524679,
          "latitude": 37.3206117,
          "longitude": 127.1028727,
          "coordinateSource": "katec-converted"
        },
        {
          "id": "A0008916",
          "name": "SK에너지㈜직영 기쁨셀프주유소",
          "brand": "SK에너지",
          "brandCode": "SKE",
          "price": 1945,
          "address": "경기 용인시 기흥구 보정동 547-4",
          "roadAddress": "경기 용인시 기흥구 용구대로2469번길 130 (보정동)",
          "katecX": 320939.99553,
          "katecY": 524415.15079,
          "latitude": 37.3182562,
          "longitude": 127.1057776,
          "coordinateSource": "katec-converted"
        },
        {
          "id": "A0002264",
          "name": "차사랑주유소",
          "brand": "RTO",
          "brandCode": "RTO",
          "price": 1945,
          "address": "경기 오산시 오산동 851-4",
          "roadAddress": "경기 오산시 경기대로 296 (오산동)",
          "katecX": 317941.8,
          "katecY": 505904.6,
          "latitude": 37.1512146,
          "longitude": 127.0739965,
          "coordinateSource": "katec-converted"
        },
        {
          "id": "A0004826",
          "name": "하나셀프주유소",
          "brand": "GS칼텍스",
          "brandCode": "GSC",
          "price": 1945,
          "address": "경기 양주시 백석읍 방성리 86-3",
          "roadAddress": "경기 양주시 백석읍 부흥로 1024",
          "katecX": 312246,
          "katecY": 578576,
          "latitude": 37.80543,
          "longitude": 127.0012071,
          "coordinateSource": "katec-converted"
        },
        {
          "id": "A0003404",
          "name": "SK에너지(주) 삼성주유소",
          "brand": "SK에너지",
          "brandCode": "SKE",
          "price": 1947,
          "address": "경기 평택시 청북면 토진리 214-16",
          "roadAddress": "경기 평택시 청북면 청원로 158",
          "katecX": 306902.8924,
          "katecY": 493591.8081,
          "latitude": 37.0392411,
          "longitude": 126.9512723,
          "coordinateSource": "katec-converted"
        },
        {
          "id": "A0004693",
          "name": "구도일주유소 의정부",
          "brand": "S-OIL",
          "brandCode": "SOL",
          "price": 1947,
          "address": "경기 의정부시 신곡동 443-7",
          "roadAddress": "경기 의정부시 시민로 213 (신곡동)",
          "katecX": 317204,
          "katecY": 570855,
          "latitude": 37.7363338,
          "longitude": 127.0583865,
          "coordinateSource": "katec-converted"
        },
        {
          "id": "A0002576",
          "name": "SK에너지(주)운암뜰주유소",
          "brand": "SK에너지",
          "brandCode": "SKE",
          "price": 1947,
          "address": "경기 오산시 오산동 835-2",
          "roadAddress": "경기 오산시 경기대로 317 (오산동)",
          "katecX": 317891,
          "katecY": 506075,
          "latitude": 37.1527455,
          "longitude": 127.0734059,
          "coordinateSource": "katec-converted"
        },
        {
          "id": "A0004356",
          "name": "미래주유소",
          "brand": "SK에너지",
          "brandCode": "SKE",
          "price": 1947,
          "address": "경기 의정부시 신곡동 351-8",
          "roadAddress": "경기 의정부시 동일로 492 (신곡동)",
          "katecX": 317257.4084,
          "katecY": 570369.4592,
          "latitude": 37.7319643,
          "longitude": 127.0590477,
          "coordinateSource": "katec-converted"
        },
        {
          "id": "A0007830",
          "name": "대명주유소",
          "brand": "S-OIL",
          "brandCode": "SOL",
          "price": 1949,
          "address": "경기 김포시 대곶면 대명리 393-4",
          "roadAddress": "경기 김포시 대곶면 대명항로 501",
          "katecX": 273645,
          "katecY": 561424,
          "latitude": 37.6463995,
          "longitude": 126.5659358,
          "coordinateSource": "katec-converted"
        },
        {
          "id": "A0009931",
          "name": "지에코주유소",
          "brand": "자가상표",
          "brandCode": "ETC",
          "price": 1949,
          "address": "경기 의정부시 호원동 194-2",
          "roadAddress": "경기 의정부시 평화로 10",
          "katecX": 315995.7129,
          "katecY": 566071.44327,
          "latitude": 37.6931273,
          "longitude": 127.0452326,
          "coordinateSource": "katec-converted"
        },
        {
          "id": "A0005511",
          "name": "SK에너지(주) 백마주유소",
          "brand": "SK에너지",
          "brandCode": "SKE",
          "price": 1949,
          "address": "경기 고양시 일산동구 백석동 1236",
          "roadAddress": "경기 고양시 일산동구 중앙로 990 (백석동)",
          "katecX": 293632,
          "katecY": 560422,
          "latitude": 37.6399084,
          "longitude": 126.79252,
          "coordinateSource": "katec-converted"
        },
        {
          "id": "A0007075",
          "name": "SK에너지(주)파워디젤주유소",
          "brand": "SK에너지",
          "brandCode": "SKE",
          "price": 1949,
          "address": "경기 시흥시 정왕동 1852-6",
          "roadAddress": "경기 시흥시 옥구공원로 75 (정왕동)",
          "katecX": 287004.8323,
          "katecY": 528400.0629,
          "latitude": 37.3506436,
          "longitude": 126.7223692,
          "coordinateSource": "katec-converted"
        }
      ]
    },
    {
      "regionCode": "02",
      "regionName": "경기",
      "fuelCode": "K015",
      "fuelName": "LPG",
      "stations": [
        {
          "id": "A0007594",
          "name": "SK행복충전 조암충전소",
          "brand": "SK가스",
          "brandCode": "SKG",
          "price": 990,
          "address": "경기 화성시 만세구 우정읍 호곡리 89-1",
          "roadAddress": "경기 화성시 만세구 우정읍 호곡길 84",
          "katecX": 292305,
          "katecY": 502668,
          "latitude": 37.119449,
          "longitude": 126.7859044,
          "coordinateSource": "katec-converted"
        },
        {
          "id": "A0003403",
          "name": "성원이앤에스(주)안성지점",
          "brand": "GS칼텍스",
          "brandCode": "GSC",
          "price": 994,
          "address": "경기 안성시 대덕면 모산리 359-13",
          "roadAddress": "경기 안성시 대덕면 안성대로 1284",
          "katecX": 332379.39956,
          "katecY": 492485.30988,
          "latitude": 37.0314562,
          "longitude": 127.2377274,
          "coordinateSource": "katec-converted"
        },
        {
          "id": "A0003035",
          "name": "평화lpg충전소",
          "brand": "SK에너지",
          "brandCode": "SKE",
          "price": 995,
          "address": "경기 안성시 공도읍 승두리 593-6",
          "roadAddress": "경기 안성시 공도읍 서동대로 4068",
          "katecX": 325389.85097,
          "katecY": 488787.01039,
          "latitude": 36.9976017,
          "longitude": 127.1595394,
          "coordinateSource": "katec-converted"
        },
        {
          "id": "A0003238",
          "name": "(유)유성홀딩스 공도충전소",
          "brand": "SK가스",
          "brandCode": "SKG",
          "price": 995,
          "address": "경기 안성시 공도읍 만정리 290-7",
          "roadAddress": "경기 안성시 공도읍 서동대로 4287-12",
          "katecX": 327160.00289,
          "katecY": 489628.99543,
          "latitude": 37.0053277,
          "longitude": 127.1793436,
          "coordinateSource": "katec-converted"
        },
        {
          "id": "A0010546",
          "name": "녹박재충전소",
          "brand": "자가상표",
          "brandCode": "ETC",
          "price": 996,
          "address": "경기 안성시 죽산면 장릉리 660-4",
          "roadAddress": "경기 안성시 죽산면 서동대로 6516",
          "katecX": 345135.5,
          "katecY": 496570.1,
          "latitude": 37.0690986,
          "longitude": 127.3807985,
          "coordinateSource": "katec-converted"
        },
        {
          "id": "A0033217",
          "name": "비봉충전소 ㈜대원에너지",
          "brand": "HDO",
          "brandCode": "HDO",
          "price": 996,
          "address": "경기 안성시 죽산면 장능리 580",
          "roadAddress": "경기 안성시 죽산면 서동대로 6617",
          "katecX": 346078.32881,
          "katecY": 496938.35038,
          "latitude": 37.0724718,
          "longitude": 127.3913741,
          "coordinateSource": "katec-converted"
        },
        {
          "id": "A0002759",
          "name": "이화LPG충전소",
          "brand": "HDO",
          "brandCode": "HDO",
          "price": 999,
          "address": "경기 안성시 보개면 상삼리 211",
          "roadAddress": "경기 안성시 보개면 서동대로 5894",
          "katecX": 341476.3,
          "katecY": 492034.8,
          "latitude": 37.0280094,
          "longitude": 127.340005,
          "coordinateSource": "katec-converted"
        },
        {
          "id": "A0005446",
          "name": "신우에너지(주)",
          "brand": "SK가스",
          "brandCode": "SKG",
          "price": 1004,
          "address": "경기 고양시 일산동구 성석동 1305-5",
          "roadAddress": "경기 고양시 일산동구 고봉로 470",
          "katecX": 292745.65477,
          "katecY": 567163.06735,
          "latitude": 37.7005324,
          "longitude": 126.7814864,
          "coordinateSource": "katec-converted"
        },
        {
          "id": "A0005301",
          "name": "일산충전소",
          "brand": "SK에너지",
          "brandCode": "SKE",
          "price": 1004,
          "address": "경기 고양시 일산동구 식사동 832-20",
          "roadAddress": "경기 고양시 일산동구 무궁화로 362(식사동)",
          "katecX": 294298,
          "katecY": 564556,
          "latitude": 37.677227,
          "longitude": 126.7994653,
          "coordinateSource": "katec-converted"
        },
        {
          "id": "A0003147",
          "name": "안성에너지",
          "brand": "E1",
          "brandCode": "E1G",
          "price": 1008,
          "address": "경기 안성시 대덕면 모산리 396-3",
          "roadAddress": "경기 안성시 대덕면 만세로 77-1",
          "katecX": 332313,
          "katecY": 491866,
          "latitude": 37.025871,
          "longitude": 127.237037,
          "coordinateSource": "katec-converted"
        },
        {
          "id": "A0008954",
          "name": "희망충전소",
          "brand": "HDO",
          "brandCode": "HDO",
          "price": 1009,
          "address": "경기 화성시 효행구 비봉면 삼화리 4-1",
          "roadAddress": "경기 화성시 효행구 비봉면 비봉로 487",
          "katecX": 298204.0029,
          "katecY": 518021.99536,
          "latitude": 37.2584419,
          "longitude": 126.8501769,
          "coordinateSource": "katec-converted"
        },
        {
          "id": "A0007669",
          "name": "안성맞춤LPG충전소",
          "brand": "SK에너지",
          "brandCode": "SKE",
          "price": 1010,
          "address": "경기 안성시 당왕동 269-3",
          "roadAddress": "경기 안성시 당왕동안성맞춤대로 1253",
          "katecX": 334798.33866,
          "katecY": 491646.81144,
          "latitude": 37.0240722,
          "longitude": 127.264987,
          "coordinateSource": "katec-converted"
        },
        {
          "id": "A0006835",
          "name": "(주)옥산에너지 안성제일충전소",
          "brand": "S-OIL",
          "brandCode": "SOL",
          "price": 1011,
          "address": "경기 안성시 대덕면 소현리 297-1",
          "roadAddress": "경기 안성시 대덕면 서동대로 5059",
          "katecX": 334300,
          "katecY": 491588,
          "latitude": 37.0235074,
          "longitude": 127.2593918,
          "coordinateSource": "katec-converted"
        },
        {
          "id": "A0002387",
          "name": "다인산업(주) 화성충전소",
          "brand": "SK에너지",
          "brandCode": "SKE",
          "price": 1013,
          "address": "경기 화성시 효행구 비봉면 삼화리 773-1",
          "roadAddress": "경기 화성시 효행구 비봉면 비봉로 366",
          "katecX": 298067,
          "katecY": 516845,
          "latitude": 37.2478229,
          "longitude": 126.8487941,
          "coordinateSource": "katec-converted"
        },
        {
          "id": "A0002693",
          "name": "한일크린에너지(주)",
          "brand": "HDO",
          "brandCode": "HDO",
          "price": 1019,
          "address": "경기 안성시 계동5,6",
          "roadAddress": "경기 안성시 안성맞춤대로 872",
          "katecX": 335215,
          "katecY": 488099,
          "latitude": 36.9921323,
          "longitude": 127.2699753,
          "coordinateSource": "katec-converted"
        },
        {
          "id": "A0005464",
          "name": "SK행복충전 원일에너지충전소",
          "brand": "SK가스",
          "brandCode": "SKG",
          "price": 1020,
          "address": "경기 고양시 일산동구 문봉동 195-4",
          "roadAddress": "경기 고양시 일산동구 문원길 37",
          "katecX": 296092,
          "katecY": 568175,
          "latitude": 37.7100345,
          "longitude": 126.8192822,
          "coordinateSource": "katec-converted"
        },
        {
          "id": "A0033170",
          "name": "야목충전소",
          "brand": "HDO",
          "brandCode": "HDO",
          "price": 1024,
          "address": "경기 화성시 효행구 매송면 야목리 801",
          "roadAddress": "경기 화성시 효행구 매송면 매송로 279",
          "katecX": 301382.68901,
          "katecY": 518176.82344,
          "latitude": 37.2601794,
          "longitude": 126.8859851,
          "coordinateSource": "katec-converted"
        },
        {
          "id": "A0005523",
          "name": "㈜엘아이지휴세코 희망주유소/충전소",
          "brand": "HDO",
          "brandCode": "HDO",
          "price": 1024,
          "address": "경기 고양시 일산서구 덕이동 304-4",
          "roadAddress": "경기 고양시 일산서구 경의로 910",
          "katecX": 290794.7,
          "katecY": 566958.3,
          "latitude": 37.6984571,
          "longitude": 126.7593978,
          "coordinateSource": "katec-converted"
        },
        {
          "id": "A0005483",
          "name": "SK행복충전 신우에너지 신일산충전소",
          "brand": "SK가스",
          "brandCode": "SKG",
          "price": 1024,
          "address": "경기 고양시 일산서구 대화동 59",
          "roadAddress": "경기 고양시 일산서구 경의로 789 (대화동)",
          "katecX": 290610,
          "katecY": 565808,
          "latitude": 37.6880726,
          "longitude": 126.7574768,
          "coordinateSource": "katec-converted"
        },
        {
          "id": "A0008184",
          "name": "SK행복충전 케이씨에너지충전소",
          "brand": "SK가스",
          "brandCode": "SKG",
          "price": 1028,
          "address": "경기 과천시 갈현동 302-1",
          "roadAddress": "경기 과천시 과천대로 20",
          "katecX": 309789.4,
          "katecY": 534051.9,
          "latitude": 37.4040622,
          "longitude": 126.978812,
          "coordinateSource": "katec-converted"
        }
      ]
    },
    {
      "regionCode": "03",
      "regionName": "강원",
      "fuelCode": "B027",
      "fuelName": "휘발유",
      "stations": [
        {
          "id": "A0011396",
          "name": "회산주유소",
          "brand": "S-OIL",
          "brandCode": "SOL",
          "price": 1956,
          "address": "강원 강릉시 회산동 234-1",
          "roadAddress": "강원 강릉시 관솔길 27 (회산동)",
          "katecX": 476869.0913,
          "katecY": 571111.1021,
          "latitude": 37.7391922,
          "longitude": 128.8699272,
          "coordinateSource": "katec-converted"
        },
        {
          "id": "A0011488",
          "name": "솔향주유소",
          "brand": "RTO",
          "brandCode": "RTO",
          "price": 1958,
          "address": "강원 강릉시 홍제동 757-1",
          "roadAddress": "강원 강릉시 공제로437번길 1 (홍제동)",
          "katecX": 476659,
          "katecY": 571877,
          "latitude": 37.7461101,
          "longitude": 128.8676243,
          "coordinateSource": "katec-converted"
        },
        {
          "id": "A0010489",
          "name": "동춘천농협주유소",
          "brand": "농협알뜰",
          "brandCode": "NHO",
          "price": 1959,
          "address": "강원 춘천시 동내면 학곡리 590",
          "roadAddress": "강원 춘천시 동내면 학곡동2길 11",
          "katecX": 379111,
          "katecY": 581732,
          "latitude": 37.837857,
          "longitude": 127.7604322,
          "coordinateSource": "katec-converted"
        },
        {
          "id": "A0011577",
          "name": "KH에너지㈜직영 교동주유소",
          "brand": "SK에너지",
          "brandCode": "SKE",
          "price": 1969,
          "address": "강원 강릉시 교동 1893",
          "roadAddress": "강원 강릉시 하슬라로 159 (교동)",
          "katecX": 477267.9199,
          "katecY": 574009.603,
          "latitude": 37.7652725,
          "longitude": 128.8747592,
          "coordinateSource": "katec-converted"
        },
        {
          "id": "A0010326",
          "name": "새춘천주유소",
          "brand": "RTO",
          "brandCode": "RTO",
          "price": 1969,
          "address": "강원 춘천시 동내면 거두리 667-1",
          "roadAddress": "강원 춘천시 동내면 세실로 38",
          "katecX": 379030.8987,
          "katecY": 584271.8049,
          "latitude": 37.8607393,
          "longitude": 127.7594478,
          "coordinateSource": "katec-converted"
        },
        {
          "id": "A0010431",
          "name": "㈜붕붕붕주유소",
          "brand": "GS칼텍스",
          "brandCode": "GSC",
          "price": 1969,
          "address": "강원 춘천시 석사동 430-1",
          "roadAddress": "강원 춘천시 공지로 156-3",
          "katecX": 377764.15575,
          "katecY": 584168.95196,
          "latitude": 37.8597823,
          "longitude": 127.7450548,
          "coordinateSource": "katec-converted"
        },
        {
          "id": "A0010481",
          "name": "㈜갤럭시(Galaxy)E＆S",
          "brand": "GS칼텍스",
          "brandCode": "GSC",
          "price": 1969,
          "address": "강원 춘천시 동내면 거두리 682-8",
          "roadAddress": "강원 춘천시 동내면 세실로 20",
          "katecX": 379108.27023,
          "katecY": 584110.51545,
          "latitude": 37.8592879,
          "longitude": 127.7603318,
          "coordinateSource": "katec-converted"
        },
        {
          "id": "A0009978",
          "name": "거두주유소",
          "brand": "GS칼텍스",
          "brandCode": "GSC",
          "price": 1969,
          "address": "강원 춘천시 동내면 거두리 910",
          "roadAddress": "강원도 춘천시 동내면 춘천순환로 59",
          "katecX": 378218.14178,
          "katecY": 583718.13754,
          "latitude": 37.8557315,
          "longitude": 127.7502279,
          "coordinateSource": "katec-converted"
        },
        {
          "id": "A0010507",
          "name": "㈜대경유업 퇴계로주유소",
          "brand": "HDO",
          "brandCode": "HDO",
          "price": 1969,
          "address": "강원 춘천시 석사동 818-6",
          "roadAddress": "강원 춘천시 퇴계로 231",
          "katecX": 377692.6239,
          "katecY": 583748.2141,
          "latitude": 37.8559896,
          "longitude": 127.744255,
          "coordinateSource": "katec-converted"
        },
        {
          "id": "A0010392",
          "name": "춘천주유소",
          "brand": "SK에너지",
          "brandCode": "SKE",
          "price": 1969,
          "address": "강원 춘천시 효자동 287-1",
          "roadAddress": "강원 춘천시  공지로 234-1 (효자동)",
          "katecX": 377115.7567,
          "katecY": 584606.7506,
          "latitude": 37.8637108,
          "longitude": 127.7376721,
          "coordinateSource": "katec-converted"
        },
        {
          "id": "A0010293",
          "name": "영서에너지㈜ 에이스주유소",
          "brand": "GS칼텍스",
          "brandCode": "GSC",
          "price": 1969,
          "address": "강원 춘천시 효자동 666-2",
          "roadAddress": "강원 춘천시 효자로 94 (효자동)",
          "katecX": 376685.5657,
          "katecY": 585443.334,
          "latitude": 37.8712376,
          "longitude": 127.7327557,
          "coordinateSource": "katec-converted"
        },
        {
          "id": "A0010364",
          "name": "IOZEN(이오젠)",
          "brand": "SK에너지",
          "brandCode": "SKE",
          "price": 1969,
          "address": "강원 춘천시 동내면 고은리 537-1",
          "roadAddress": "강원 춘천시 동내면 순환대로 758",
          "katecX": 380086.1,
          "katecY": 582846.8,
          "latitude": 37.8479236,
          "longitude": 127.7714795,
          "coordinateSource": "katec-converted"
        },
        {
          "id": "A0033584",
          "name": "(주)강릉햇살 유천주유소",
          "brand": "HDO",
          "brandCode": "HDO",
          "price": 1969,
          "address": "강원도 강릉시 유천동 776-5",
          "roadAddress": "강원도 강릉시 사임당로 178(유천동)",
          "katecX": 476514.3959,
          "katecY": 573502.17965,
          "latitude": 37.7607641,
          "longitude": 128.8661543,
          "coordinateSource": "katec-converted"
        },
        {
          "id": "A0010847",
          "name": "무궁화주유소",
          "brand": "HDO",
          "brandCode": "HDO",
          "price": 1971,
          "address": "강원 홍천군 홍천읍 하오안리 166-27",
          "roadAddress": "강원 홍천군 홍천읍 설악로 1277",
          "katecX": 386986.5856,
          "katecY": 562949.2311,
          "latitude": 37.6687645,
          "longitude": 127.8502503,
          "coordinateSource": "katec-converted"
        },
        {
          "id": "A0010808",
          "name": "스카이주유소",
          "brand": "HDO",
          "brandCode": "HDO",
          "price": 1973,
          "address": "강원 홍천군 홍천읍 상오안리 172",
          "roadAddress": "강원 홍천군 홍천읍 설악로 951",
          "katecX": 384301,
          "katecY": 561284,
          "latitude": 37.6537172,
          "longitude": 127.8198442,
          "coordinateSource": "katec-converted"
        },
        {
          "id": "A0010288",
          "name": "퇴계주유소",
          "brand": "GS칼텍스",
          "brandCode": "GSC",
          "price": 1973,
          "address": "강원 춘천시 퇴계동 1162-1",
          "roadAddress": "강원 춘천시 퇴계로 25",
          "katecX": 375975,
          "katecY": 584841,
          "latitude": 37.8657918,
          "longitude": 127.7246993,
          "coordinateSource": "katec-converted"
        },
        {
          "id": "A0008247",
          "name": "인제햇살주유소",
          "brand": "HDO",
          "brandCode": "HDO",
          "price": 1974,
          "address": "강원 인제군 남면 어론리 623",
          "roadAddress": "강원 인제군 남면 설악로 160",
          "katecX": 405525.73141,
          "katecY": 591848.72103,
          "latitude": 37.9292392,
          "longitude": 128.0606131,
          "coordinateSource": "katec-converted"
        },
        {
          "id": "A0010717",
          "name": "하이트주유소",
          "brand": "S-OIL",
          "brandCode": "SOL",
          "price": 1974,
          "address": "강원 홍천군 북방면 하화계리 102",
          "roadAddress": "강원 홍천군 북방면 송학정로 38",
          "katecX": 387701.8582,
          "katecY": 564455.4471,
          "latitude": 37.6823463,
          "longitude": 127.8583324,
          "coordinateSource": "katec-converted"
        },
        {
          "id": "A0010745",
          "name": "중앙주유소self",
          "brand": "SK에너지",
          "brandCode": "SKE",
          "price": 1975,
          "address": "강원 홍천군 홍천읍 하오안리 141-3",
          "roadAddress": "강원 홍천군 홍천읍 설악로 1356",
          "katecX": 387509.4723,
          "katecY": 563595.7358,
          "latitude": 37.6745972,
          "longitude": 127.8561662,
          "coordinateSource": "katec-converted"
        },
        {
          "id": "A0033649",
          "name": "춘천농협주유소 엔타점",
          "brand": "농협알뜰",
          "brandCode": "NHO",
          "price": 1975,
          "address": "강원 춘천시 석사동 980",
          "roadAddress": "강원 춘천시 후석로 120",
          "katecX": 378016.80833,
          "katecY": 584557.98708,
          "latitude": 37.8632938,
          "longitude": 127.7479142,
          "coordinateSource": "katec-converted"
        }
      ]
    },
    {
      "regionCode": "03",
      "regionName": "강원",
      "fuelCode": "D047",
      "fuelName": "경유",
      "stations": [
        {
          "id": "A0011446",
          "name": "㈜범일로 북강릉주유소",
          "brand": "SK에너지",
          "brandCode": "SKE",
          "price": 1940,
          "address": "강원 강릉시 연곡면 동덕리 259",
          "roadAddress": "강원 강릉시 연곡면 동해대로 4094",
          "katecX": 474361.5,
          "katecY": 583073.8,
          "latitude": 37.8471756,
          "longitude": 128.8427019,
          "coordinateSource": "katec-converted"
        },
        {
          "id": "A0011566",
          "name": "주식회사 백두가스산업",
          "brand": "HDO",
          "brandCode": "HDO",
          "price": 1945,
          "address": "강원 강릉시 연곡면 방내리 187-18",
          "roadAddress": "강원 강릉시 연곡면 동해대로 4357",
          "katecX": 473605.5143,
          "katecY": 585616.8422,
          "latitude": 37.8701478,
          "longitude": 128.834371,
          "coordinateSource": "katec-converted"
        },
        {
          "id": "A0011415",
          "name": "대동강주유소",
          "brand": "SK에너지",
          "brandCode": "SKE",
          "price": 1948,
          "address": "강원 강릉시 내곡동 165",
          "roadAddress": "강원 강릉시 남부로 67 (내곡동)",
          "katecX": 478431.8009,
          "katecY": 571292.2845,
          "latitude": 37.7406924,
          "longitude": 128.8876754,
          "coordinateSource": "katec-converted"
        },
        {
          "id": "A0010489",
          "name": "동춘천농협주유소",
          "brand": "농협알뜰",
          "brandCode": "NHO",
          "price": 1949,
          "address": "강원 춘천시 동내면 학곡리 590",
          "roadAddress": "강원 춘천시 동내면 학곡동2길 11",
          "katecX": 379111,
          "katecY": 581732,
          "latitude": 37.837857,
          "longitude": 127.7604322,
          "coordinateSource": "katec-converted"
        },
        {
          "id": "A0011500",
          "name": "주문진동해주유소",
          "brand": "SK에너지",
          "brandCode": "SKE",
          "price": 1949,
          "address": "강원 강릉시 주문진읍 교항리 238-1",
          "roadAddress": "강원 강릉시 주문진읍 동해대로 4623",
          "katecX": 472289.9329,
          "katecY": 587646.0006,
          "latitude": 37.8885342,
          "longitude": 128.8196218,
          "coordinateSource": "katec-converted"
        },
        {
          "id": "A0011570",
          "name": "SK에너지㈜ 주문진주유소",
          "brand": "SK에너지",
          "brandCode": "SKE",
          "price": 1949,
          "address": "강원 강릉시 주문진읍 교항리 368-8",
          "roadAddress": "강원 강릉시 주문진읍 신리천로 95",
          "katecX": 472408.8157,
          "katecY": 586910.2467,
          "latitude": 37.8818961,
          "longitude": 128.8208997,
          "coordinateSource": "katec-converted"
        },
        {
          "id": "A0011572",
          "name": "SK에너지㈜ 월드컵주유소",
          "brand": "SK에너지",
          "brandCode": "SKE",
          "price": 1949,
          "address": "강원 강릉시 포남동 1141-3",
          "roadAddress": "강원 강릉시 경강로 2224",
          "katecX": 480089.82358,
          "katecY": 573752.9145,
          "latitude": 37.7627178,
          "longitude": 128.9067563,
          "coordinateSource": "katec-converted"
        },
        {
          "id": "A0011760",
          "name": "SK에너지(주) 커피향셀프주유소",
          "brand": "SK에너지",
          "brandCode": "SKE",
          "price": 1950,
          "address": "강원 양양군 강현면 정암리 156-3",
          "roadAddress": "강원 양양군 강현면 동해대로 3343",
          "katecX": 454267.2172,
          "katecY": 615060.9145,
          "latitude": 38.1367777,
          "longitude": 128.6168003,
          "coordinateSource": "katec-converted"
        },
        {
          "id": "A0011408",
          "name": "(주)명진에너지 북강릉지점",
          "brand": "SK에너지",
          "brandCode": "SKE",
          "price": 1950,
          "address": "강원 강릉시 연곡면 동덕리 산55-2",
          "roadAddress": "강원 강릉시 연곡면 동해대로 4091",
          "katecX": 474300.1433,
          "katecY": 583122.9017,
          "latitude": 37.8476229,
          "longitude": 128.8420098,
          "coordinateSource": "katec-converted"
        },
        {
          "id": "A0011396",
          "name": "회산주유소",
          "brand": "S-OIL",
          "brandCode": "SOL",
          "price": 1951,
          "address": "강원 강릉시 회산동 234-1",
          "roadAddress": "강원 강릉시 관솔길 27 (회산동)",
          "katecX": 476869.0913,
          "katecY": 571111.1021,
          "latitude": 37.7391922,
          "longitude": 128.8699272,
          "coordinateSource": "katec-converted"
        },
        {
          "id": "A0011488",
          "name": "솔향주유소",
          "brand": "RTO",
          "brandCode": "RTO",
          "price": 1953,
          "address": "강원 강릉시 홍제동 757-1",
          "roadAddress": "강원 강릉시 공제로437번길 1 (홍제동)",
          "katecX": 476659,
          "katecY": 571877,
          "latitude": 37.7461101,
          "longitude": 128.8676243,
          "coordinateSource": "katec-converted"
        },
        {
          "id": "A0011577",
          "name": "KH에너지㈜직영 교동주유소",
          "brand": "SK에너지",
          "brandCode": "SKE",
          "price": 1953,
          "address": "강원 강릉시 교동 1893",
          "roadAddress": "강원 강릉시 하슬라로 159 (교동)",
          "katecX": 477267.9199,
          "katecY": 574009.603,
          "latitude": 37.7652725,
          "longitude": 128.8747592,
          "coordinateSource": "katec-converted"
        },
        {
          "id": "A0011571",
          "name": "SK에너지(주)강릉주유소",
          "brand": "SK에너지",
          "brandCode": "SKE",
          "price": 1955,
          "address": "강원 강릉시 포남동 1288",
          "roadAddress": "강원 강릉시 강릉대로 432 (포남동)",
          "katecX": 480495.9181,
          "katecY": 574774.2207,
          "latitude": 37.7718835,
          "longitude": 128.9114777,
          "coordinateSource": "katec-converted"
        },
        {
          "id": "A0010326",
          "name": "새춘천주유소",
          "brand": "RTO",
          "brandCode": "RTO",
          "price": 1959,
          "address": "강원 춘천시 동내면 거두리 667-1",
          "roadAddress": "강원 춘천시 동내면 세실로 38",
          "katecX": 379030.8987,
          "katecY": 584271.8049,
          "latitude": 37.8607393,
          "longitude": 127.7594478,
          "coordinateSource": "katec-converted"
        },
        {
          "id": "A0011657",
          "name": "SK에너지(주) 척산주유소",
          "brand": "SK에너지",
          "brandCode": "SKE",
          "price": 1959,
          "address": "강원 속초시 노학동 298-2",
          "roadAddress": "강원 속초시 온천로 161 (노학동)",
          "katecX": 449192.83,
          "katecY": 621089.4805,
          "latitude": 38.1913811,
          "longitude": 128.559332,
          "coordinateSource": "katec-converted"
        },
        {
          "id": "A0010507",
          "name": "㈜대경유업 퇴계로주유소",
          "brand": "HDO",
          "brandCode": "HDO",
          "price": 1959,
          "address": "강원 춘천시 석사동 818-6",
          "roadAddress": "강원 춘천시 퇴계로 231",
          "katecX": 377692.6239,
          "katecY": 583748.2141,
          "latitude": 37.8559896,
          "longitude": 127.744255,
          "coordinateSource": "katec-converted"
        },
        {
          "id": "A0009978",
          "name": "거두주유소",
          "brand": "GS칼텍스",
          "brandCode": "GSC",
          "price": 1959,
          "address": "강원 춘천시 동내면 거두리 910",
          "roadAddress": "강원도 춘천시 동내면 춘천순환로 59",
          "katecX": 378218.14178,
          "katecY": 583718.13754,
          "latitude": 37.8557315,
          "longitude": 127.7502279,
          "coordinateSource": "katec-converted"
        },
        {
          "id": "A0010431",
          "name": "㈜붕붕붕주유소",
          "brand": "GS칼텍스",
          "brandCode": "GSC",
          "price": 1959,
          "address": "강원 춘천시 석사동 430-1",
          "roadAddress": "강원 춘천시 공지로 156-3",
          "katecX": 377764.15575,
          "katecY": 584168.95196,
          "latitude": 37.8597823,
          "longitude": 127.7450548,
          "coordinateSource": "katec-converted"
        },
        {
          "id": "A0010365",
          "name": "SK행복한Self주유소",
          "brand": "SK에너지",
          "brandCode": "SKE",
          "price": 1959,
          "address": "강원 춘천시 후평동 717-18",
          "roadAddress": "강원 춘천시 후석로 453 (후평동)",
          "katecX": 377478,
          "katecY": 587444,
          "latitude": 37.889284,
          "longitude": 127.7416998,
          "coordinateSource": "katec-converted"
        },
        {
          "id": "A0010481",
          "name": "㈜갤럭시(Galaxy)E＆S",
          "brand": "GS칼텍스",
          "brandCode": "GSC",
          "price": 1959,
          "address": "강원 춘천시 동내면 거두리 682-8",
          "roadAddress": "강원 춘천시 동내면 세실로 20",
          "katecX": 379108.27023,
          "katecY": 584110.51545,
          "latitude": 37.8592879,
          "longitude": 127.7603318,
          "coordinateSource": "katec-converted"
        }
      ]
    },
    {
      "regionCode": "03",
      "regionName": "강원",
      "fuelCode": "K015",
      "fuelName": "LPG",
      "stations": [
        {
          "id": "A0033299",
          "name": "주식회사 세종에너지",
          "brand": "SK에너지",
          "brandCode": "SKE",
          "price": 1028,
          "address": "강원 원주시 지정면 보통리 251-1",
          "roadAddress": "강원 원주시 지정면 보통로 380",
          "katecX": 389105.38812,
          "katecY": 526457.26779,
          "latitude": 37.3399704,
          "longitude": 127.8748181,
          "coordinateSource": "katec-converted"
        },
        {
          "id": "A0011079",
          "name": "남원주LPG충전소",
          "brand": "E1",
          "brandCode": "E1G",
          "price": 1040,
          "address": "강원 원주시 무실동 1114-1",
          "roadAddress": "강원 원주시 행가리1길 2",
          "katecX": 393028,
          "katecY": 524614,
          "latitude": 37.3233991,
          "longitude": 127.919106,
          "coordinateSource": "katec-converted"
        },
        {
          "id": "A0011142",
          "name": "대성산업㈜ 원주충전소",
          "brand": "GS칼텍스",
          "brandCode": "GSC",
          "price": 1040,
          "address": "강원 원주시 단계동 199",
          "roadAddress": "강원 원주시 북원로 2302",
          "katecX": 394372.36484,
          "katecY": 527662.84074,
          "latitude": 37.3508819,
          "longitude": 127.9342511,
          "coordinateSource": "katec-converted"
        },
        {
          "id": "A0011118",
          "name": "원주정우LPG충전소",
          "brand": "E1",
          "brandCode": "E1G",
          "price": 1040,
          "address": "강원 원주시 태장동 2617-23",
          "roadAddress": "강원 원주시 북원로 2826",
          "katecX": 395897.2,
          "katecY": 532560.4,
          "latitude": 37.3950222,
          "longitude": 127.9514343,
          "coordinateSource": "katec-converted"
        },
        {
          "id": "A0033450",
          "name": "원주농협충전소",
          "brand": "농협알뜰",
          "brandCode": "NHO",
          "price": 1040,
          "address": "강원 원주시 가현동 369-8",
          "roadAddress": "강원 원주시 호저로 230",
          "katecX": 394621.19475,
          "katecY": 532645.4184,
          "latitude": 37.3957815,
          "longitude": 127.9370223,
          "coordinateSource": "katec-converted"
        },