{
  "mode": "opinet",
  "source": "한국석유공사 오피넷 Open API",
  "generatedAt": "2026-06-27T08:34:19.688Z",
  "notice": "한국석유공사 오피넷 Open API 기준 데이터입니다. 실제 판매 가격과 차이가 있을 수 있습니다.",
  "datasets": [
    {
      "regionCode": "ALL",
      "regionName": "전국",
      "fuelCode": "B027",
      "fuelName": "휘발유",
      "stations": [
        {
          "id": "A0033131",
          "name": "㈜한화미 구파발주유소",
          "brand": "S-OIL",
          "brandCode": "SOL",
          "price": 1708,
          "address": "서울 은평구 진관동 50",
          "roadAddress": "서울 은평구 통일로 1031",
          "katecX": 304579.54621,
          "katecY": 559693.85239,
          "latitude": 37.6345528,
          "longitude": 126.9166393,
          "coordinateSource": "katec-converted"
        },
        {
          "id": "A0010364",
          "name": "IOZEN(이오젠)",
          "brand": "SK에너지",
          "brandCode": "SKE",
          "price": 1819,
          "address": "강원 춘천시 동내면 고은리 537-1",
          "roadAddress": "강원 춘천시 동내면 순환대로 758",
          "katecX": 380086.1,
          "katecY": 582846.8,
          "latitude": 37.8479236,
          "longitude": 127.7714795,
          "coordinateSource": "katec-converted"
        },
        {
          "id": "A0027207",
          "name": "SK에너지(주)국영",
          "brand": "SK에너지",
          "brandCode": "SKE",
          "price": 1819,
          "address": "부산 사하구 장림동 328-28",
          "roadAddress": "부산 사하구 장림번영로 7 (장림동)",
          "katecX": 488365.4481,
          "katecY": 276343.3678,
          "latitude": 35.0819562,
          "longitude": 128.9668571,
          "coordinateSource": "katec-converted"
        },
        {
          "id": "A0020372",
          "name": "(주)대원 강변주유소",
          "brand": "S-OIL",
          "brandCode": "SOL",
          "price": 1825,
          "address": "광주 서구 치평동 887-6",
          "roadAddress": "광주 서구 천변좌하로 142 (치평동)",
          "katecX": 294061,
          "katecY": 284316,
          "latitude": 35.1520795,
          "longitude": 126.8351144,
          "coordinateSource": "katec-converted"
        },
        {
          "id": "A0020586",
          "name": "반디석유시청점",
          "brand": "HDO",
          "brandCode": "HDO",
          "price": 1825,
          "address": "광주 서구 치평동 887-1",
          "roadAddress": "광주 서구 천변좌하로 160 (치평동)",
          "katecX": 294158,
          "katecY": 284470,
          "latitude": 35.1534776,
          "longitude": 126.836159,
          "coordinateSource": "katec-converted"
        },
        {
          "id": "A0008916",
          "name": "SK에너지㈜직영 기쁨셀프주유소",
          "brand": "SK에너지",
          "brandCode": "SKE",
          "price": 1825,
          "address": "경기 용인시 기흥구 보정동 547-4",
          "roadAddress": "경기 용인시 기흥구 용구대로2469번길 130 (보정동)",
          "katecX": 320939.99553,
          "katecY": 524415.15079,
          "latitude": 37.3182562,
          "longitude": 127.1057776,
          "coordinateSource": "katec-converted"
        },
        {
          "id": "A0008224",
          "name": "지지대셀프주유소",
          "brand": "SK에너지",
          "brandCode": "SKE",
          "price": 1827,
          "address": "경기 의왕시 왕곡동 468-8",
          "roadAddress": "경기 의왕시 경수대로 112 (왕곡동)",
          "katecX": 309836.00293,
          "katecY": 526679.99537,
          "latitude": 37.3376488,
          "longitude": 126.9802378,
          "coordinateSource": "katec-converted"
        },
        {
          "id": "A0004471",
          "name": "형제주유소",
          "brand": "HDO",
          "brandCode": "HDO",
          "price": 1828,
          "address": "강원 철원군 동송읍 이평리 240-1",
          "roadAddress": "강원 철원군 동송읍 금학로 14",
          "katecX": 332596.6808,
          "katecY": 621309.6827,
          "latitude": 38.1921611,
          "longitude": 127.2282677,
          "coordinateSource": "katec-converted"
        },
        {
          "id": "A0033442",
          "name": "동탄그린주유소",
          "brand": "GS칼텍스",
          "brandCode": "GSC",
          "price": 1829,
          "address": "경기 화성시 동탄구 방교동 797-1",
          "roadAddress": "경기 화성시 동탄구 동탄산단5길 10-44",
          "katecX": 318886.52585,
          "katecY": 508221.9038,
          "latitude": 37.1721766,
          "longitude": 127.0843788,
          "coordinateSource": "katec-converted"
        },
        {
          "id": "A0020645",
          "name": "(주)대창석유직영 지산주유소",
          "brand": "SK에너지",
          "brandCode": "SKE",
          "price": 1835,
          "address": "광주 동구 지산동 719-47",
          "roadAddress": "광주 동구 필문대로 219 (지산동)",
          "katecX": 302784,
          "katecY": 284104,
          "latitude": 35.1510513,
          "longitude": 126.9308621,
          "coordinateSource": "katec-converted"
        },
        {
          "id": "A0019752",
          "name": "(유)착한주유소",
          "brand": "RTO",
          "brandCode": "RTO",
          "price": 1835,
          "address": "광주 북구 장등동 876",
          "roadAddress": "광주 북구 동문대로 452 (장등동)",
          "katecX": 303247.6361,
          "katecY": 289679.8658,
          "latitude": 35.2013503,
          "longitude": 126.9352948,
          "coordinateSource": "katec-converted"
        },
        {
          "id": "A0020701",
          "name": "(유)모우리주유소",
          "brand": "RTO",
          "brandCode": "RTO",
          "price": 1835,
          "address": "광주 광산구 소촌동 378-2",
          "roadAddress": "광주 광산구 소촌로 68 (소촌동)",
          "katecX": 290284.00252,
          "katecY": 284180.99562,
          "latitude": 35.1504572,
          "longitude": 126.7936864,
          "coordinateSource": "katec-converted"
        },
        {
          "id": "A0020381",
          "name": "우리주유소",
          "brand": "RTO",
          "brandCode": "RTO",
          "price": 1835,
          "address": "광주 광산구 운남동 520-1",
          "roadAddress": "광주 광산구 목련로 225 (운남동)",
          "katecX": 292906,
          "katecY": 286593,
          "latitude": 35.1724784,
          "longitude": 126.8221443,
          "coordinateSource": "katec-converted"
        },
        {
          "id": "A0019686",
          "name": "(주)반디석유 산수점",
          "brand": "HDO",
          "brandCode": "HDO",
          "price": 1835,
          "address": "광주 동구 산수동 540-9",
          "roadAddress": "광주 동구 필문대로 164",
          "katecX": 302820,
          "katecY": 284640,
          "latitude": 35.1558856,
          "longitude": 126.9311939,
          "coordinateSource": "katec-converted"
        },
        {
          "id": "A0019991",
          "name": "반디석유 운남점 이든랜드㈜",
          "brand": "HDO",
          "brandCode": "HDO",
          "price": 1835,
          "address": "광주 광산구 신가동 594-15",
          "roadAddress": "광주 광산구 하남대로 364",
          "katecX": 293929.88622,
          "katecY": 287190.79807,
          "latitude": 35.1779748,
          "longitude": 126.8333056,
          "coordinateSource": "katec-converted"
        },
        {
          "id": "A0019694",
          "name": "㈜아승주유소",
          "brand": "SK에너지",
          "brandCode": "SKE",
          "price": 1835,
          "address": "광주 동구 산수동 538-13",
          "roadAddress": "광주 동구 필문대로153번길 3",
          "katecX": 302877.77967,
          "katecY": 284777.92627,
          "latitude": 35.1571343,
          "longitude": 126.9318118,
          "coordinateSource": "katec-converted"
        },
        {
          "id": "A0020081",
          "name": "(주)반디석유",
          "brand": "HDO",
          "brandCode": "HDO",
          "price": 1835,
          "address": "광주 북구 운암동1462",
          "roadAddress": "광주 북구 하남대로 819 (운암동)",
          "katecX": 298379,
          "katecY": 286393,
          "latitude": 35.1712451,
          "longitude": 126.8822418,
          "coordinateSource": "katec-converted"
        },
        {
          "id": "A0015784",
          "name": "햇님주유소",
          "brand": "SK에너지",
          "brandCode": "SKE",
          "price": 1836,
          "address": "충남 천안시 동남구 삼룡동 155-16",
          "roadAddress": "충남 천안시 동남구 충절로 461",
          "katecX": 326381.4,
          "katecY": 464780.2,
          "latitude": 36.7813588,
          "longitude": 127.173015,
          "coordinateSource": "katec-converted"
        },
        {
          "id": "A0005277",
          "name": "대신석유(주)대자주유소",
          "brand": "SK에너지",
          "brandCode": "SKE",
          "price": 1837,
          "address": "경기 고양시 덕양구 대자동 271-8",
          "roadAddress": "경기 고양시 덕양구  통일로 499",
          "katecX": 302043.8781,
          "katecY": 564561.1446,
          "latitude": 37.6781344,
          "longitude": 126.8872605,
          "coordinateSource": "katec-converted"
        },
        {
          "id": "A0020665",
          "name": "(주)대창석유직영 동명주유소",
          "brand": "SK에너지",
          "brandCode": "SKE",
          "price": 1839,
          "address": "광주 동구 동명동 15-5",
          "roadAddress": "광주 동구 필문대로 237 (동명동)",
          "katecX": 302709.3,
          "katecY": 283960.8,
          "latitude": 35.1497534,
          "longitude": 126.9300592,
          "coordinateSource": "katec-converted"
        }
      ]
    },
    {
      "regionCode": "ALL",
      "regionName": "전국",
      "fuelCode": "D047",
      "fuelName": "경유",
      "stations": [
        {
          "id": "A0015784",
          "name": "햇님주유소",
          "brand": "SK에너지",
          "brandCode": "SKE",
          "price": 1796,
          "address": "충남 천안시 동남구 삼룡동 155-16",
          "roadAddress": "충남 천안시 동남구 충절로 461",
          "katecX": 326381.4,
          "katecY": 464780.2,
          "latitude": 36.7813588,
          "longitude": 127.173015,
          "coordinateSource": "katec-converted"
        },
        {
          "id": "A0001978",
          "name": "대신석유(주)남서울주유소",
          "brand": "SK에너지",
          "brandCode": "SKE",
          "price": 1797,
          "address": "경기 안양시 만안구 석수동 365-2",
          "roadAddress": "경기 안양시 만안구  경수대로 1425 (석수동)",
          "katecX": 303097.5454,
          "katecY": 537428.1983,
          "latitude": 37.4338034,
          "longitude": 126.9027937,
          "coordinateSource": "katec-converted"
        },
        {
          "id": "A0005277",
          "name": "대신석유(주)대자주유소",
          "brand": "SK에너지",
          "brandCode": "SKE",
          "price": 1797,
          "address": "경기 고양시 덕양구 대자동 271-8",
          "roadAddress": "경기 고양시 덕양구  통일로 499",
          "katecX": 302043.8781,
          "katecY": 564561.1446,
          "latitude": 37.6781344,
          "longitude": 126.8872605,
          "coordinateSource": "katec-converted"
        },
        {
          "id": "A0008224",
          "name": "지지대셀프주유소",
          "brand": "SK에너지",
          "brandCode": "SKE",
          "price": 1807,
          "address": "경기 의왕시 왕곡동 468-8",
          "roadAddress": "경기 의왕시 경수대로 112 (왕곡동)",
          "katecX": 309836.00293,
          "katecY": 526679.99537,
          "latitude": 37.3376488,
          "longitude": 126.9802378,
          "coordinateSource": "katec-converted"
        },
        {
          "id": "A0033442",
          "name": "동탄그린주유소",
          "brand": "GS칼텍스",
          "brandCode": "GSC",
          "price": 1819,
          "address": "경기 화성시 동탄구 방교동 797-1",
          "roadAddress": "경기 화성시 동탄구 동탄산단5길 10-44",
          "katecX": 318886.52585,
          "katecY": 508221.9038,
          "latitude": 37.1721766,
          "longitude": 127.0843788,
          "coordinateSource": "katec-converted"
        },
        {
          "id": "A0020372",
          "name": "(주)대원 강변주유소",
          "brand": "S-OIL",
          "brandCode": "SOL",
          "price": 1820,
          "address": "광주 서구 치평동 887-6",
          "roadAddress": "광주 서구 천변좌하로 142 (치평동)",
          "katecX": 294061,
          "katecY": 284316,
          "latitude": 35.1520795,
          "longitude": 126.8351144,
          "coordinateSource": "katec-converted"
        },
        {
          "id": "A0020586",
          "name": "반디석유시청점",
          "brand": "HDO",
          "brandCode": "HDO",
          "price": 1820,
          "address": "광주 서구 치평동 887-1",
          "roadAddress": "광주 서구 천변좌하로 160 (치평동)",
          "katecX": 294158,
          "katecY": 284470,
          "latitude": 35.1534776,
          "longitude": 126.836159,
          "coordinateSource": "katec-converted"
        },
        {
          "id": "A0008902",
          "name": "대신석유(주)신안주유소",
          "brand": "SK에너지",
          "brandCode": "SKE",
          "price": 1827,
          "address": "경기 용인시 기흥구 영덕동 24-2",
          "roadAddress": "경기 용인시 기흥구 중부대로 234 (영덕동)",
          "katecX": 319748.57041,
          "katecY": 519136.605,
          "latitude": 37.2705941,
          "longitude": 127.0929081,
          "coordinateSource": "katec-converted"
        },
        {
          "id": "A0006829",
          "name": "삼성주유소",
          "brand": "SK에너지",
          "brandCode": "SKE",
          "price": 1827,
          "address": "경기 광명시 하안동 338-1 (338-2)",
          "roadAddress": "경기 광명시 범안로 925, (338-2) (하안동)",
          "katecX": 300033,
          "katecY": 539920,
          "latitude": 37.455926,
          "longitude": 126.8678328,
          "coordinateSource": "katec-converted"
        },
        {
          "id": "A0030108",
          "name": "지리산주유소",
          "brand": "HDO",
          "brandCode": "HDO",
          "price": 1829,
          "address": "경남 산청군 단성면 백운리 208-3",
          "roadAddress": "경남 산청군 단성면 지리산대로 2336",
          "katecX": 390081.8148,
          "katecY": 296920.3357,
          "latitude": 35.2712475,
          "longitude": 127.888814,
          "coordinateSource": "katec-converted"
        },
        {
          "id": "A0020645",
          "name": "(주)대창석유직영 지산주유소",
          "brand": "SK에너지",
          "brandCode": "SKE",
          "price": 1830,
          "address": "광주 동구 지산동 719-47",
          "roadAddress": "광주 동구 필문대로 219 (지산동)",
          "katecX": 302784,
          "katecY": 284104,
          "latitude": 35.1510513,
          "longitude": 126.9308621,
          "coordinateSource": "katec-converted"
        },
        {
          "id": "A0019694",
          "name": "㈜아승주유소",
          "brand": "SK에너지",
          "brandCode": "SKE",
          "price": 1830,
          "address": "광주 동구 산수동 538-13",
          "roadAddress": "광주 동구 필문대로153번길 3",
          "katecX": 302877.77967,
          "katecY": 284777.92627,
          "latitude": 35.1571343,
          "longitude": 126.9318118,
          "coordinateSource": "katec-converted"
        },
        {
          "id": "A0020701",
          "name": "(유)모우리주유소",
          "brand": "RTO",
          "brandCode": "RTO",
          "price": 1830,
          "address": "광주 광산구 소촌동 378-2",
          "roadAddress": "광주 광산구 소촌로 68 (소촌동)",
          "katecX": 290284.00252,
          "katecY": 284180.99562,
          "latitude": 35.1504572,
          "longitude": 126.7936864,
          "coordinateSource": "katec-converted"
        },
        {
          "id": "A0019752",
          "name": "(유)착한주유소",
          "brand": "RTO",
          "brandCode": "RTO",
          "price": 1830,
          "address": "광주 북구 장등동 876",
          "roadAddress": "광주 북구 동문대로 452 (장등동)",
          "katecX": 303247.6361,
          "katecY": 289679.8658,
          "latitude": 35.2013503,
          "longitude": 126.9352948,
          "coordinateSource": "katec-converted"
        },
        {
          "id": "A0020381",
          "name": "우리주유소",
          "brand": "RTO",
          "brandCode": "RTO",
          "price": 1830,
          "address": "광주 광산구 운남동 520-1",
          "roadAddress": "광주 광산구 목련로 225 (운남동)",
          "katecX": 292906,
          "katecY": 286593,
          "latitude": 35.1724784,
          "longitude": 126.8221443,
          "coordinateSource": "katec-converted"
        },
        {
          "id": "A0020665",
          "name": "(주)대창석유직영 동명주유소",
          "brand": "SK에너지",
          "brandCode": "SKE",
          "price": 1830,
          "address": "광주 동구 동명동 15-5",
          "roadAddress": "광주 동구 필문대로 237 (동명동)",
          "katecX": 302709.3,
          "katecY": 283960.8,
          "latitude": 35.1497534,
          "longitude": 126.9300592,
          "coordinateSource": "katec-converted"
        },
        {
          "id": "A0019991",
          "name": "반디석유 운남점 이든랜드㈜",
          "brand": "HDO",
          "brandCode": "HDO",
          "price": 1830,
          "address": "광주 광산구 신가동 594-15",
          "roadAddress": "광주 광산구 하남대로 364",
          "katecX": 293929.88622,
          "katecY": 287190.79807,
          "latitude": 35.1779748,
          "longitude": 126.8333056,
          "coordinateSource": "katec-converted"
        },
        {
          "id": "A0019686",
          "name": "(주)반디석유 산수점",
          "brand": "HDO",
          "brandCode": "HDO",
          "price": 1830,
          "address": "광주 동구 산수동 540-9",
          "roadAddress": "광주 동구 필문대로 164",
          "katecX": 302820,
          "katecY": 284640,
          "latitude": 35.1558856,
          "longitude": 126.9311939,
          "coordinateSource": "katec-converted"
        },
        {
          "id": "A0020081",
          "name": "(주)반디석유",
          "brand": "HDO",
          "brandCode": "HDO",
          "price": 1830,
          "address": "광주 북구 운암동1462",
          "roadAddress": "광주 북구 하남대로 819 (운암동)",
          "katecX": 298379,
          "katecY": 286393,
          "latitude": 35.1712451,
          "longitude": 126.8822418,
          "coordinateSource": "katec-converted"
        },
        {
          "id": "A0001520",
          "name": "동성주유소 ㈜태평석유 직영",
          "brand": "S-OIL",
          "brandCode": "SOL",
          "price": 1834,
          "address": "인천 중구 신흥동3가 34",
          "roadAddress": "인천 중구 축항대로 299",
          "katecX": 278862,
          "katecY": 539337,
          "latitude": 37.4481398,
          "longitude": 126.628688,
          "coordinateSource": "katec-converted"
        }
      ]
    },
    {
      "regionCode": "ALL",
      "regionName": "전국",
      "fuelCode": "K015",
      "fuelName": "LPG",
      "stations": [
        {
          "id": "A0012372",
          "name": "청주LPG충전소",
          "brand": "E1",
          "brandCode": "E1G",
          "price": 969,
          "address": "충북 청주시 흥덕구 지동동 431-2",
          "roadAddress": "충북 청주시 흥덕구 직지대로 231",
          "katecX": 348237.25868,
          "katecY": 449736.7916,
          "latitude": 36.6472441,
          "longitude": 127.4188818,
          "coordinateSource": "katec-converted"
        },
        {
          "id": "A0033408",
          "name": "(주)삼융만남의충전소",
          "brand": "GS칼텍스",
          "brandCode": "GSC",
          "price": 983,
          "address": "충남 천안시 서북구 직산읍 군서리 293-21",
          "roadAddress": "충남 천안시 서북구 직산읍 군삼길 105",
          "katecX": 325026.56778,
          "katecY": 477256.21834,
          "latitude": 36.8936721,
          "longitude": 127.1566044,
          "coordinateSource": "katec-converted"
        },
        {
          "id": "A0015698",
          "name": "번영충전소",
          "brand": "HDO",
          "brandCode": "HDO",
          "price": 984,
          "address": "충남 천안시 서북구 성성동 343-11",
          "roadAddress": "충남 천안시 서북구 2공단1로 10 (성성동)",
          "katecX": 321864,
          "katecY": 471978,
          "latitude": 36.8458544,
          "longitude": 127.1216695,
          "coordinateSource": "katec-converted"
        },
        {
          "id": "A0033504",
          "name": "행복에너지충전소",
          "brand": "SK가스",
          "brandCode": "SKG",
          "price": 989,
          "address": "충북 청주시 흥덕구 외북동 312",
          "roadAddress": "충북 청주시 흥덕구 엘지로 5",
          "katecX": 349697.44137,
          "katecY": 450983.43363,
          "latitude": 36.658557,
          "longitude": 127.4351296,
          "coordinateSource": "katec-converted"
        },
        {
          "id": "A0007594",
          "name": "SK행복충전 조암충전소",
          "brand": "SK가스",
          "brandCode": "SKG",
          "price": 990,
          "address": "경기 화성시 만세구 우정읍 호곡리 89-1",
          "roadAddress": "경기 화성시 만세구 우정읍 호곡길 84",
          "katecX": 292305,
          "katecY": 502668,
          "latitude": 37.119449,
          "longitude": 126.7859044,
          "coordinateSource": "katec-converted"
        },
        {
          "id": "A0013658",
          "name": "행복에너지 충전소",
          "brand": "SK에너지",
          "brandCode": "SKE",
          "price": 992,
          "address": "대전 대덕구 연축동 294-2",
          "roadAddress": "대전 대덕구 신탄진로 71",
          "katecX": 348391,
          "katecY": 420900,
          "latitude": 36.3873788,
          "longitude": 127.4225352,
          "coordinateSource": "katec-converted"
        },
        {
          "id": "A0016481",
          "name": "시온가스충전소",
          "brand": "자가상표",
          "brandCode": "ETC",
          "price": 992,
          "address": "대전 대덕구 신탄진동 294-5",
          "roadAddress": "대전 대덕구 신탄진로 737 (신탄진동)",
          "katecX": 349001.18753,
          "katecY": 427082.851,
          "latitude": 36.4431316,
          "longitude": 127.4289287,
          "coordinateSource": "katec-converted"
        },
        {
          "id": "A0016516",
          "name": "신탄진충전소",
          "brand": "SK에너지",
          "brandCode": "SKE",
          "price": 992,
          "address": "대전 대덕구 상서동 349-12",
          "roadAddress": "대전 대덕구 신탄진로 520",
          "katecX": 348227.67743,
          "katecY": 425101.14895,
          "latitude": 36.425231,
          "longitude": 127.4204337,
          "coordinateSource": "katec-converted"
        },
        {
          "id": "A0016728",
          "name": "대덕밸리LPG충전소",
          "brand": "HDO",
          "brandCode": "HDO",
          "price": 992,
          "address": "대전 대덕구 평촌동 226-5",
          "roadAddress": "대전 대덕구 신탄진로 650",
          "katecX": 348726,
          "katecY": 426309,
          "latitude": 36.436143,
          "longitude": 127.4259106,
          "coordinateSource": "katec-converted"
        },
        {
          "id": "A0003403",
          "name": "성원이앤에스(주)안성지점",
          "brand": "GS칼텍스",
          "brandCode": "GSC",
          "price": 994,
          "address": "경기 안성시 대덕면 모산리 359-13",
          "roadAddress": "경기 안성시 대덕면 안성대로 1284",
          "katecX": 332379.39956,
          "katecY": 492485.30988,
          "latitude": 37.0314562,
          "longitude": 127.2377274,
          "coordinateSource": "katec-converted"
        },
        {
          "id": "A0003035",
          "name": "평화lpg충전소",
          "brand": "SK에너지",
          "brandCode": "SKE",
          "price": 995,
          "address": "경기 안성시 공도읍 승두리 593-6",
          "roadAddress": "경기 안성시 공도읍 서동대로 4068",
          "katecX": 325389.85097,
          "katecY": 488787.01039,
          "latitude": 36.9976017,
          "longitude": 127.1595394,
          "coordinateSource": "katec-converted"
        },
        {
          "id": "A0003238",
          "name": "(유)유성홀딩스 공도충전소",
          "brand": "SK가스",
          "brandCode": "SKG",
          "price": 995,
          "address": "경기 안성시 공도읍 만정리 290-7",
          "roadAddress": "경기 안성시 공도읍 서동대로 4287-12",
          "katecX": 327160.00289,
          "katecY": 489628.99543,
          "latitude": 37.0053277,
          "longitude": 127.1793436,
          "coordinateSource": "katec-converted"
        },
        {
          "id": "A0010546",
          "name": "녹박재충전소",
          "brand": "자가상표",
          "brandCode": "ETC",
          "price": 996,
          "address": "경기 안성시 죽산면 장릉리 660-4",
          "roadAddress": "경기 안성시 죽산면 서동대로 6516",
          "katecX": 345135.5,
          "katecY": 496570.1,
          "latitude": 37.0690986,
          "longitude": 127.3807985,
          "coordinateSource": "katec-converted"
        },
        {
          "id": "A0033217",
          "name": "비봉충전소 ㈜대원에너지",
          "brand": "HDO",
          "brandCode": "HDO",
          "price": 996,
          "address": "경기 안성시 죽산면 장능리 580",
          "roadAddress": "경기 안성시 죽산면 서동대로 6617",
          "katecX": 346078.32881,
          "katecY": 496938.35038,
          "latitude": 37.0724718,
          "longitude": 127.3913741,
          "coordinateSource": "katec-converted"
        },
        {
          "id": "A0015652",
          "name": "태양주유소/충전소",
          "brand": "GS칼텍스",
          "brandCode": "GSC",
          "price": 997,
          "address": "충남 천안시 서북구 업성동 484-7",
          "roadAddress": "충남 천안시 서북구 번영로 613",
          "katecX": 322472.53243,
          "katecY": 472805.10875,
          "latitude": 36.8533575,
          "longitude": 127.1284075,
          "coordinateSource": "katec-converted"
        },
        {
          "id": "A0018234",
          "name": "오케이완주충전소",
          "brand": "HDO",
          "brandCode": "HDO",
          "price": 997,
          "address": "전북 완주군 상관면 용암리 305-1",
          "roadAddress": "전북 완주군 상관면 춘향로 4082",
          "katecX": 330979,
          "katecY": 346647,
          "latitude": 35.7170976,
          "longitude": 127.2349673,
          "coordinateSource": "katec-converted"
        },
        {
          "id": "A0012083",
          "name": "주식회사 삼보에너지",
          "brand": "GS칼텍스",
          "brandCode": "GSC",
          "price": 998,
          "address": "충북 청주시 서원구미평동  229-1",
          "roadAddress": "충북 청주시 서원구 산미로 41",
          "katecX": 352630.88799,
          "katecY": 444684.18745,
          "latitude": 36.6019407,
          "longitude": 127.4683307,
          "coordinateSource": "katec-converted"
        },
        {
          "id": "A0014504",
          "name": "대광LPG충전소",
          "brand": "SK에너지",
          "brandCode": "SKE",
          "price": 999,
          "address": "전북 전주시 완산구 색장동 857-5",
          "roadAddress": "전북 전주시 완산구 춘향로 4881",
          "katecX": 327786,
          "katecY": 353366,
          "latitude": 35.7774239,
          "longitude": 127.1990734,
          "coordinateSource": "katec-converted"
        },
        {
          "id": "A0018102",
          "name": "전주유성LPG충전소",
          "brand": "E1",
          "brandCode": "E1G",
          "price": 999,
          "address": "전북 전주시 완산구 색장동 576",
          "roadAddress": "전북 전주시 완산구  춘향로 4981",
          "katecX": 327310,
          "katecY": 354437,
          "latitude": 35.7870412,
          "longitude": 127.1937115,
          "coordinateSource": "katec-converted"
        },
        {
          "id": "A0033393",
          "name": "(주)조은에너지 편백",
          "brand": "SK가스",
          "brandCode": "SKG",
          "price": 999,
          "address": "전북 완주군 상관면 죽림리 267-1",
          "roadAddress": "전북 완주군 상관면 춘향로 4449",
          "katecX": 329732.6648,
          "katecY": 350026.58834,
          "latitude": 35.7474684,
          "longitude": 127.2208968,
          "coordinateSource": "katec-converted"
        }
      ]
    },
    {
      "regionCode": "01",
      "regionName": "서울",
      "fuelCode": "B027",
      "fuelName": "휘발유",
      "stations": [
        {
          "id": "A0033131",
          "name": "㈜한화미 구파발주유소",
          "brand": "S-OIL",
          "brandCode": "SOL",
          "price": 1708,
          "address": "서울 은평구 진관동 50",
          "roadAddress": "서울 은평구 통일로 1031",
          "katecX": 304579.54621,
          "katecY": 559693.85239,
          "latitude": 37.6345528,
          "longitude": 126.9166393,
          "coordinateSource": "katec-converted"
        },
        {
          "id": "A0009916",
          "name": "대신석유(주)대우주유소",
          "brand": "SK에너지",
          "brandCode": "SKE",
          "price": 1847,
          "address": "서울 서초구 양재동 216",
          "roadAddress": "서울 서초구 양재대로 173 (양재동)",
          "katecX": 315069.06196,
          "katecY": 540497.58276,
          "latitude": 37.4626356,
          "longitude": 127.0376964,
          "coordinateSource": "katec-converted"
        },
        {
          "id": "A0001146",
          "name": "SK에너지(주) 박미주유소",
          "brand": "SK에너지",
          "brandCode": "SKE",
          "price": 1849,
          "address": "서울 금천구 시흥동 980",
          "roadAddress": "서울 금천구 시흥대로 39-7 (시흥동)",
          "katecX": 303084.8522,
          "katecY": 537816.7868,
          "latitude": 37.437303,
          "longitude": 126.9025992,
          "coordinateSource": "katec-converted"
        },
        {
          "id": "A0001022",
          "name": "SK에너지㈜ 신평",
          "brand": "SK에너지",
          "brandCode": "SKE",
          "price": 1854,
          "address": "서울 양천구 신정동 209-6",
          "roadAddress": "서울 양천구 목동남로 62",
          "katecX": 299970.9505,
          "katecY": 545862.9872,
          "latitude": 37.5094602,
          "longitude": 126.8663229,
          "coordinateSource": "katec-converted"
        },
        {
          "id": "A0001024",
          "name": "SK에너지(주) 경인주유소",
          "brand": "SK에너지",
          "brandCode": "SKE",
          "price": 1859,
          "address": "서울 양천구 신정동 872-5",
          "roadAddress": "서울 양천구 국회대로 170 (신정동)",
          "katecX": 298878.7968,
          "katecY": 547944.8592,
          "latitude": 37.5280966,
          "longitude": 126.8536847,
          "coordinateSource": "katec-converted"
        },
        {
          "id": "A0000431",
          "name": "SK에너지(주) 신길동주유소",
          "brand": "SK에너지",
          "brandCode": "SKE",
          "price": 1869,
          "address": "서울 영등포구 신길동 50-8",
          "roadAddress": "서울 영등포구 영등포로 348 (신길동)",
          "katecX": 304467.4051,
          "katecY": 546469.8666,
          "latitude": 37.5154048,
          "longitude": 126.9170956,
          "coordinateSource": "katec-converted"
        },
        {
          "id": "A0001144",
          "name": "SK에너지(주)직영 신봉천주유소",
          "brand": "SK에너지",
          "brandCode": "SKE",
          "price": 1869,
          "address": "서울 관악구 낙성대동 1663-11",
          "roadAddress": "서울 관악구 남부순환로 1880 (봉천동)",
          "katecX": 308077.68423,
          "katecY": 542361.34829,
          "latitude": 37.4787571,
          "longitude": 126.9584433,
          "coordinateSource": "katec-converted"
        },
        {
          "id": "A0009349",
          "name": "SK에너지(주) 성수주유소",
          "brand": "SK에너지",
          "brandCode": "SKE",
          "price": 1873,
          "address": "서울 성동구 성수동 1가 33-96",
          "roadAddress": "서울 성동구 뚝섬로 352",
          "katecX": 316226.7812,
          "katecY": 549065.1796,
          "latitude": 37.539932,
          "longitude": 127.0498041,
          "coordinateSource": "katec-converted"
        },
        {
          "id": "A0009359",
          "name": "SK에너지(주) 군자동주유소",
          "brand": "SK에너지",
          "brandCode": "SKE",
          "price": 1873,
          "address": "서울 성동구 용답동 236-1",
          "roadAddress": "서울특별시 성동구  천호대로 446 (용답동)",
          "katecX": 317886.5771,
          "katecY": 551332.9406,
          "latitude": 37.5605132,
          "longitude": 127.0683295,
          "coordinateSource": "katec-converted"
        },
        {
          "id": "A0001132",
          "name": "㈜씨더블유 이엔지 금천지점",
          "brand": "HDO",
          "brandCode": "HDO",
          "price": 1883,
          "address": "서울 금천구 시흥동 860-36",
          "roadAddress": "서울 금천구 독산로 147",
          "katecX": 303289.50294,
          "katecY": 540374.09535,
          "latitude": 37.4603639,
          "longitude": 126.9045755,
          "coordinateSource": "katec-converted"
        },
        {
          "id": "A0000944",
          "name": "삼미상사(주)신월IC셀프주유소",
          "brand": "SK에너지",
          "brandCode": "SKE",
          "price": 1883,
          "address": "서울 양천구 신월동 474-4",
          "roadAddress": "서울 양천구 중앙로 331 (신월동)",
          "katecX": 298519.1311,
          "katecY": 547647.1116,
          "latitude": 37.5253746,
          "longitude": 126.8496574,
          "coordinateSource": "katec-converted"
        },
        {
          "id": "A0000346",
          "name": "㈜이아이디 네오시티주유소 지점",
          "brand": "S-OIL",
          "brandCode": "SOL",
          "price": 1884,
          "address": "서울 영등포구 신길1동 70-1",
          "roadAddress": "서울 영등포구 영등포로 399 (신길동)",
          "katecX": 304958.24891,
          "katecY": 546238.04797,
          "latitude": 37.5133671,
          "longitude": 126.9226771,
          "coordinateSource": "katec-converted"
        },
        {
          "id": "A0000327",
          "name": "SK에너지(주) 기린주유소",
          "brand": "SK에너지",
          "brandCode": "SKE",
          "price": 1884,
          "address": "서울 영등포구 양평동4가 159-1",
          "roadAddress": "서울 영등포구 선유로 270",
          "katecX": 302869.00295,
          "katecY": 548820.99534,
          "latitude": 37.5364193,
          "longitude": 126.898706,
          "coordinateSource": "katec-converted"
        },
        {
          "id": "A0000309",
          "name": "SK에너지(주) 양평주유소",
          "brand": "SK에너지",
          "brandCode": "SKE",
          "price": 1884,
          "address": "서울 영등포구 양평동3가 80-2",
          "roadAddress": "서울 영등포구 선유로 195 (양평동3가)",
          "katecX": 302398.1067,
          "katecY": 548220.331,
          "latitude": 37.5309581,
          "longitude": 126.8934585,
          "coordinateSource": "katec-converted"
        },
        {
          "id": "A0009665",
          "name": "삼미상사㈜ 매일셀프주유소",
          "brand": "SK에너지",
          "brandCode": "SKE",
          "price": 1887,
          "address": "서울 강북구 미아동 746-3",
          "roadAddress": "서울 강북구 삼양로 217",
          "katecX": 313610.1911,
          "katecY": 558281.8793,
          "latitude": 37.6227269,
          "longitude": 127.0191103,
          "coordinateSource": "katec-converted"
        },
        {
          "id": "A0010146",
          "name": "삼미상사㈜ 북부2셀프주유소",
          "brand": "SK에너지",
          "brandCode": "SKE",
          "price": 1887,
          "address": "서울 도봉구 창동 650-65",
          "roadAddress": "서울 도봉구 도봉로 434",
          "katecX": 314835,
          "katecY": 560690,
          "latitude": 37.644537,
          "longitude": 127.0327024,
          "coordinateSource": "katec-converted"
        },
        {
          "id": "A0009515",
          "name": "삼미상사㈜ 드림랜드주유소",
          "brand": "SK에너지",
          "brandCode": "SKE",
          "price": 1887,
          "address": "서울 성북구 장위동 219-43",
          "roadAddress": "서울 성북구 월계로 128 (장위동)",
          "katecX": 315517.5954,
          "katecY": 557525.4119,
          "latitude": 37.6160892,
          "longitude": 127.0408028,
          "coordinateSource": "katec-converted"
        },
        {
          "id": "A0001164",
          "name": "(주)화동유업 화동주유소",
          "brand": "SK에너지",
          "brandCode": "SKE",
          "price": 1888,
          "address": "서울 금천구 독산동 967",
          "roadAddress": "서울 금천구 시흥대로 484",
          "katecX": 302821.53096,
          "katecY": 542201.78194,
          "latitude": 37.4767808,
          "longitude": 126.8990451,
          "coordinateSource": "katec-converted"
        },
        {
          "id": "A0000746",
          "name": "삼미상사(주)서부주유소",
          "brand": "SK에너지",
          "brandCode": "SKE",
          "price": 1889,
          "address": "서울 서대문구 연희동 446-4",
          "roadAddress": "서울 서대문구 성산로 255",
          "katecX": 304686.0061,
          "katecY": 552250.8844,
          "latitude": 37.5675096,
          "longitude": 126.9188161,
          "coordinateSource": "katec-converted"
        },
        {
          "id": "A0000443",
          "name": "성락주유소",
          "brand": "S-OIL",
          "brandCode": "SOL",
          "price": 1889,
          "address": "서울 영등포구 신길5동 355-545",
          "roadAddress": "서울 영등포구 가마산로 414 (신길동)",
          "katecX": 303199,
          "katecY": 545191,
          "latitude": 37.5037509,
          "longitude": 126.9029183,
          "coordinateSource": "katec-converted"
        }
      ]
    },
    {
      "regionCode": "01",
      "regionName": "서울",
      "fuelCode": "D047",
      "fuelName": "경유",
      "stations": [
        {
          "id": "A0001146",
          "name": "SK에너지(주) 박미주유소",
          "brand": "SK에너지",
          "brandCode": "SKE",
          "price": 1847,
          "address": "서울 금천구 시흥동 980",
          "roadAddress": "서울 금천구 시흥대로 39-7 (시흥동)",
          "katecX": 303084.8522,
          "katecY": 537816.7868,
          "latitude": 37.437303,
          "longitude": 126.9025992,
          "coordinateSource": "katec-converted"
        },
        {
          "id": "A0009916",
          "name": "대신석유(주)대우주유소",
          "brand": "SK에너지",
          "brandCode": "SKE",
          "price": 1847,
          "address": "서울 서초구 양재동 216",
          "roadAddress": "서울 서초구 양재대로 173 (양재동)",
          "katecX": 315069.06196,
          "katecY": 540497.58276,
          "latitude": 37.4626356,
          "longitude": 127.0376964,
          "coordinateSource": "katec-converted"
        },
        {
          "id": "A0001022",
          "name": "SK에너지㈜ 신평",
          "brand": "SK에너지",
          "brandCode": "SKE",
          "price": 1854,
          "address": "서울 양천구 신정동 209-6",
          "roadAddress": "서울 양천구 목동남로 62",
          "katecX": 299970.9505,
          "katecY": 545862.9872,
          "latitude": 37.5094602,
          "longitude": 126.8663229,
          "coordinateSource": "katec-converted"
        },
        {
          "id": "A0000431",
          "name": "SK에너지(주) 신길동주유소",
          "brand": "SK에너지",
          "brandCode": "SKE",
          "price": 1858,
          "address": "서울 영등포구 신길동 50-8",
          "roadAddress": "서울 영등포구 영등포로 348 (신길동)",
          "katecX": 304467.4051,
          "katecY": 546469.8666,
          "latitude": 37.5154048,
          "longitude": 126.9170956,
          "coordinateSource": "katec-converted"
        },
        {
          "id": "A0001024",
          "name": "SK에너지(주) 경인주유소",
          "brand": "SK에너지",
          "brandCode": "SKE",
          "price": 1859,
          "address": "서울 양천구 신정동 872-5",
          "roadAddress": "서울 양천구 국회대로 170 (신정동)",
          "katecX": 298878.7968,
          "katecY": 547944.8592,
          "latitude": 37.5280966,
          "longitude": 126.8536847,
          "coordinateSource": "katec-converted"
        },
        {
          "id": "A0001144",
          "name": "SK에너지(주)직영 신봉천주유소",
          "brand": "SK에너지",
          "brandCode": "SKE",
          "price": 1866,
          "address": "서울 관악구 낙성대동 1663-11",
          "roadAddress": "서울 관악구 남부순환로 1880 (봉천동)",
          "katecX": 308077.68423,
          "katecY": 542361.34829,
          "latitude": 37.4787571,
          "longitude": 126.9584433,
          "coordinateSource": "katec-converted"
        },
        {
          "id": "A0000129",
          "name": "SK에너지(주) 양지주유소",
          "brand": "SK에너지",
          "brandCode": "SKE",
          "price": 1869,
          "address": "서울 마포구 도화동 174-1",
          "roadAddress": "서울 마포구 마포대로 69 (도화동)",
          "katecX": 307294,
          "katecY": 549386,
          "latitude": 37.5419659,
          "longitude": 126.9486966,
          "coordinateSource": "katec-converted"
        },
        {
          "id": "A0001132",
          "name": "㈜씨더블유 이엔지 금천지점",
          "brand": "HDO",
          "brandCode": "HDO",
          "price": 1872,
          "address": "서울 금천구 시흥동 860-36",
          "roadAddress": "서울 금천구 독산로 147",
          "katecX": 303289.50294,
          "katecY": 540374.09535,
          "latitude": 37.4603639,
          "longitude": 126.9045755,
          "coordinateSource": "katec-converted"
        },
        {
          "id": "A0000346",
          "name": "㈜이아이디 네오시티주유소 지점",
          "brand": "S-OIL",
          "brandCode": "SOL",
          "price": 1873,
          "address": "서울 영등포구 신길1동 70-1",
          "roadAddress": "서울 영등포구 영등포로 399 (신길동)",
          "katecX": 304958.24891,
          "katecY": 546238.04797,
          "latitude": 37.5133671,
          "longitude": 126.9226771,
          "coordinateSource": "katec-converted"
        },
        {
          "id": "A0009349",
          "name": "SK에너지(주) 성수주유소",
          "brand": "SK에너지",
          "brandCode": "SKE",
          "price": 1874,
          "address": "서울 성동구 성수동 1가 33-96",
          "roadAddress": "서울 성동구 뚝섬로 352",
          "katecX": 316226.7812,
          "katecY": 549065.1796,
          "latitude": 37.539932,
          "longitude": 127.0498041,
          "coordinateSource": "katec-converted"
        },
        {
          "id": "A0000309",
          "name": "SK에너지(주) 양평주유소",
          "brand": "SK에너지",
          "brandCode": "SKE",
          "price": 1874,
          "address": "서울 영등포구 양평동3가 80-2",
          "roadAddress": "서울 영등포구 선유로 195 (양평동3가)",
          "katecX": 302398.1067,
          "katecY": 548220.331,
          "latitude": 37.5309581,
          "longitude": 126.8934585,
          "coordinateSource": "katec-converted"
        },
        {
          "id": "A0009359",
          "name": "SK에너지(주) 군자동주유소",
          "brand": "SK에너지",
          "brandCode": "SKE",
          "price": 1874,
          "address": "서울 성동구 용답동 236-1",
          "roadAddress": "서울특별시 성동구  천호대로 446 (용답동)",
          "katecX": 317886.5771,
          "katecY": 551332.9406,
          "latitude": 37.5605132,
          "longitude": 127.0683295,
          "coordinateSource": "katec-converted"
        },
        {
          "id": "A0000327",
          "name": "SK에너지(주) 기린주유소",
          "brand": "SK에너지",
          "brandCode": "SKE",
          "price": 1874,
          "address": "서울 영등포구 양평동4가 159-1",
          "roadAddress": "서울 영등포구 선유로 270",
          "katecX": 302869.00295,
          "katecY": 548820.99534,
          "latitude": 37.5364193,
          "longitude": 126.898706,
          "coordinateSource": "katec-converted"
        },
        {
          "id": "A0000944",
          "name": "삼미상사(주)신월IC셀프주유소",
          "brand": "SK에너지",
          "brandCode": "SKE",
          "price": 1877,
          "address": "서울 양천구 신월동 474-4",
          "roadAddress": "서울 양천구 중앙로 331 (신월동)",
          "katecX": 298519.1311,
          "katecY": 547647.1116,
          "latitude": 37.5253746,
          "longitude": 126.8496574,
          "coordinateSource": "katec-converted"
        },
        {
          "id": "A0001164",
          "name": "(주)화동유업 화동주유소",
          "brand": "SK에너지",
          "brandCode": "SKE",
          "price": 1877,
          "address": "서울 금천구 독산동 967",
          "roadAddress": "서울 금천구 시흥대로 484",
          "katecX": 302821.53096,
          "katecY": 542201.78194,
          "latitude": 37.4767808,
          "longitude": 126.8990451,
          "coordinateSource": "katec-converted"
        },
        {
          "id": "A0000746",
          "name": "삼미상사(주)서부주유소",
          "brand": "SK에너지",
          "brandCode": "SKE",
          "price": 1878,
          "address": "서울 서대문구 연희동 446-4",
          "roadAddress": "서울 서대문구 성산로 255",
          "katecX": 304686.0061,
          "katecY": 552250.8844,
          "latitude": 37.5675096,
          "longitude": 126.9188161,
          "coordinateSource": "katec-converted"
        },
        {
          "id": "A0000443",
          "name": "성락주유소",
          "brand": "S-OIL",
          "brandCode": "SOL",
          "price": 1879,
          "address": "서울 영등포구 신길5동 355-545",
          "roadAddress": "서울 영등포구 가마산로 414 (신길동)",
          "katecX": 303199,
          "katecY": 545191,
          "latitude": 37.5037509,
          "longitude": 126.9029183,
          "coordinateSource": "katec-converted"
        },
        {
          "id": "A0000660",
          "name": "천호현대주유소",
          "brand": "HDO",
          "brandCode": "HDO",
          "price": 1883,
          "address": "서울 강동구 천호동 308-11",
          "roadAddress": "서울 강동구 천중로 67 (천호동)",
          "katecX": 323270,
          "katecY": 549567,
          "latitude": 37.5450676,
          "longitude": 127.1294426,
          "coordinateSource": "katec-converted"
        },
        {
          "id": "A0010136",
          "name": "SK에너지㈜직영 상계주유소",
          "brand": "SK에너지",
          "brandCode": "SKE",
          "price": 1885,
          "address": "서울 노원구 상계동 718-2",
          "roadAddress": "서울 노원구 노해로 527 (상계동)",
          "katecX": 317832.1086,
          "katecY": 561922.8904,
          "latitude": 37.6559182,
          "longitude": 127.0665214,
          "coordinateSource": "katec-converted"
        },
        {
          "id": "A0009215",
          "name": "삼미상사(주)장안킹셀프주유소",
          "brand": "SK에너지",
          "brandCode": "SKE",
          "price": 1885,
          "address": "서울 동대문구 장안동 164-2",
          "roadAddress": "서울 동대문구  한천로 100 (장안동)",
          "katecX": 317591,
          "katecY": 552388,
          "latitude": 37.5699923,
          "longitude": 127.0648655,
          "coordinateSource": "katec-converted"
        }
      ]
    },
    {
      "regionCode": "01",
      "regionName": "서울",
      "fuelCode": "K015",
      "fuelName": "LPG",
      "stations": [
        {
          "id": "A0032953",
          "name": "한경에너지",
          "brand": "SK에너지",
          "brandCode": "SKE",
          "price": 1087,
          "address": "서울 강서구 개화동 215-6",
          "roadAddress": "서울 강서구 개화동로 255",
          "katecX": 294104.61392,
          "katecY": 554571.18999,
          "latitude": 37.5872551,
          "longitude": 126.7987223,
          "coordinateSource": "katec-converted"
        },
        {
          "id": "A0000559",
          "name": "오곡동충전소",
          "brand": "E1",
          "brandCode": "E1G",
          "price": 1116,
          "address": "서울 강서구 오곡동 699-14",
          "roadAddress": "서울 강서구 벌말로 271 (오곡동)",
          "katecX": 291362.00588,
          "katecY": 551107.99064,
          "latitude": 37.5557363,
          "longitude": 126.7681885,
          "coordinateSource": "katec-converted"
        },
        {
          "id": "A0000481",
          "name": "강서충전소",
          "brand": "SK가스",
          "brandCode": "SKG",
          "price": 1116,
          "address": "서울 강서구 오곡동 593-2",
          "roadAddress": "서울 강서구 벌말로 266",
          "katecX": 291406.00294,
          "katecY": 551023.99532,
          "latitude": 37.5549848,
          "longitude": 126.7686988,
          "coordinateSource": "katec-converted"
        },
        {
          "id": "A0033750",
          "name": "강남세곡충전소 셀프세차장㈜",
          "brand": "SK에너지",
          "brandCode": "SKE",
          "price": 1152,
          "address": "서울 강남구 세곡동 34-3",
          "roadAddress": "서울 강남구 헌릉로 717",
          "katecX": 322120.86079,
          "katecY": 540867.46644,
          "latitude": 37.4665904,
          "longitude": 127.1173629,
          "coordinateSource": "katec-converted"
        },
        {
          "id": "A0000291",
          "name": "양평동충전소",
          "brand": "SK가스",
          "brandCode": "SKG",
          "price": 1155,
          "address": "서울 영등포구 양평동3가 59",
          "roadAddress": "서울 영등포구 선유로 157",
          "katecX": 302183.00295,
          "katecY": 547885.99534,
          "latitude": 37.5279232,
          "longitude": 126.8910698,
          "coordinateSource": "katec-converted"
        },
        {
          "id": "A0011826",
          "name": "㈜에이치앤디이 만남의광장주유소",
          "brand": "GS칼텍스",
          "brandCode": "GSC",
          "price": 1157,
          "address": "서울 서초구 원지동 10-16",
          "roadAddress": "서울 서초구 양재대로12길 73-71",
          "katecX": 315535.76499,
          "katecY": 540150.38545,
          "latitude": 37.4595503,
          "longitude": 127.0430113,
          "coordinateSource": "katec-converted"
        },
        {
          "id": "A0009683",
          "name": "한영가스충전소",
          "brand": "GS칼텍스",
          "brandCode": "GSC",
          "price": 1165,
          "address": "서울 도봉구 쌍문동 715-1",
          "roadAddress": "서울 도봉구 도봉로 627",
          "katecX": 315616.83397,
          "katecY": 562454.54833,
          "latitude": 37.6605067,
          "longitude": 127.0413564,
          "coordinateSource": "katec-converted"
        },
        {
          "id": "A0012841",
          "name": "(주)평안에너지 도봉충전소",
          "brand": "E1",
          "brandCode": "E1G",
          "price": 1165,
          "address": "서울 도봉구 도봉동 376",
          "roadAddress": "서울 도봉구 도봉로 983 (도봉동)",
          "katecX": 315939.24421,
          "katecY": 565987.46091,
          "latitude": 37.6923655,
          "longitude": 127.0446021,
          "coordinateSource": "katec-converted"
        },
        {
          "id": "A0010145",
          "name": "(주)평안에너지 상계충전소",
          "brand": "E1",
          "brandCode": "E1G",
          "price": 1165,
          "address": "서울 노원구 중계동 515-5",
          "roadAddress": "서울 노원구 동일로210길 86 (중계동)",
          "katecX": 317868,
          "katecY": 561177,
          "latitude": 37.6492014,
          "longitude": 127.0670122,
          "coordinateSource": "katec-converted"
        },
        {
          "id": "A0010082",
          "name": "태능가스(주)",
          "brand": "S-OIL",
          "brandCode": "SOL",
          "price": 1165,
          "address": "서울 노원구 공릉동 690-11",
          "roadAddress": "서울 노원구 화랑로 405 (공릉동)",
          "katecX": 318316,
          "katecY": 557588,
          "latitude": 37.6169065,
          "longitude": 127.0724905,
          "coordinateSource": "katec-converted"
        },
        {
          "id": "A0010132",
          "name": "복지공릉충전소 ㈜서울개인택시복지법인",
          "brand": "E1",
          "brandCode": "E1G",
          "price": 1166,
          "address": "서울 노원구 공릉동 26-69",
          "roadAddress": "서울 노원구 화랑로 826",
          "katecX": 321612,
          "katecY": 559996,
          "latitude": 37.638889,
          "longitude": 127.1095629,
          "coordinateSource": "katec-converted"
        },
        {
          "id": "A0009491",
          "name": "SK행복충전 장위가스충전소",
          "brand": "SK가스",
          "brandCode": "SKG",
          "price": 1167,
          "address": "서울 성북구 장위3동44-3",
          "roadAddress": "서울 성북구 화랑로 291 (장위동)",
          "katecX": 317260,
          "katecY": 557194,
          "latitude": 37.6132622,
          "longitude": 127.0605748,
          "coordinateSource": "katec-converted"
        },
        {
          "id": "A0010129",
          "name": "SK행복충전 노일가스충전소",
          "brand": "SK가스",
          "brandCode": "SKG",
          "price": 1167,
          "address": "서울 노원구 상계동 1034-1",
          "roadAddress": "서울 노원구 동일로 1601 (상계동)",
          "katecX": 316881.3,
          "katecY": 563646,
          "latitude": 37.6713565,
          "longitude": 127.0555502,
          "coordinateSource": "katec-converted"
        },
        {
          "id": "A0009627",
          "name": "SK행복충전 서울와사공업충전소",
          "brand": "SK가스",
          "brandCode": "SKG",
          "price": 1167,
          "address": "서울 강북구 번동 446-31",
          "roadAddress": "서울 강북구 도봉로 318 (번동)",
          "katecX": 314101.6,
          "katecY": 559768.7,
          "latitude": 37.6361683,
          "longitude": 127.0245014,
          "coordinateSource": "katec-converted"
        },
        {
          "id": "A0009630",
          "name": "SK행복충전 청학에너지충전소",
          "brand": "SK가스",
          "brandCode": "SKG",
          "price": 1167,
          "address": "서울 강북구 번3동 267",
          "roadAddress": "서울 강북구 한천로 833 (번동)",
          "katecX": 315808.2,
          "katecY": 558866.3,
          "latitude": 37.6281965,
          "longitude": 127.0439395,
          "coordinateSource": "katec-converted"
        },
        {
          "id": "A0009625",
          "name": "국제가스공업(주)",
          "brand": "SK에너지",
          "brandCode": "SKE",
          "price": 1167,
          "address": "서울 강북구 수유동 48-83",
          "roadAddress": "서울 강북구 덕릉로 70",
          "katecX": 313864,
          "katecY": 559556,
          "latitude": 37.6342297,
          "longitude": 127.0218347,
          "coordinateSource": "katec-converted"
        },
        {
          "id": "A0001874",
          "name": "복지강북충전소 ㈜서울개인택시복지법인",
          "brand": "GS칼텍스",
          "brandCode": "GSC",
          "price": 1167,
          "address": "서울 도봉구 창동 643-2",
          "roadAddress": "서울특별시 도봉구 도봉로 430 (창동)",
          "katecX": 314819,
          "katecY": 560656,
          "latitude": 37.6442292,
          "longitude": 127.0325251,
          "coordinateSource": "katec-converted"
        },
        {
          "id": "A0032948",
          "name": "대영가스충전소",
          "brand": "SK에너지",
          "brandCode": "SKE",
          "price": 1168,
          "address": "서울 강서구 마곡동 761-2",
          "roadAddress": "서울 강서구 양천로 242  (마곡동)",
          "katecX": 296974.59686,
          "katecY": 552884.01417,
          "latitude": 37.5723818,
          "longitude": 126.8314502,
          "coordinateSource": "katec-converted"
        },
        {
          "id": "A0009243",
          "name": "장안동가스충전소",
          "brand": "E1",
          "brandCode": "E1G",
          "price": 1168,
          "address": "서울 동대문구 장안동 413-6",
          "roadAddress": "서울 동대문구 천호대로 353 (장안동)",
          "katecX": 317038.6,
          "katecY": 551599.6,
          "latitude": 37.5628395,
          "longitude": 127.0587023,
          "coordinateSource": "katec-converted"
        },
        {
          "id": "A0001000",
          "name": "수도에너지(주)충전소",
          "brand": "S-OIL",
          "brandCode": "SOL",
          "price": 1168,
          "address": "서울 양천구 신정동 813-17",
          "roadAddress": "서울 양천구 신정로 146 (신정동)",
          "katecX": 297557.2,
          "katecY": 545618,
          "latitude": 37.506988,
          "longitude": 126.8390598,
          "coordinateSource": "katec-converted"
        }
      ]
    },
    {
      "regionCode": "02",
      "regionName": "경기",
      "fuelCode": "B027",
      "fuelName": "휘발유",
      "stations": [
        {
          "id": "A0008916",
          "name": "SK에너지㈜직영 기쁨셀프주유소",
          "brand": "SK에너지",
          "brandCode": "SKE",
          "price": 1825,
          "address": "경기 용인시 기흥구 보정동 547-4",
          "roadAddress": "경기 용인시 기흥구 용구대로2469번길 130 (보정동)",
          "katecX": 320939.99553,
          "katecY": 524415.15079,
          "latitude": 37.3182562,
          "longitude": 127.1057776,
          "coordinateSource": "katec-converted"
        },
        {
          "id": "A0008224",
          "name": "지지대셀프주유소",
          "brand": "SK에너지",
          "brandCode": "SKE",
          "price": 1827,
          "address": "경기 의왕시 왕곡동 468-8",
          "roadAddress": "경기 의왕시 경수대로 112 (왕곡동)",
          "katecX": 309836.00293,
          "katecY": 526679.99537,
          "latitude": 37.3376488,
          "longitude": 126.9802378,
          "coordinateSource": "katec-converted"
        },
        {
          "id": "A0033442",
          "name": "동탄그린주유소",
          "brand": "GS칼텍스",
          "brandCode": "GSC",
          "price": 1829,
          "address": "경기 화성시 동탄구 방교동 797-1",
          "roadAddress": "경기 화성시 동탄구 동탄산단5길 10-44",
          "katecX": 318886.52585,
          "katecY": 508221.9038,
          "latitude": 37.1721766,
          "longitude": 127.0843788,
          "coordinateSource": "katec-converted"
        },
        {
          "id": "A0005277",
          "name": "대신석유(주)대자주유소",
          "brand": "SK에너지",
          "brandCode": "SKE",
          "price": 1837,
          "address": "경기 고양시 덕양구 대자동 271-8",
          "roadAddress": "경기 고양시 덕양구  통일로 499",
          "katecX": 302043.8781,
          "katecY": 564561.1446,
          "latitude": 37.6781344,
          "longitude": 126.8872605,
          "coordinateSource": "katec-converted"
        },
        {
          "id": "A0006829",
          "name": "삼성주유소",
          "brand": "SK에너지",
          "brandCode": "SKE",
          "price": 1847,
          "address": "경기 광명시 하안동 338-1 (338-2)",
          "roadAddress": "경기 광명시 범안로 925, (338-2) (하안동)",
          "katecX": 300033,
          "katecY": 539920,
          "latitude": 37.455926,
          "longitude": 126.8678328,
          "coordinateSource": "katec-converted"
        },
        {
          "id": "A0008902",
          "name": "대신석유(주)신안주유소",
          "brand": "SK에너지",
          "brandCode": "SKE",
          "price": 1847,
          "address": "경기 용인시 기흥구 영덕동 24-2",
          "roadAddress": "경기 용인시 기흥구 중부대로 234 (영덕동)",
          "katecX": 319748.57041,
          "katecY": 519136.605,
          "latitude": 37.2705941,
          "longitude": 127.0929081,
          "coordinateSource": "katec-converted"
        },
        {
          "id": "A0001978",
          "name": "대신석유(주)남서울주유소",
          "brand": "SK에너지",
          "brandCode": "SKE",
          "price": 1847,
          "address": "경기 안양시 만안구 석수동 365-2",
          "roadAddress": "경기 안양시 만안구  경수대로 1425 (석수동)",
          "katecX": 303097.5454,
          "katecY": 537428.1983,
          "latitude": 37.4338034,
          "longitude": 126.9027937,
          "coordinateSource": "katec-converted"
        },
        {
          "id": "A0001977",
          "name": "대신석유(주)당리주유소",
          "brand": "SK에너지",
          "brandCode": "SKE",
          "price": 1847,
          "address": "경기 군포시 당동 978-6",
          "roadAddress": "경기 군포시 용호1로1번길 16 (당동)",
          "katecX": 306090.062,
          "katecY": 527199.1318,
          "latitude": 37.3419541,
          "longitude": 126.937904,
          "coordinateSource": "katec-converted"
        },
        {
          "id": "A0008750",
          "name": "SK에너지(주) 대흥셀프주유소",
          "brand": "SK에너지",
          "brandCode": "SKE",
          "price": 1847,
          "address": "경기 용인시 기흥구 보정동 474-2",
          "roadAddress": "경기 용인시 기흥구 신수로 570 (보정동)",
          "katecX": 320685,
          "katecY": 524679,
          "latitude": 37.3206117,
          "longitude": 127.1028727,
          "coordinateSource": "katec-converted"
        },
        {
          "id": "A0005046",
          "name": "의정부 코스모스주유소",
          "brand": "S-OIL",
          "brandCode": "SOL",
          "price": 1848,
          "address": "경기 의정부시 의정부동 238-1",
          "roadAddress": "경기 의정부시 평화로 593 (의정부동)",
          "katecX": 316108.303,
          "katecY": 571807.89534,
          "latitude": 37.7448187,
          "longitude": 127.0458465,
          "coordinateSource": "katec-converted"
        },
        {
          "id": "A0004907",
          "name": "SK에너지(주) 엔크린셀프주유소",
          "brand": "SK에너지",
          "brandCode": "SKE",
          "price": 1848,
          "address": "경기 의정부시 의정부동 609-2",
          "roadAddress": "경기 의정부시 경의로 20 (의정부동)",
          "katecX": 315363.0717,
          "katecY": 570450.33,
          "latitude": 37.7325194,
          "longitude": 127.0375498,
          "coordinateSource": "katec-converted"
        },
        {
          "id": "A0005495",
          "name": "HD현대오일뱅크㈜직영 백석동셀프주유소",
          "brand": "HDO",
          "brandCode": "HDO",
          "price": 1849,
          "address": "경기 고양시 일산동구 백석동 1142",
          "roadAddress": "경기 고양시 일산동구 일산로 144 (백석동)",
          "katecX": 293687.8132,
          "katecY": 561516.5284,
          "latitude": 37.6497751,
          "longitude": 126.7929928,
          "coordinateSource": "katec-converted"
        },
        {
          "id": "A0005511",
          "name": "SK에너지(주) 백마주유소",
          "brand": "SK에너지",
          "brandCode": "SKE",
          "price": 1849,
          "address": "경기 고양시 일산동구 백석동 1236",
          "roadAddress": "경기 고양시 일산동구 중앙로 990 (백석동)",
          "katecX": 293632,
          "katecY": 560422,
          "latitude": 37.6399084,
          "longitude": 126.79252,
          "coordinateSource": "katec-converted"
        },
        {
          "id": "A0007076",
          "name": "SK에너지(주)도시공간주유소",
          "brand": "SK에너지",
          "brandCode": "SKE",
          "price": 1849,
          "address": "경기 시흥시 정왕동 1885-9",
          "roadAddress": "경기 시흥시  정왕신길로49번길 53 (정왕동)",
          "katecX": 287659.4612,
          "katecY": 529676.8637,
          "latitude": 37.3622257,
          "longitude": 126.7295626,
          "coordinateSource": "katec-converted"
        },
        {
          "id": "A0008436",
          "name": "우리주유소",
          "brand": "RTO",
          "brandCode": "RTO",
          "price": 1857,
          "address": "경기 시흥시 군자동 530",
          "roadAddress": "경기 시흥시 황고개로 311 (군자동)",
          "katecX": 292725,
          "katecY": 529269,
          "latitude": 37.3591515,
          "longitude": 126.7867945,
          "coordinateSource": "katec-converted"
        },
        {
          "id": "A0007075",
          "name": "SK에너지(주)파워디젤주유소",
          "brand": "SK에너지",
          "brandCode": "SKE",
          "price": 1859,
          "address": "경기 시흥시 정왕동 1852-6",
          "roadAddress": "경기 시흥시 옥구공원로 75 (정왕동)",
          "katecX": 287004.8323,
          "katecY": 528400.0629,
          "latitude": 37.3506436,
          "longitude": 126.7223692,
          "coordinateSource": "katec-converted"
        },
        {
          "id": "A0004908",
          "name": "삼미상사㈜의정부주유소",
          "brand": "SK에너지",
          "brandCode": "SKE",
          "price": 1859,
          "address": "경기 의정부시 의정부동 476",
          "roadAddress": "경기 의정부시  의정로 82",
          "katecX": 315156.2158,
          "katecY": 571287.9185,
          "latitude": 37.7400462,
          "longitude": 127.0351054,
          "coordinateSource": "katec-converted"
        },
        {
          "id": "A0008418",
          "name": "SK에너지(주) 시화산업주유소",
          "brand": "SK에너지",
          "brandCode": "SKE",
          "price": 1859,
          "address": "경기 시흥시 정왕동 1365-4",
          "roadAddress": "경기 시흥시 공단1대로 195",
          "katecX": 287164,
          "katecY": 527096,
          "latitude": 37.3389149,
          "longitude": 126.7243641,
          "coordinateSource": "katec-converted"
        },
        {
          "id": "A0007082",
          "name": "SK에너지(주) 시흥2공단주유소",
          "brand": "SK에너지",
          "brandCode": "SKE",
          "price": 1859,
          "address": "경기 시흥시 정왕동 1359-9",
          "roadAddress": "경기 시흥시 경제로 117",
          "katecX": 285891.8485,
          "katecY": 526741.0839,
          "latitude": 37.3355619,
          "longitude": 126.7100652,
          "coordinateSource": "katec-converted"
        },
        {
          "id": "A0033553",
          "name": "SK에너지㈜ 고산셀프주유소",
          "brand": "SK에너지",
          "brandCode": "SKE",
          "price": 1860,
          "address": "경기 의정부시 민락동 922-1",
          "roadAddress": "경기 의정부시 문충로 332",
          "katecX": 322501.77293,
          "katecY": 572085.87155,
          "latitude": 37.747888,
          "longitude": 127.1183549,
          "coordinateSource": "katec-converted"
        }
      ]
    },
    {
      "regionCode": "02",
      "regionName": "경기",
      "fuelCode": "D047",
      "fuelName": "경유",
      "stations": [
        {
          "id": "A0005277",
          "name": "대신석유(주)대자주유소",
          "brand": "SK에너지",
          "brandCode": "SKE",
          "price": 1797,
          "address": "경기 고양시 덕양구 대자동 271-8",
          "roadAddress": "경기 고양시 덕양구  통일로 499",
          "katecX": 302043.8781,
          "katecY": 564561.1446,
          "latitude": 37.6781344,
          "longitude": 126.8872605,
          "coordinateSource": "katec-converted"
        },
        {
          "id": "A0001978",
          "name": "대신석유(주)남서울주유소",
          "brand": "SK에너지",
          "brandCode": "SKE",
          "price": 1797,
          "address": "경기 안양시 만안구 석수동 365-2",
          "roadAddress": "경기 안양시 만안구  경수대로 1425 (석수동)",
          "katecX": 303097.5454,
          "katecY": 537428.1983,
          "latitude": 37.4338034,
          "longitude": 126.9027937,
          "coordinateSource": "katec-converted"
        },
        {
          "id": "A0008224",
          "name": "지지대셀프주유소",
          "brand": "SK에너지",
          "brandCode": "SKE",
          "price": 1807,
          "address": "경기 의왕시 왕곡동 468-8",
          "roadAddress": "경기 의왕시 경수대로 112 (왕곡동)",
          "katecX": 309836.00293,
          "katecY": 526679.99537,
          "latitude": 37.3376488,
          "longitude": 126.9802378,
          "coordinateSource": "katec-converted"
        },
        {
          "id": "A0033442",
          "name": "동탄그린주유소",
          "brand": "GS칼텍스",
          "brandCode": "GSC",
          "price": 1819,
          "address": "경기 화성시 동탄구 방교동 797-1",
          "roadAddress": "경기 화성시 동탄구 동탄산단5길 10-44",
          "katecX": 318886.52585,
          "katecY": 508221.9038,
          "latitude": 37.1721766,
          "longitude": 127.0843788,
          "coordinateSource": "katec-converted"
        },
        {
          "id": "A0008902",
          "name": "대신석유(주)신안주유소",
          "brand": "SK에너지",
          "brandCode": "SKE",
          "price": 1827,
          "address": "경기 용인시 기흥구 영덕동 24-2",
          "roadAddress": "경기 용인시 기흥구 중부대로 234 (영덕동)",
          "katecX": 319748.57041,
          "katecY": 519136.605,
          "latitude": 37.2705941,
          "longitude": 127.0929081,
          "coordinateSource": "katec-converted"
        },
        {
          "id": "A0006829",
          "name": "삼성주유소",
          "brand": "SK에너지",
          "brandCode": "SKE",
          "price": 1827,
          "address": "경기 광명시 하안동 338-1 (338-2)",
          "roadAddress": "경기 광명시 범안로 925, (338-2) (하안동)",
          "katecX": 300033,
          "katecY": 539920,
          "latitude": 37.455926,
          "longitude": 126.8678328,
          "coordinateSource": "katec-converted"
        },
        {
          "id": "A0004907",
          "name": "SK에너지(주) 엔크린셀프주유소",
          "brand": "SK에너지",
          "brandCode": "SKE",
          "price": 1839,
          "address": "경기 의정부시 의정부동 609-2",
          "roadAddress": "경기 의정부시 경의로 20 (의정부동)",
          "katecX": 315363.0717,
          "katecY": 570450.33,
          "latitude": 37.7325194,
          "longitude": 127.0375498,
          "coordinateSource": "katec-converted"
        },
        {
          "id": "A0005046",
          "name": "의정부 코스모스주유소",
          "brand": "S-OIL",
          "brandCode": "SOL",
          "price": 1839,
          "address": "경기 의정부시 의정부동 238-1",
          "roadAddress": "경기 의정부시 평화로 593 (의정부동)",
          "katecX": 316108.303,
          "katecY": 571807.89534,
          "latitude": 37.7448187,
          "longitude": 127.0458465,
          "coordinateSource": "katec-converted"
        },
        {
          "id": "A0008916",
          "name": "SK에너지㈜직영 기쁨셀프주유소",
          "brand": "SK에너지",
          "brandCode": "SKE",
          "price": 1845,
          "address": "경기 용인시 기흥구 보정동 547-4",
          "roadAddress": "경기 용인시 기흥구 용구대로2469번길 130 (보정동)",
          "katecX": 320939.99553,
          "katecY": 524415.15079,
          "latitude": 37.3182562,
          "longitude": 127.1057776,
          "coordinateSource": "katec-converted"
        },
        {
          "id": "A0008750",
          "name": "SK에너지(주) 대흥셀프주유소",
          "brand": "SK에너지",
          "brandCode": "SKE",
          "price": 1845,
          "address": "경기 용인시 기흥구 보정동 474-2",
          "roadAddress": "경기 용인시 기흥구 신수로 570 (보정동)",
          "katecX": 320685,
          "katecY": 524679,
          "latitude": 37.3206117,
          "longitude": 127.1028727,
          "coordinateSource": "katec-converted"
        },
        {
          "id": "A0003177",
          "name": "㈜서정스타주유소",
          "brand": "S-OIL",
          "brandCode": "SOL",
          "price": 1847,
          "address": "경기 평택시 안중읍 용성리 65-1",
          "roadAddress": "경기 평택시 안중읍 서해로 1408",
          "katecX": 306390.00678,
          "katecY": 491251.63351,
          "latitude": 37.018105,
          "longitude": 126.9457992,
          "coordinateSource": "katec-converted"
        },
        {
          "id": "A0002576",
          "name": "SK에너지(주)운암뜰주유소",
          "brand": "SK에너지",
          "brandCode": "SKE",
          "price": 1847,
          "address": "경기 오산시 오산동 835-2",
          "roadAddress": "경기 오산시 경기대로 317 (오산동)",
          "katecX": 317891,
          "katecY": 506075,
          "latitude": 37.1527455,
          "longitude": 127.0734059,
          "coordinateSource": "katec-converted"
        },
        {
          "id": "A0003404",
          "name": "SK에너지(주) 삼성주유소",
          "brand": "SK에너지",
          "brandCode": "SKE",
          "price": 1847,
          "address": "경기 평택시 청북면 토진리 214-16",
          "roadAddress": "경기 평택시 청북면 청원로 158",
          "katecX": 306902.8924,
          "katecY": 493591.8081,
          "latitude": 37.0392411,
          "longitude": 126.9512723,
          "coordinateSource": "katec-converted"
        },
        {
          "id": "A0001977",
          "name": "대신석유(주)당리주유소",
          "brand": "SK에너지",
          "brandCode": "SKE",
          "price": 1847,
          "address": "경기 군포시 당동 978-6",
          "roadAddress": "경기 군포시 용호1로1번길 16 (당동)",
          "katecX": 306090.062,
          "katecY": 527199.1318,
          "latitude": 37.3419541,
          "longitude": 126.937904,
          "coordinateSource": "katec-converted"
        },
        {
          "id": "A0005511",
          "name": "SK에너지(주) 백마주유소",
          "brand": "SK에너지",
          "brandCode": "SKE",
          "price": 1849,
          "address": "경기 고양시 일산동구 백석동 1236",
          "roadAddress": "경기 고양시 일산동구 중앙로 990 (백석동)",
          "katecX": 293632,
          "katecY": 560422,
          "latitude": 37.6399084,
          "longitude": 126.79252,
          "coordinateSource": "katec-converted"
        },
        {
          "id": "A0007075",
          "name": "SK에너지(주)파워디젤주유소",
          "brand": "SK에너지",
          "brandCode": "SKE",
          "price": 1849,
          "address": "경기 시흥시 정왕동 1852-6",
          "roadAddress": "경기 시흥시 옥구공원로 75 (정왕동)",
          "katecX": 287004.8323,
          "katecY": 528400.0629,
          "latitude": 37.3506436,
          "longitude": 126.7223692,
          "coordinateSource": "katec-converted"
        },
        {
          "id": "A0007076",
          "name": "SK에너지(주)도시공간주유소",
          "brand": "SK에너지",
          "brandCode": "SKE",
          "price": 1849,
          "address": "경기 시흥시 정왕동 1885-9",
          "roadAddress": "경기 시흥시  정왕신길로49번길 53 (정왕동)",
          "katecX": 287659.4612,
          "katecY": 529676.8637,
          "latitude": 37.3622257,
          "longitude": 126.7295626,
          "coordinateSource": "katec-converted"
        },
        {
          "id": "A0005495",
          "name": "HD현대오일뱅크㈜직영 백석동셀프주유소",
          "brand": "HDO",
          "brandCode": "HDO",
          "price": 1849,
          "address": "경기 고양시 일산동구 백석동 1142",
          "roadAddress": "경기 고양시 일산동구 일산로 144 (백석동)",
          "katecX": 293687.8132,
          "katecY": 561516.5284,
          "latitude": 37.6497751,
          "longitude": 126.7929928,
          "coordinateSource": "katec-converted"
        },
        {
          "id": "A0033553",
          "name": "SK에너지㈜ 고산셀프주유소",
          "brand": "SK에너지",
          "brandCode": "SKE",
          "price": 1854,
          "address": "경기 의정부시 민락동 922-1",
          "roadAddress": "경기 의정부시 문충로 332",
          "katecX": 322501.77293,
          "katecY": 572085.87155,
          "latitude": 37.747888,
          "longitude": 127.1183549,
          "coordinateSource": "katec-converted"
        },
        {
          "id": "A0002747",
          "name": "삼성self주유소",
          "brand": "SK에너지",
          "brandCode": "SKE",
          "price": 1858,
          "address": "경기 평택시 청룡동 58-19",
          "roadAddress": "경기 평택시 만세로 1465 (청룡동)",
          "katecX": 322460.5478,
          "katecY": 492707.4639,
          "latitude": 37.0326895,
          "longitude": 127.1262277,
          "coordinateSource": "katec-converted"
        }
      ]
    },
    {
      "regionCode": "02",
      "regionName": "경기",
      "fuelCode": "K015",
      "fuelName": "LPG",
      "stations": [
        {
          "id": "A0007594",
          "name": "SK행복충전 조암충전소",
          "brand": "SK가스",
          "brandCode": "SKG",
          "price": 990,
          "address": "경기 화성시 만세구 우정읍 호곡리 89-1",
          "roadAddress": "경기 화성시 만세구 우정읍 호곡길 84",
          "katecX": 292305,
          "katecY": 502668,
          "latitude": 37.119449,
          "longitude": 126.7859044,
          "coordinateSource": "katec-converted"
        },
        {
          "id": "A0003403",
          "name": "성원이앤에스(주)안성지점",
          "brand": "GS칼텍스",
          "brandCode": "GSC",
          "price": 994,
          "address": "경기 안성시 대덕면 모산리 359-13",
          "roadAddress": "경기 안성시 대덕면 안성대로 1284",
          "katecX": 332379.39956,
          "katecY": 492485.30988,
          "latitude": 37.0314562,
          "longitude": 127.2377274,
          "coordinateSource": "katec-converted"
        },
        {
          "id": "A0003238",
          "name": "(유)유성홀딩스 공도충전소",
          "brand": "SK가스",
          "brandCode": "SKG",
          "price": 995,
          "address": "경기 안성시 공도읍 만정리 290-7",
          "roadAddress": "경기 안성시 공도읍 서동대로 4287-12",
          "katecX": 327160.00289,
          "katecY": 489628.99543,
          "latitude": 37.0053277,
          "longitude": 127.1793436,
          "coordinateSource": "katec-converted"
        },
        {
          "id": "A0003035",
          "name": "평화lpg충전소",
          "brand": "SK에너지",
          "brandCode": "SKE",
          "price": 995,
          "address": "경기 안성시 공도읍 승두리 593-6",
          "roadAddress": "경기 안성시 공도읍 서동대로 4068",
          "katecX": 325389.85097,
          "katecY": 488787.01039,
          "latitude": 36.9976017,
          "longitude": 127.1595394,
          "coordinateSource": "katec-converted"
        },
        {
          "id": "A0010546",
          "name": "녹박재충전소",
          "brand": "자가상표",
          "brandCode": "ETC",
          "price": 996,
          "address": "경기 안성시 죽산면 장릉리 660-4",
          "roadAddress": "경기 안성시 죽산면 서동대로 6516",
          "katecX": 345135.5,
          "katecY": 496570.1,
          "latitude": 37.0690986,
          "longitude": 127.3807985,
          "coordinateSource": "katec-converted"
        },
        {
          "id": "A0033217",
          "name": "비봉충전소 ㈜대원에너지",
          "brand": "HDO",
          "brandCode": "HDO",
          "price": 996,
          "address": "경기 안성시 죽산면 장능리 580",
          "roadAddress": "경기 안성시 죽산면 서동대로 6617",
          "katecX": 346078.32881,
          "katecY": 496938.35038,
          "latitude": 37.0724718,
          "longitude": 127.3913741,
          "coordinateSource": "katec-converted"
        },
        {
          "id": "A0005301",
          "name": "일산충전소",
          "brand": "SK에너지",
          "brandCode": "SKE",
          "price": 1004,
          "address": "경기 고양시 일산동구 식사동 832-20",
          "roadAddress": "경기 고양시 일산동구 무궁화로 362(식사동)",
          "katecX": 294298,
          "katecY": 564556,
          "latitude": 37.677227,
          "longitude": 126.7994653,
          "coordinateSource": "katec-converted"
        },
        {
          "id": "A0005446",
          "name": "신우에너지(주)",
          "brand": "SK가스",
          "brandCode": "SKG",
          "price": 1004,
          "address": "경기 고양시 일산동구 성석동 1305-5",
          "roadAddress": "경기 고양시 일산동구 고봉로 470",
          "katecX": 292745.65477,
          "katecY": 567163.06735,
          "latitude": 37.7005324,
          "longitude": 126.7814864,
          "coordinateSource": "katec-converted"
        },
        {
          "id": "A0003147",
          "name": "안성에너지",
          "brand": "E1",
          "brandCode": "E1G",
          "price": 1008,
          "address": "경기 안성시 대덕면 모산리 396-3",
          "roadAddress": "경기 안성시 대덕면 만세로 77-1",
          "katecX": 332313,
          "katecY": 491866,
          "latitude": 37.025871,
          "longitude": 127.237037,
          "coordinateSource": "katec-converted"
        },
        {
          "id": "A0008954",
          "name": "희망충전소",
          "brand": "HDO",
          "brandCode": "HDO",
          "price": 1009,
          "address": "경기 화성시 효행구 비봉면 삼화리 4-1",
          "roadAddress": "경기 화성시 효행구 비봉면 비봉로 487",
          "katecX": 298204.0029,
          "katecY": 518021.99536,
          "latitude": 37.2584419,
          "longitude": 126.8501769,
          "coordinateSource": "katec-converted"
        },
        {
          "id": "A0007669",
          "name": "안성맞춤LPG충전소",
          "brand": "SK에너지",
          "brandCode": "SKE",
          "price": 1010,
          "address": "경기 안성시 당왕동 269-3",
          "roadAddress": "경기 안성시 당왕동안성맞춤대로 1253",
          "katecX": 334798.33866,
          "katecY": 491646.81144,
          "latitude": 37.0240722,
          "longitude": 127.264987,
          "coordinateSource": "katec-converted"
        },
        {
          "id": "A0006835",
          "name": "(주)옥산에너지 안성제일충전소",
          "brand": "S-OIL",
          "brandCode": "SOL",
          "price": 1011,
          "address": "경기 안성시 대덕면 소현리 297-1",
          "roadAddress": "경기 안성시 대덕면 서동대로 5059",
          "katecX": 334300,
          "katecY": 491588,
          "latitude": 37.0235074,
          "longitude": 127.2593918,
          "coordinateSource": "katec-converted"
        },
        {
          "id": "A0002387",
          "name": "다인산업(주) 화성충전소",
          "brand": "SK에너지",
          "brandCode": "SKE",
          "price": 1013,
          "address": "경기 화성시 효행구 비봉면 삼화리 773-1",
          "roadAddress": "경기 화성시 효행구 비봉면 비봉로 366",
          "katecX": 298067,
          "katecY": 516845,
          "latitude": 37.2478229,
          "longitude": 126.8487941,
          "coordinateSource": "katec-converted"
        },
        {
          "id": "A0002693",
          "name": "한일크린에너지(주)",
          "brand": "HDO",
          "brandCode": "HDO",
          "price": 1019,
          "address": "경기 안성시 계동5,6",
          "roadAddress": "경기 안성시 안성맞춤대로 872",
          "katecX": 335215,
          "katecY": 488099,
          "latitude": 36.9921323,
          "longitude": 127.2699753,
          "coordinateSource": "katec-converted"
        },
        {
          "id": "A0002759",
          "name": "이화LPG충전소",
          "brand": "HDO",
          "brandCode": "HDO",
          "price": 1019,
          "address": "경기 안성시 보개면 상삼리 211",
          "roadAddress": "경기 안성시 보개면 서동대로 5894",
          "katecX": 341476.3,
          "katecY": 492034.8,
          "latitude": 37.0280094,
          "longitude": 127.340005,
          "coordinateSource": "katec-converted"
        },
        {
          "id": "A0005464",
          "name": "SK행복충전 원일에너지충전소",
          "brand": "SK가스",
          "brandCode": "SKG",
          "price": 1020,
          "address": "경기 고양시 일산동구 문봉동 195-4",
          "roadAddress": "경기 고양시 일산동구 문원길 37",
          "katecX": 296092,
          "katecY": 568175,
          "latitude": 37.7100345,
          "longitude": 126.8192822,
          "coordinateSource": "katec-converted"
        },
        {
          "id": "A0033170",
          "name": "야목충전소",
          "brand": "HDO",
          "brandCode": "HDO",
          "price": 1024,
          "address": "경기 화성시 효행구 매송면 야목리 801",
          "roadAddress": "경기 화성시 효행구 매송면 매송로 279",
          "katecX": 301382.68901,
          "katecY": 518176.82344,
          "latitude": 37.2601794,
          "longitude": 126.8859851,
          "coordinateSource": "katec-converted"
        },
        {
          "id": "A0005523",
          "name": "㈜엘아이지휴세코 희망주유소/충전소",
          "brand": "HDO",
          "brandCode": "HDO",
          "price": 1024,
          "address": "경기 고양시 일산서구 덕이동 304-4",
          "roadAddress": "경기 고양시 일산서구 경의로 910",
          "katecX": 290794.7,
          "katecY": 566958.3,
          "latitude": 37.6984571,
          "longitude": 126.7593978,
          "coordinateSource": "katec-converted"
        },
        {
          "id": "A0005483",
          "name": "SK행복충전 신우에너지 신일산충전소",
          "brand": "SK가스",
          "brandCode": "SKG",
          "price": 1024,
          "address": "경기 고양시 일산서구 대화동 59",
          "roadAddress": "경기 고양시 일산서구 경의로 789 (대화동)",
          "katecX": 290610,
          "katecY": 565808,
          "latitude": 37.6880726,
          "longitude": 126.7574768,
          "coordinateSource": "katec-converted"
        },
        {
          "id": "A0008228",
          "name": "에스케이원일충정소",
          "brand": "SK가스",
          "brandCode": "SKG",
          "price": 1028,
          "address": "경기 의왕시 학의동 185-1",
          "roadAddress": "경기 의왕시 안양판교로 372",
          "katecX": 312646,
          "katecY": 532684,
          "latitude": 37.3920121,
          "longitude": 127.0112357,
          "coordinateSource": "katec-converted"
        }
      ]
    },
    {
      "regionCode": "03",
      "regionName": "강원",
      "fuelCode": "B027",
      "fuelName": "휘발유",
      "stations": [
        {
          "id": "A0010364",
          "name": "IOZEN(이오젠)",
          "brand": "SK에너지",
          "brandCode": "SKE",
          "price": 1819,
          "address": "강원 춘천시 동내면 고은리 537-1",
          "roadAddress": "강원 춘천시 동내면 순환대로 758",
          "katecX": 380086.1,
          "katecY": 582846.8,
          "latitude": 37.8479236,
          "longitude": 127.7714795,
          "coordinateSource": "katec-converted"
        },
        {
          "id": "A0004471",
          "name": "형제주유소",
          "brand": "HDO",
          "brandCode": "HDO",
          "price": 1828,
          "address": "강원 철원군 동송읍 이평리 240-1",
          "roadAddress": "강원 철원군 동송읍 금학로 14",
          "katecX": 332596.6808,
          "katecY": 621309.6827,
          "latitude": 38.1921611,
          "longitude": 127.2282677,
          "coordinateSource": "katec-converted"
        },
        {
          "id": "A0011657",
          "name": "SK에너지(주) 척산주유소",
          "brand": "SK에너지",
          "brandCode": "SKE",
          "price": 1858,
          "address": "강원 속초시 노학동 298-2",
          "roadAddress": "강원 속초시 온천로 161 (노학동)",
          "katecX": 449192.83,
          "katecY": 621089.4805,
          "latitude": 38.1913811,
          "longitude": 128.559332,
          "coordinateSource": "katec-converted"
        },
        {
          "id": "A0011571",
          "name": "SK에너지(주)강릉주유소",
          "brand": "SK에너지",
          "brandCode": "SKE",
          "price": 1859,
          "address": "강원 강릉시 포남동 1288",
          "roadAddress": "강원 강릉시 강릉대로 432 (포남동)",
          "katecX": 480495.9181,
          "katecY": 574774.2207,
          "latitude": 37.7718835,
          "longitude": 128.9114777,
          "coordinateSource": "katec-converted"
        },
        {
          "id": "A0011760",
          "name": "SK에너지(주) 커피향셀프주유소",
          "brand": "SK에너지",
          "brandCode": "SKE",
          "price": 1860,
          "address": "강원 양양군 강현면 정암리 156-3",
          "roadAddress": "강원 양양군 강현면 동해대로 3343",
          "katecX": 454267.2172,
          "katecY": 615060.9145,
          "latitude": 38.1367777,
          "longitude": 128.6168003,
          "coordinateSource": "katec-converted"
        },
        {
          "id": "A0011570",
          "name": "SK에너지㈜ 주문진주유소",
          "brand": "SK에너지",
          "brandCode": "SKE",
          "price": 1865,
          "address": "강원 강릉시 주문진읍 교항리 368-8",
          "roadAddress": "강원 강릉시 주문진읍 신리천로 95",
          "katecX": 472408.8157,
          "katecY": 586910.2467,
          "latitude": 37.8818961,
          "longitude": 128.8208997,
          "coordinateSource": "katec-converted"
        },
        {
          "id": "A0011415",
          "name": "대동강주유소",
          "brand": "SK에너지",
          "brandCode": "SKE",
          "price": 1865,
          "address": "강원 강릉시 내곡동 165",
          "roadAddress": "강원 강릉시 남부로 67 (내곡동)",
          "katecX": 478431.8009,
          "katecY": 571292.2845,
          "latitude": 37.7406924,
          "longitude": 128.8876754,
          "coordinateSource": "katec-converted"
        },
        {
          "id": "A0011572",
          "name": "SK에너지㈜ 월드컵주유소",
          "brand": "SK에너지",
          "brandCode": "SKE",
          "price": 1865,
          "address": "강원 강릉시 포남동 1141-3",
          "roadAddress": "강원 강릉시 경강로 2224",
          "katecX": 480089.82358,
          "katecY": 573752.9145,
          "latitude": 37.7627178,
          "longitude": 128.9067563,
          "coordinateSource": "katec-converted"
        },
        {
          "id": "A0011047",
          "name": "SK에너지(주) 혁신주유소",
          "brand": "SK에너지",
          "brandCode": "SKE",
          "price": 1865,
          "address": "강원 원주시 봉산동 862",
          "roadAddress": "강원 원주시 행구로 121",
          "katecX": 397511.9573,
          "katecY": 526697.2505,
          "latitude": 37.3421953,
          "longitude": 127.9696928,
          "coordinateSource": "katec-converted"
        },
        {
          "id": "A0010821",
          "name": "진다리주유소",
          "brand": "SK에너지",
          "brandCode": "SKE",
          "price": 1880,
          "address": "강원 인제군 기린면 현리 609-1",
          "roadAddress": "강원 인제군 기린면 내린천로 4172",
          "katecX": 428552.7755,
          "katecY": 596193.5012,
          "latitude": 37.9679593,
          "longitude": 128.3227231,
          "coordinateSource": "katec-converted"
        },
        {
          "id": "A0010810",
          "name": "북방주유소",
          "brand": "GS칼텍스",
          "brandCode": "GSC",
          "price": 1888,
          "address": "강원 홍천군 북방면 능평리 215-3",
          "roadAddress": "강원 홍천군 북방면 영서로 2903",
          "katecX": 386023.79256,
          "katecY": 568397.89365,
          "latitude": 37.7178453,
          "longitude": 127.8392306,
          "coordinateSource": "katec-converted"
        },
        {
          "id": "A0010847",
          "name": "무궁화주유소",
          "brand": "HDO",
          "brandCode": "HDO",
          "price": 1898,
          "address": "강원 홍천군 홍천읍 하오안리 166-27",
          "roadAddress": "강원 홍천군 홍천읍 설악로 1277",
          "katecX": 386986.5856,
          "katecY": 562949.2311,
          "latitude": 37.6687645,
          "longitude": 127.8502503,
          "coordinateSource": "katec-converted"
        },
        {
          "id": "A0010808",
          "name": "스카이주유소",
          "brand": "HDO",
          "brandCode": "HDO",
          "price": 1899,
          "address": "강원 홍천군 홍천읍 상오안리 172",
          "roadAddress": "강원 홍천군 홍천읍 설악로 951",
          "katecX": 384301,
          "katecY": 561284,
          "latitude": 37.6537172,
          "longitude": 127.8198442,
          "coordinateSource": "katec-converted"
        },
        {
          "id": "A0010431",
          "name": "㈜붕붕붕주유소",
          "brand": "GS칼텍스",
          "brandCode": "GSC",
          "price": 1909,
          "address": "강원 춘천시 석사동 430-1",
          "roadAddress": "강원 춘천시 공지로 156-3",
          "katecX": 377764.15575,
          "katecY": 584168.95196,
          "latitude": 37.8597823,
          "longitude": 127.7450548,
          "coordinateSource": "katec-converted"
        },
        {
          "id": "A0009978",
          "name": "거두주유소",
          "brand": "GS칼텍스",
          "brandCode": "GSC",
          "price": 1909,
          "address": "강원 춘천시 동내면 거두리 910",
          "roadAddress": "강원도 춘천시 동내면 춘천순환로 59",
          "katecX": 378218.14178,
          "katecY": 583718.13754,
          "latitude": 37.8557315,
          "longitude": 127.7502279,
          "coordinateSource": "katec-converted"
        },
        {
          "id": "A0010288",
          "name": "퇴계주유소",
          "brand": "GS칼텍스",
          "brandCode": "GSC",
          "price": 1910,
          "address": "강원 춘천시 퇴계동 1162-1",
          "roadAddress": "강원 춘천시 퇴계로 25",
          "katecX": 375975,
          "katecY": 584841,
          "latitude": 37.8657918,
          "longitude": 127.7246993,
          "coordinateSource": "katec-converted"
        },
        {
          "id": "A0010435",
          "name": "태양주유소",
          "brand": "SK에너지",
          "brandCode": "SKE",
          "price": 1920,
          "address": "강원 춘천시 퇴계동 222-1",
          "roadAddress": "강원 춘천시 영서로 2109 (퇴계동)",
          "katecX": 377057.1374,
          "katecY": 583743.7992,
          "latitude": 37.855934,
          "longitude": 127.7370335,
          "coordinateSource": "katec-converted"
        },
        {
          "id": "A0010489",
          "name": "동춘천농협주유소",
          "brand": "농협알뜰",
          "brandCode": "NHO",
          "price": 1920,
          "address": "강원 춘천시 동내면 학곡리 590",
          "roadAddress": "강원 춘천시 동내면 학곡동2길 11",
          "katecX": 379111,
          "katecY": 581732,
          "latitude": 37.837857,
          "longitude": 127.7604322,
          "coordinateSource": "katec-converted"
        },
        {
          "id": "A0011143",
          "name": "행복한주유소",
          "brand": "S-OIL",
          "brandCode": "SOL",
          "price": 1926,
          "address": "강원 원주시 태장동 1350-12",
          "roadAddress": "강원 원주시 북원로 2740",
          "katecX": 395648.01128,
          "katecY": 531783.60325,
          "latitude": 37.3880213,
          "longitude": 127.9486247,
          "coordinateSource": "katec-converted"
        },
        {
          "id": "A0011396",
          "name": "회산주유소",
          "brand": "S-OIL",
          "brandCode": "SOL",
          "price": 1926,
          "address": "강원 강릉시 회산동 234-1",
          "roadAddress": "강원 강릉시 관솔길 27 (회산동)",
          "katecX": 476869.0913,
          "katecY": 571111.1021,
          "latitude": 37.7391922,
          "longitude": 128.8699272,
          "coordinateSource": "katec-converted"
        }
      ]
    },
    {
      "regionCode": "03",
      "regionName": "강원",
      "fuelCode": "D047",
      "fuelName": "경유",
      "stations": [
        {
          "id": "A0010364",
          "name": "IOZEN(이오젠)",
          "brand": "SK에너지",
          "brandCode": "SKE",
          "price": 1843,
          "address": "강원 춘천시 동내면 고은리 537-1",
          "roadAddress": "강원 춘천시 동내면 순환대로 758",
          "katecX": 380086.1,
          "katecY": 582846.8,
          "latitude": 37.8479236,
          "longitude": 127.7714795,
          "coordinateSource": "katec-converted"
        },
        {
          "id": "A0011570",
          "name": "SK에너지㈜ 주문진주유소",
          "brand": "SK에너지",
          "brandCode": "SKE",
          "price": 1849,
          "address": "강원 강릉시 주문진읍 교항리 368-8",
          "roadAddress": "강원 강릉시 주문진읍 신리천로 95",
          "katecX": 472408.8157,
          "katecY": 586910.2467,
          "latitude": 37.8818961,
          "longitude": 128.8208997,
          "coordinateSource": "katec-converted"
        },
        {
          "id": "A0011415",
          "name": "대동강주유소",
          "brand": "SK에너지",
          "brandCode": "SKE",
          "price": 1849,
          "address": "강원 강릉시 내곡동 165",
          "roadAddress": "강원 강릉시 남부로 67 (내곡동)",
          "katecX": 478431.8009,
          "katecY": 571292.2845,
          "latitude": 37.7406924,
          "longitude": 128.8876754,
          "coordinateSource": "katec-converted"
        },
        {
          "id": "A0011572",
          "name": "SK에너지㈜ 월드컵주유소",
          "brand": "SK에너지",
          "brandCode": "SKE",
          "price": 1849,
          "address": "강원 강릉시 포남동 1141-3",
          "roadAddress": "강원 강릉시 경강로 2224",
          "katecX": 480089.82358,
          "katecY": 573752.9145,
          "latitude": 37.7627178,
          "longitude": 128.9067563,
          "coordinateSource": "katec-converted"
        },
        {
          "id": "A0011760",
          "name": "SK에너지(주) 커피향셀프주유소",
          "brand": "SK에너지",
          "brandCode": "SKE",
          "price": 1850,
          "address": "강원 양양군 강현면 정암리 156-3",
          "roadAddress": "강원 양양군 강현면 동해대로 3343",
          "katecX": 454267.2172,
          "katecY": 615060.9145,
          "latitude": 38.1367777,
          "longitude": 128.6168003,
          "coordinateSource": "katec-converted"
        },
        {
          "id": "A0011571",
          "name": "SK에너지(주)강릉주유소",
          "brand": "SK에너지",
          "brandCode": "SKE",
          "price": 1855,
          "address": "강원 강릉시 포남동 1288",
          "roadAddress": "강원 강릉시 강릉대로 432 (포남동)",
          "katecX": 480495.9181,
          "katecY": 574774.2207,
          "latitude": 37.7718835,
          "longitude": 128.9114777,
          "coordinateSource": "katec-converted"
        },
        {
          "id": "A0011657",
          "name": "SK에너지(주) 척산주유소",
          "brand": "SK에너지",
          "brandCode": "SKE",
          "price": 1859,
          "address": "강원 속초시 노학동 298-2",
          "roadAddress": "강원 속초시 온천로 161 (노학동)",
          "katecX": 449192.83,
          "katecY": 621089.4805,
          "latitude": 38.1913811,
          "longitude": 128.559332,
          "coordinateSource": "katec-converted"
        },
        {
          "id": "A0011047",
          "name": "SK에너지(주) 혁신주유소",
          "brand": "SK에너지",
          "brandCode": "SKE",
          "price": 1864,
          "address": "강원 원주시 봉산동 862",
          "roadAddress": "강원 원주시 행구로 121",
          "katecX": 397511.9573,
          "katecY": 526697.2505,
          "latitude": 37.3421953,
          "longitude": 127.9696928,
          "coordinateSource": "katec-converted"
        },
        {
          "id": "A0010821",
          "name": "진다리주유소",
          "brand": "SK에너지",
          "brandCode": "SKE",
          "price": 1870,
          "address": "강원 인제군 기린면 현리 609-1",
          "roadAddress": "강원 인제군 기린면 내린천로 4172",
          "katecX": 428552.7755,
          "katecY": 596193.5012,
          "latitude": 37.9679593,
          "longitude": 128.3227231,
          "coordinateSource": "katec-converted"
        },
        {
          "id": "A0010303",
          "name": "동서주유소",
          "brand": "SK에너지",
          "brandCode": "SKE",
          "price": 1875,
          "address": "강원 춘천시 서면 금산리 1046",
          "roadAddress": "강원도 춘천시 서면 박사로 883",
          "katecX": 372945.4,
          "katecY": 588194.3,
          "latitude": 37.8959199,
          "longitude": 127.69014,
          "coordinateSource": "katec-converted"
        },
        {
          "id": "A0009978",
          "name": "거두주유소",
          "brand": "GS칼텍스",
          "brandCode": "GSC",
          "price": 1884,
          "address": "강원 춘천시 동내면 거두리 910",
          "roadAddress": "강원도 춘천시 동내면 춘천순환로 59",
          "katecX": 378218.14178,
          "katecY": 583718.13754,
          "latitude": 37.8557315,
          "longitude": 127.7502279,
          "coordinateSource": "katec-converted"
        },
        {
          "id": "A0010431",
          "name": "㈜붕붕붕주유소",
          "brand": "GS칼텍스",
          "brandCode": "GSC",
          "price": 1884,
          "address": "강원 춘천시 석사동 430-1",
          "roadAddress": "강원 춘천시 공지로 156-3",
          "katecX": 377764.15575,
          "katecY": 584168.95196,
          "latitude": 37.8597823,
          "longitude": 127.7450548,
          "coordinateSource": "katec-converted"
        },
        {
          "id": "A0010416",
          "name": "구도일주유소 춘천",
          "brand": "S-OIL",
          "brandCode": "SOL",
          "price": 1887,
          "address": "강원 춘천시 퇴계동 11토지구획정리지구 1 B 7L",
          "roadAddress": "강원 춘천시 춘천로 40(퇴계동)",
          "katecX": 375848.49975,
          "katecY": 585099.74189,
          "latitude": 37.8681198,
          "longitude": 127.7232529,
          "coordinateSource": "katec-converted"
        },
        {
          "id": "A0010288",
          "name": "퇴계주유소",
          "brand": "GS칼텍스",
          "brandCode": "GSC",
          "price": 1887,
          "address": "강원 춘천시 퇴계동 1162-1",
          "roadAddress": "강원 춘천시 퇴계로 25",
          "katecX": 375975,
          "katecY": 584841,
          "latitude": 37.8657918,
          "longitude": 127.7246993,
          "coordinateSource": "katec-converted"
        },
        {
          "id": "A0010406",
          "name": "대성주유소",
          "brand": "GS칼텍스",
          "brandCode": "GSC",
          "price": 1888,
          "address": "강원 춘천시 근화동 284-4",
          "roadAddress": "강원 춘천시 공지로 443",
          "katecX": 375403,
          "katecY": 585709,
          "latitude": 37.8735973,
          "longitude": 127.7181685,
          "coordinateSource": "katec-converted"
        },
        {
          "id": "A0010810",
          "name": "북방주유소",
          "brand": "GS칼텍스",
          "brandCode": "GSC",
          "price": 1888,
          "address": "강원 홍천군 북방면 능평리 215-3",
          "roadAddress": "강원 홍천군 북방면 영서로 2903",
          "katecX": 386023.79256,
          "katecY": 568397.89365,
          "latitude": 37.7178453,
          "longitude": 127.8392306,
          "coordinateSource": "katec-converted"
        },
        {
          "id": "A0033584",
          "name": "(주)강릉햇살 유천주유소",
          "brand": "HDO",
          "brandCode": "HDO",
          "price": 1893,
          "address": "강원도 강릉시 유천동 776-5",
          "roadAddress": "강원도 강릉시 사임당로 178(유천동)",
          "katecX": 476514.3959,
          "katecY": 573502.17965,
          "latitude": 37.7607641,
          "longitude": 128.8661543,
          "coordinateSource": "katec-converted"
        },
        {
          "id": "A0010418",
          "name": "㈜케이에스에스씨",
          "brand": "SK에너지",
          "brandCode": "SKE",
          "price": 1897,
          "address": "강원 춘천시 소양로4가 115-1",
          "roadAddress": "강원 춘천시 중앙로 146",
          "katecX": 375473.72517,
          "katecY": 585939.32687,
          "latitude": 37.8756745,
          "longitude": 127.7189645,
          "coordinateSource": "katec-converted"
        },
        {
          "id": "A0010847",
          "name": "무궁화주유소",
          "brand": "HDO",
          "brandCode": "HDO",
          "price": 1898,
          "address": "강원 홍천군 홍천읍 하오안리 166-27",
          "roadAddress": "강원 홍천군 홍천읍 설악로 1277",
          "katecX": 386986.5856,
          "katecY": 562949.2311,
          "latitude": 37.6687645,
          "longitude": 127.8502503,
          "coordinateSource": "katec-converted"
        },
        {
          "id": "A0010915",
          "name": "귀래주유소",
          "brand": "HDO",
          "brandCode": "HDO",
          "price": 1899,
          "address": "강원 원주시 귀래면 운남리 1009-3",
          "roadAddress": "강원 원주시 귀래면 북원로 116-1",
          "katecX": 389899.485,
          "katecY": 507704.2152,
          "latitude": 37.1709922,
          "longitude": 127.8840394,
          "coordinateSource": "katec-converted"
        }
      ]
    },
    {
      "regionCode": "03",
      "regionName": "강원",
      "fuelCode": "K015",
      "fuelName": "LPG",
      "stations": [
        {
          "id": "A0033299",
          "name": "주식회사 세종에너지",
          "brand": "SK에너지",
          "brandCode": "SKE",
          "price": 1028,
          "address": "강원 원주시 지정면 보통리 251-1",
          "roadAddress": "강원 원주시 지정면 보통로 380",
          "katecX": 389105.38812,
          "katecY": 526457.26779,
          "latitude": 37.3399704,
          "longitude": 127.8748181,
          "coordinateSource": "katec-converted"
        },
        {
          "id": "A0011079",
          "name": "남원주LPG충전소",
          "brand": "E1",
          "brandCode": "E1G",
          "price": 1040,
          "address": "강원 원주시 무실동 1114-1",
          "roadAddress": "강원 원주시 행가리1길 2",
          "katecX": 393028,
          "katecY": 524614,
          "latitude": 37.3233991,
          "longitude": 127.919106,
          "coordinateSource": "katec-converted"
        },
        {
          "id": "A0011118",
          "name": "원주정우LPG충전소",
          "brand": "E1",
          "brandCode": "E1G",
          "price": 1040,
          "address": "강원 원주시 태장동 2617-23",
          "roadAddress": "강원 원주시 북원로 2826",
          "katecX": 395897.2,
          "katecY": 532560.4,
          "latitude": 37.3950222,
          "longitude": 127.9514343,
          "coordinateSource": "katec-converted"
        },
        {
          "id": "A0033450",
          "name": "원주농협충전소",
          "brand": "농협알뜰",
          "brandCode": "NHO",
          "price": 1040,
          "address": "강원 원주시 가현동 369-8",
          "roadAddress": "강원 원주시 호저로 230",
          "katecX": 394621.19475,
          "katecY": 532645.4184,
          "latitude": 37.3957815,
          "longitude": 127.9370223,
          "coordinateSource": "katec-converted"
        },