{
  "mode": "opinet",
  "source": "한국석유공사 오피넷 Open API",
  "generatedAt": "2026-06-16T11:08:40.061Z",
  "notice": "한국석유공사 오피넷 Open API 기준 데이터입니다. 실제 판매 가격과 차이가 있을 수 있습니다.",
  "datasets": [
    {
      "regionCode": "ALL",
      "regionName": "전국",
      "fuelCode": "B027",
      "fuelName": "휘발유",
      "stations": [
        {
          "id": "A0014172",
          "name": "대일종합에너지주유소 태전점",
          "brand": "HDO",
          "brandCode": "HDO",
          "price": 1929,
          "address": "대구 북구 태전동 148-7",
          "roadAddress": "대구 북구 태전로 14 (태전동)",
          "katecX": 449464.77744,
          "katecY": 369233.75327,
          "latitude": 35.9218714,
          "longitude": 128.5459301,
          "coordinateSource": "katec-converted"
        },
        {
          "id": "A0023656",
          "name": "기분좋은주유소",
          "brand": "S-OIL",
          "brandCode": "SOL",
          "price": 1929,
          "address": "대구 북구 태전동 625-2",
          "roadAddress": "대구 북구 칠곡중앙대로 290",
          "katecX": 449562.6016,
          "katecY": 369200.9956,
          "latitude": 35.9215712,
          "longitude": 128.547012,
          "coordinateSource": "katec-converted"
        },
        {
          "id": "A0007872",
          "name": "수현주유소",
          "brand": "GS칼텍스",
          "brandCode": "GSC",
          "price": 1934,
          "address": "경기 김포시 월곶면 갈산리 466-14",
          "roadAddress": "경기 김포시 월곶면 김포대로 2553",
          "katecX": 273898,
          "katecY": 567666,
          "latitude": 37.7026607,
          "longitude": 126.5677214,
          "coordinateSource": "katec-converted"
        },
        {
          "id": "A0023397",
          "name": "효령주유소",
          "brand": "SK에너지",
          "brandCode": "SKE",
          "price": 1934,
          "address": "대구 군위군 효령면 고곡리 471",
          "roadAddress": "대구 군위군 효령면 경북대로 2164",
          "katecX": 451981.8526,
          "katecY": 390722.2805,
          "latitude": 36.1154097,
          "longitude": 128.575226,
          "coordinateSource": "katec-converted"
        },
        {
          "id": "A0026114",
          "name": "만남의주유소",
          "brand": "RTO",
          "brandCode": "RTO",
          "price": 1935,
          "address": "경북 칠곡군 가산면 석우리 53-1",
          "roadAddress": "경북 칠곡군 가산면 경북대로 1883",
          "katecX": 449874,
          "katecY": 389776.5,
          "latitude": 36.106996,
          "longitude": 128.5517533,
          "coordinateSource": "katec-converted"
        },
        {
          "id": "A0023362",
          "name": "㈜다원컴퍼니",
          "brand": "HDO",
          "brandCode": "HDO",
          "price": 1939,
          "address": "대구 서구 중리동 1082-7",
          "roadAddress": "대구 서구 국채보상로 122 (중리동)",
          "katecX": 449354,
          "katecY": 363310,
          "latitude": 35.8684869,
          "longitude": 128.544337,
          "coordinateSource": "katec-converted"
        },
        {
          "id": "A0028484",
          "name": "㈜미니E 직영주유소",
          "brand": "RTO",
          "brandCode": "RTO",
          "price": 1943,
          "address": "경남 창원시 마산회원구 회원동 43-1",
          "roadAddress": "경남 창원시 마산회원구 3.15대로 524",
          "katecX": 452464.98915,
          "katecY": 291495.16461,
          "latitude": 35.2210333,
          "longitude": 128.5741527,
          "coordinateSource": "katec-converted"
        },
        {
          "id": "A0029821",
          "name": "차탄셀프주유소",
          "brand": "SK에너지",
          "brandCode": "SKE",
          "price": 1947,
          "address": "경남 산청군 산청읍 차탄리 703-4",
          "roadAddress": "경남 산청군 산청읍 산청대로 2083",
          "katecX": 388666.489,
          "katecY": 314768.5039,
          "latitude": 35.432117,
          "longitude": 127.8730057,
          "coordinateSource": "katec-converted"
        },
        {
          "id": "A0026102",
          "name": "행운에너지",
          "brand": "SK에너지",
          "brandCode": "SKE",
          "price": 1948,
          "address": "경북 칠곡군 약목면 복성리 639-1",
          "roadAddress": "경북 칠곡군 약목면 칠곡대로 504",
          "katecX": 431892.5353,
          "katecY": 382542.8176,
          "latitude": 36.0425531,
          "longitude": 128.3517493,
          "coordinateSource": "katec-converted"
        },
        {
          "id": "A0013150",
          "name": "충주주유소",
          "brand": "SK에너지",
          "brandCode": "SKE",
          "price": 1949,
          "address": "충북 충주시 봉방동 337-20",
          "roadAddress": "충북 충주시 중원대로 3506 (봉방동)",
          "katecX": 392585.7234,
          "katecY": 485368.4286,
          "latitude": 36.9697393,
          "longitude": 127.9145146,
          "coordinateSource": "katec-converted"
        },
        {
          "id": "A0016058",
          "name": "천안대로셀프",
          "brand": "S-OIL",
          "brandCode": "SOL",
          "price": 1949,
          "address": "충남 천안시 동남구 원성동 11-11",
          "roadAddress": "충남 천안시 동남구 천안대로 727",
          "katecX": 325646.44184,
          "katecY": 468322.85853,
          "latitude": 36.813224,
          "longitude": 127.1644351,
          "coordinateSource": "katec-converted"
        },
        {
          "id": "A0029698",
          "name": "석풍주유소",
          "brand": "RTO",
          "brandCode": "RTO",
          "price": 1949,
          "address": "경남 산청군 신안면 외송리 782-2",
          "roadAddress": "경남 산청군 신안면 산청대로 1169",
          "katecX": 392803.8707,
          "katecY": 307101.1581,
          "latitude": 35.3630427,
          "longitude": 127.9186421,
          "coordinateSource": "katec-converted"
        },
        {
          "id": "A0026124",
          "name": "행복주유소",
          "brand": "SK에너지",
          "brandCode": "SKE",
          "price": 1949,
          "address": "경북 구미시 도량동 390-9",
          "roadAddress": "경북 구미시 송선로 507",
          "katecX": 429256,
          "katecY": 392580,
          "latitude": 36.133099,
          "longitude": 128.3228595,
          "coordinateSource": "katec-converted"
        },
        {
          "id": "A0033247",
          "name": "미니주유소",
          "brand": "RTO",
          "brandCode": "RTO",
          "price": 1950,
          "address": "대구 북구 침산동 25-10",
          "roadAddress": "대구 북구 침산남로 224",
          "katecX": 454359.4543,
          "katecY": 365311.65891,
          "latitude": 35.8862636,
          "longitude": 128.5998983,
          "coordinateSource": "katec-converted"
        },
        {
          "id": "A0026270",
          "name": "이비티에스주유소8",
          "brand": "GS칼텍스",
          "brandCode": "GSC",
          "price": 1950,
          "address": "경북 구미시 도량동 18-2",
          "roadAddress": "경북 구미시 송동로 198",
          "katecX": 429300.90102,
          "katecY": 394470.30191,
          "latitude": 36.1501345,
          "longitude": 128.3234283,
          "coordinateSource": "katec-converted"
        },
        {
          "id": "A0022955",
          "name": "팔공산IC주유소",
          "brand": "S-OIL",
          "brandCode": "SOL",
          "price": 1950,
          "address": "대구 동구 지저동 662-19",
          "roadAddress": "대구 동구 공항로 247",
          "katecX": 458007.5,
          "katecY": 366465.4,
          "latitude": 35.8964533,
          "longitude": 128.6403854,
          "coordinateSource": "katec-converted"
        },
        {
          "id": "A0023133",
          "name": "삼원주유소",
          "brand": "SK에너지",
          "brandCode": "SKE",
          "price": 1950,
          "address": "대구 동구 지저동 667-4",
          "roadAddress": "대구 동구 공항로 241",
          "katecX": 457977.6595,
          "katecY": 366528.10649,
          "latitude": 35.8970202,
          "longitude": 128.6400595,
          "coordinateSource": "katec-converted"
        },
        {
          "id": "A0025373",
          "name": "이비티에스주유소7",
          "brand": "SK에너지",
          "brandCode": "SKE",
          "price": 1950,
          "address": "경북 김천시 아포읍 송천리 1035-1",
          "roadAddress": "경북 김천시 아포대로 1295",
          "katecX": 424372,
          "katecY": 395153,
          "latitude": 36.1564229,
          "longitude": 128.268675,
          "coordinateSource": "katec-converted"
        },
        {
          "id": "A0022913",
          "name": "㈜송라오일뱅크 공항점",
          "brand": "HDO",
          "brandCode": "HDO",
          "price": 1950,
          "address": "대구 동구 지저동 678-6",
          "roadAddress": "대구 동구 공항로 259",
          "katecX": 458057.64177,
          "katecY": 366396.46328,
          "latitude": 35.8958291,
          "longitude": 128.6409358,
          "coordinateSource": "katec-converted"
        },
        {
          "id": "A0026409",
          "name": "(주)제이엠제7주유소지점",
          "brand": "RTO",
          "brandCode": "RTO",
          "price": 1951,
          "address": "경북 칠곡군 왜관읍 금산리 860-1",
          "roadAddress": "경북 칠곡군 왜관읍 강변대로 852",
          "katecX": 436251.17307,
          "katecY": 372691.08649,
          "latitude": 35.9536087,
          "longitude": 128.3996716,
          "coordinateSource": "katec-converted"
        }
      ]
    },
    {
      "regionCode": "ALL",
      "regionName": "전국",
      "fuelCode": "D047",
      "fuelName": "경유",
      "stations": [
        {
          "id": "A0028484",
          "name": "㈜미니E 직영주유소",
          "brand": "RTO",
          "brandCode": "RTO",
          "price": 1933,
          "address": "경남 창원시 마산회원구 회원동 43-1",
          "roadAddress": "경남 창원시 마산회원구 3.15대로 524",
          "katecX": 452464.98915,
          "katecY": 291495.16461,
          "latitude": 35.2210333,
          "longitude": 128.5741527,
          "coordinateSource": "katec-converted"
        },
        {
          "id": "A0024382",
          "name": "청명주유소",
          "brand": "SK에너지",
          "brandCode": "SKE",
          "price": 1935,
          "address": "경북 영천시 고경면 덕암리 52-1",
          "roadAddress": "경북 영천시 고경면 호국로 1529",
          "katecX": 498527.00285,
          "katecY": 377393.99585,
          "latitude": 35.9917057,
          "longitude": 129.0905296,
          "coordinateSource": "katec-converted"
        },
        {
          "id": "A0029821",
          "name": "차탄셀프주유소",
          "brand": "SK에너지",
          "brandCode": "SKE",
          "price": 1937,
          "address": "경남 산청군 산청읍 차탄리 703-4",
          "roadAddress": "경남 산청군 산청읍 산청대로 2083",
          "katecX": 388666.489,
          "katecY": 314768.5039,
          "latitude": 35.432117,
          "longitude": 127.8730057,
          "coordinateSource": "katec-converted"
        },
        {
          "id": "A0023362",
          "name": "㈜다원컴퍼니",
          "brand": "HDO",
          "brandCode": "HDO",
          "price": 1939,
          "address": "대구 서구 중리동 1082-7",
          "roadAddress": "대구 서구 국채보상로 122 (중리동)",
          "katecX": 449354,
          "katecY": 363310,
          "latitude": 35.8684869,
          "longitude": 128.544337,
          "coordinateSource": "katec-converted"
        },
        {
          "id": "A0029698",
          "name": "석풍주유소",
          "brand": "RTO",
          "brandCode": "RTO",
          "price": 1939,
          "address": "경남 산청군 신안면 외송리 782-2",
          "roadAddress": "경남 산청군 신안면 산청대로 1169",
          "katecX": 392803.8707,
          "katecY": 307101.1581,
          "latitude": 35.3630427,
          "longitude": 127.9186421,
          "coordinateSource": "katec-converted"
        },
        {
          "id": "A0023656",
          "name": "기분좋은주유소",
          "brand": "S-OIL",
          "brandCode": "SOL",
          "price": 1939,
          "address": "대구 북구 태전동 625-2",
          "roadAddress": "대구 북구 칠곡중앙대로 290",
          "katecX": 449562.6016,
          "katecY": 369200.9956,
          "latitude": 35.9215712,
          "longitude": 128.547012,
          "coordinateSource": "katec-converted"
        },
        {
          "id": "A0014172",
          "name": "대일종합에너지주유소 태전점",
          "brand": "HDO",
          "brandCode": "HDO",
          "price": 1939,
          "address": "대구 북구 태전동 148-7",
          "roadAddress": "대구 북구 태전로 14 (태전동)",
          "katecX": 449464.77744,
          "katecY": 369233.75327,
          "latitude": 35.9218714,
          "longitude": 128.5459301,
          "coordinateSource": "katec-converted"
        },
        {
          "id": "A0022913",
          "name": "㈜송라오일뱅크 공항점",
          "brand": "HDO",
          "brandCode": "HDO",
          "price": 1940,
          "address": "대구 동구 지저동 678-6",
          "roadAddress": "대구 동구 공항로 259",
          "katecX": 458057.64177,
          "katecY": 366396.46328,
          "latitude": 35.8958291,
          "longitude": 128.6409358,
          "coordinateSource": "katec-converted"
        },
        {
          "id": "A0033247",
          "name": "미니주유소",
          "brand": "RTO",
          "brandCode": "RTO",
          "price": 1940,
          "address": "대구 북구 침산동 25-10",
          "roadAddress": "대구 북구 침산남로 224",
          "katecX": 454359.4543,
          "katecY": 365311.65891,
          "latitude": 35.8862636,
          "longitude": 128.5998983,
          "coordinateSource": "katec-converted"
        },
        {
          "id": "A0023133",
          "name": "삼원주유소",
          "brand": "SK에너지",
          "brandCode": "SKE",
          "price": 1940,
          "address": "대구 동구 지저동 667-4",
          "roadAddress": "대구 동구 공항로 241",
          "katecX": 457977.6595,
          "katecY": 366528.10649,
          "latitude": 35.8970202,
          "longitude": 128.6400595,
          "coordinateSource": "katec-converted"
        },
        {
          "id": "A0026409",
          "name": "(주)제이엠제7주유소지점",
          "brand": "RTO",
          "brandCode": "RTO",
          "price": 1940,
          "address": "경북 칠곡군 왜관읍 금산리 860-1",
          "roadAddress": "경북 칠곡군 왜관읍 강변대로 852",
          "katecX": 436251.17307,
          "katecY": 372691.08649,
          "latitude": 35.9536087,
          "longitude": 128.3996716,
          "coordinateSource": "katec-converted"
        },
        {
          "id": "A0026112",
          "name": "미소가득주유소",
          "brand": "GS칼텍스",
          "brandCode": "GSC",
          "price": 1942,
          "address": "경북 칠곡군 왜관읍 금산리 860-23",
          "roadAddress": "경북 칠곡군 왜관읍 강변대로 830",
          "katecX": 436246.04009,
          "katecY": 372648.04698,
          "latitude": 35.953221,
          "longitude": 128.3996127,
          "coordinateSource": "katec-converted"
        },
        {
          "id": "A0026811",
          "name": "흥국주유소",
          "brand": "HDO",
          "brandCode": "HDO",
          "price": 1942,
          "address": "경북 경산시 와촌면 소월리 73-1",
          "roadAddress": "경북 경산시 와촌면 금송로 377",
          "katecX": 475508.4009,
          "katecY": 371758.1313,
          "latitude": 35.9429629,
          "longitude": 128.8347342,
          "coordinateSource": "katec-converted"
        },
        {
          "id": "A0004808",
          "name": "서울이엔지㈜ 일월주유소",
          "brand": "HDO",
          "brandCode": "HDO",
          "price": 1943,
          "address": "경기 양주시 백석읍 방성리 471-4",
          "roadAddress": "경기 양주시 백석읍 부흥로 1126",
          "katecX": 312834.00301,
          "katecY": 577764.99533,
          "latitude": 37.7981801,
          "longitude": 127.0079814,
          "coordinateSource": "katec-converted"
        },
        {
          "id": "A0018727",
          "name": "차사랑주유소",
          "brand": "HDO",
          "brandCode": "HDO",
          "price": 1944,
          "address": "전북 김제시 백구면 반월리 487-1",
          "roadAddress": "전북 김제시 번영로 2492",
          "katecX": 306873,
          "katecY": 366467,
          "latitude": 35.8937262,
          "longitude": 126.9662584,
          "coordinateSource": "katec-converted"
        },
        {
          "id": "A0022528",
          "name": "청운주유소",
          "brand": "S-OIL",
          "brandCode": "SOL",
          "price": 1944,
          "address": "전북 김제시 용지면 부교리 194-23",
          "roadAddress": "전북 김제시 용지면 콩쥐팥쥐로 717",
          "katecX": 307961.41996,
          "katecY": 357782.39752,
          "latitude": 35.8155645,
          "longitude": 126.9793166,
          "coordinateSource": "katec-converted"
        },
        {
          "id": "A0030597",
          "name": "에이디에너지(주)",
          "brand": "RTO",
          "brandCode": "RTO",
          "price": 1945,
          "address": "경남 김해시 안동 257-21",
          "roadAddress": "경남 김해시 김해대로 2651 (안동)",
          "katecX": 483621,
          "katecY": 292635,
          "latitude": 35.2292002,
          "longitude": 128.9164805,
          "coordinateSource": "katec-converted"
        },
        {
          "id": "A0028323",
          "name": "중리제일주유소",
          "brand": "GS칼텍스",
          "brandCode": "GSC",
          "price": 1945,
          "address": "경남 창원시 마산회원구 내서읍  중리 산 137-4",
          "roadAddress": "경남 창원시 마산회원구 내서읍 함마대로 2843",
          "katecX": 447735.3012,
          "katecY": 294375.7721,
          "latitude": 35.247234,
          "longitude": 128.5223663,
          "coordinateSource": "katec-converted"
        },
        {
          "id": "A0026885",
          "name": "팔공제일주유소",
          "brand": "자가상표",
          "brandCode": "ETC",
          "price": 1945,
          "address": "경북 경산시 와촌면 신한리 198",
          "roadAddress": "경북 경산시 와촌면 새터길 99",
          "katecX": 472086.45912,
          "katecY": 373257.12267,
          "latitude": 35.9567301,
          "longitude": 128.7969451,
          "coordinateSource": "katec-converted"
        },
        {
          "id": "A0026282",
          "name": "강나루주유소",
          "brand": "GS칼텍스",
          "brandCode": "GSC",
          "price": 1945,
          "address": "경북 칠곡군 왜관읍 금산리 859-6",
          "roadAddress": "경북 칠곡군 왜관읍 강변대로 853",
          "katecX": 436196.18097,
          "katecY": 372695.36851,
          "latitude": 35.9536494,
          "longitude": 128.3990621,
          "coordinateSource": "katec-converted"
        }
      ]
    },
    {
      "regionCode": "ALL",
      "regionName": "전국",
      "fuelCode": "K015",
      "fuelName": "LPG",
      "stations": [
        {
          "id": "A0012372",
          "name": "청주LPG충전소",
          "brand": "E1",
          "brandCode": "E1G",
          "price": 969,
          "address": "충북 청주시 흥덕구 지동동 431-2",
          "roadAddress": "충북 청주시 흥덕구 직지대로 231",
          "katecX": 348237.25868,
          "katecY": 449736.7916,
          "latitude": 36.6472441,
          "longitude": 127.4188818,
          "coordinateSource": "katec-converted"
        },
        {
          "id": "A0033408",
          "name": "(주)삼융만남의충전소",
          "brand": "GS칼텍스",
          "brandCode": "GSC",
          "price": 983,
          "address": "충남 천안시 서북구 직산읍 군서리 293-21",
          "roadAddress": "충남 천안시 서북구 직산읍 군삼길 105",
          "katecX": 325026.56778,
          "katecY": 477256.21834,
          "latitude": 36.8936721,
          "longitude": 127.1566044,
          "coordinateSource": "katec-converted"
        },
        {
          "id": "A0015698",
          "name": "번영충전소",
          "brand": "HDO",
          "brandCode": "HDO",
          "price": 984,
          "address": "충남 천안시 서북구 성성동 343-11",
          "roadAddress": "충남 천안시 서북구 2공단1로 10 (성성동)",
          "katecX": 321864,
          "katecY": 471978,
          "latitude": 36.8458544,
          "longitude": 127.1216695,
          "coordinateSource": "katec-converted"
        },
        {
          "id": "A0033504",
          "name": "행복에너지충전소",
          "brand": "SK가스",
          "brandCode": "SKG",
          "price": 989,
          "address": "충북 청주시 흥덕구 외북동 312",
          "roadAddress": "충북 청주시 흥덕구 엘지로 5",
          "katecX": 349697.44137,
          "katecY": 450983.43363,
          "latitude": 36.658557,
          "longitude": 127.4351296,
          "coordinateSource": "katec-converted"
        },
        {
          "id": "A0007594",
          "name": "SK행복충전 조암충전소",
          "brand": "SK가스",
          "brandCode": "SKG",
          "price": 990,
          "address": "경기 화성시 만세구 우정읍 호곡리 89-1",
          "roadAddress": "경기 화성시 만세구 우정읍 호곡길 84",
          "katecX": 292305,
          "katecY": 502668,
          "latitude": 37.119449,
          "longitude": 126.7859044,
          "coordinateSource": "katec-converted"
        },
        {
          "id": "A0016728",
          "name": "대덕밸리LPG충전소",
          "brand": "HDO",
          "brandCode": "HDO",
          "price": 992,
          "address": "대전 대덕구 평촌동 226-5",
          "roadAddress": "대전 대덕구 신탄진로 650",
          "katecX": 348726,
          "katecY": 426309,
          "latitude": 36.436143,
          "longitude": 127.4259106,
          "coordinateSource": "katec-converted"
        },
        {
          "id": "A0016516",
          "name": "신탄진충전소",
          "brand": "SK에너지",
          "brandCode": "SKE",
          "price": 992,
          "address": "대전 대덕구 상서동 349-12",
          "roadAddress": "대전 대덕구 신탄진로 520",
          "katecX": 348227.67743,
          "katecY": 425101.14895,
          "latitude": 36.425231,
          "longitude": 127.4204337,
          "coordinateSource": "katec-converted"
        },
        {
          "id": "A0013658",
          "name": "행복에너지 충전소",
          "brand": "SK에너지",
          "brandCode": "SKE",
          "price": 992,
          "address": "대전 대덕구 연축동 294-2",
          "roadAddress": "대전 대덕구 신탄진로 71",
          "katecX": 348391,
          "katecY": 420900,
          "latitude": 36.3873788,
          "longitude": 127.4225352,
          "coordinateSource": "katec-converted"
        },
        {
          "id": "A0016481",
          "name": "시온가스충전소",
          "brand": "자가상표",
          "brandCode": "ETC",
          "price": 992,
          "address": "대전 대덕구 신탄진동 294-5",
          "roadAddress": "대전 대덕구 신탄진로 737 (신탄진동)",
          "katecX": 349001.18753,
          "katecY": 427082.851,
          "latitude": 36.4431316,
          "longitude": 127.4289287,
          "coordinateSource": "katec-converted"
        },
        {
          "id": "A0003403",
          "name": "성원이앤에스(주)안성지점",
          "brand": "GS칼텍스",
          "brandCode": "GSC",
          "price": 994,
          "address": "경기 안성시 대덕면 모산리 359-13",
          "roadAddress": "경기 안성시 대덕면 안성대로 1284",
          "katecX": 332379.39956,
          "katecY": 492485.30988,
          "latitude": 37.0314562,
          "longitude": 127.2377274,
          "coordinateSource": "katec-converted"
        },
        {
          "id": "A0003238",
          "name": "(유)유성홀딩스 공도충전소",
          "brand": "SK가스",
          "brandCode": "SKG",
          "price": 995,
          "address": "경기 안성시 공도읍 만정리 290-7",
          "roadAddress": "경기 안성시 공도읍 서동대로 4287-12",
          "katecX": 327160.00289,
          "katecY": 489628.99543,
          "latitude": 37.0053277,
          "longitude": 127.1793436,
          "coordinateSource": "katec-converted"
        },
        {
          "id": "A0003035",
          "name": "평화lpg충전소",
          "brand": "SK에너지",
          "brandCode": "SKE",
          "price": 995,
          "address": "경기 안성시 공도읍 승두리 593-6",
          "roadAddress": "경기 안성시 공도읍 서동대로 4068",
          "katecX": 325389.85097,
          "katecY": 488787.01039,
          "latitude": 36.9976017,
          "longitude": 127.1595394,
          "coordinateSource": "katec-converted"
        },
        {
          "id": "A0033217",
          "name": "비봉충전소 ㈜대원에너지",
          "brand": "HDO",
          "brandCode": "HDO",
          "price": 996,
          "address": "경기 안성시 죽산면 장능리 580",
          "roadAddress": "경기 안성시 죽산면 서동대로 6617",
          "katecX": 346078.32881,
          "katecY": 496938.35038,
          "latitude": 37.0724718,
          "longitude": 127.3913741,
          "coordinateSource": "katec-converted"
        },
        {
          "id": "A0010546",
          "name": "녹박재충전소",
          "brand": "자가상표",
          "brandCode": "ETC",
          "price": 996,
          "address": "경기 안성시 죽산면 장릉리 660-4",
          "roadAddress": "경기 안성시 죽산면 서동대로 6516",
          "katecX": 345135.5,
          "katecY": 496570.1,
          "latitude": 37.0690986,
          "longitude": 127.3807985,
          "coordinateSource": "katec-converted"
        },
        {
          "id": "A0018234",
          "name": "오케이완주충전소",
          "brand": "HDO",
          "brandCode": "HDO",
          "price": 997,
          "address": "전북 완주군 상관면 용암리 305-1",
          "roadAddress": "전북 완주군 상관면 춘향로 4082",
          "katecX": 330979,
          "katecY": 346647,
          "latitude": 35.7170976,
          "longitude": 127.2349673,
          "coordinateSource": "katec-converted"
        },
        {
          "id": "A0015652",
          "name": "태양주유소/충전소",
          "brand": "GS칼텍스",
          "brandCode": "GSC",
          "price": 997,
          "address": "충남 천안시 서북구 업성동 484-7",
          "roadAddress": "충남 천안시 서북구 번영로 613",
          "katecX": 322472.53243,
          "katecY": 472805.10875,
          "latitude": 36.8533575,
          "longitude": 127.1284075,
          "coordinateSource": "katec-converted"
        },
        {
          "id": "A0012083",
          "name": "주식회사 삼보에너지",
          "brand": "GS칼텍스",
          "brandCode": "GSC",
          "price": 998,
          "address": "충북 청주시 서원구미평동  229-1",
          "roadAddress": "충북 청주시 서원구 산미로 41",
          "katecX": 352630.88799,
          "katecY": 444684.18745,
          "latitude": 36.6019407,
          "longitude": 127.4683307,
          "coordinateSource": "katec-converted"
        },
        {
          "id": "A0018102",
          "name": "전주유성LPG충전소",
          "brand": "E1",
          "brandCode": "E1G",
          "price": 999,
          "address": "전북 전주시 완산구 색장동 576",
          "roadAddress": "전북 전주시 완산구  춘향로 4981",
          "katecX": 327310,
          "katecY": 354437,
          "latitude": 35.7870412,
          "longitude": 127.1937115,
          "coordinateSource": "katec-converted"
        },
        {
          "id": "A0014504",
          "name": "대광LPG충전소",
          "brand": "SK에너지",
          "brandCode": "SKE",
          "price": 999,
          "address": "전북 전주시 완산구 색장동 857-5",
          "roadAddress": "전북 전주시 완산구 춘향로 4881",
          "katecX": 327786,
          "katecY": 353366,
          "latitude": 35.7774239,
          "longitude": 127.1990734,
          "coordinateSource": "katec-converted"
        },
        {
          "id": "A0033393",
          "name": "(주)조은에너지 편백",
          "brand": "SK가스",
          "brandCode": "SKG",
          "price": 999,
          "address": "전북 완주군 상관면 죽림리 267-1",
          "roadAddress": "전북 완주군 상관면 춘향로 4449",
          "katecX": 329732.6648,
          "katecY": 350026.58834,
          "latitude": 35.7474684,
          "longitude": 127.2208968,
          "coordinateSource": "katec-converted"
        }
      ]
    },
    {
      "regionCode": "01",
      "regionName": "서울",
      "fuelCode": "B027",
      "fuelName": "휘발유",
      "stations": [
        {
          "id": "A0001132",
          "name": "㈜씨더블유 이엔지 금천지점",
          "brand": "HDO",
          "brandCode": "HDO",
          "price": 1961,
          "address": "서울 금천구 시흥동 860-36",
          "roadAddress": "서울 금천구 독산로 147",
          "katecX": 303289.50294,
          "katecY": 540374.09535,
          "latitude": 37.4603639,
          "longitude": 126.9045755,
          "coordinateSource": "katec-converted"
        },
        {
          "id": "A0001164",
          "name": "(주)화동유업 화동주유소",
          "brand": "SK에너지",
          "brandCode": "SKE",
          "price": 1966,
          "address": "서울 금천구 독산동 967",
          "roadAddress": "서울 금천구 시흥대로 484",
          "katecX": 302821.53096,
          "katecY": 542201.78194,
          "latitude": 37.4767808,
          "longitude": 126.8990451,
          "coordinateSource": "katec-converted"
        },
        {
          "id": "A0001086",
          "name": "(주)백운주유소",
          "brand": "RTO",
          "brandCode": "RTO",
          "price": 1967,
          "address": "서울 금천구 독산동 1077-3",
          "roadAddress": "서울 금천구 시흥대로 282",
          "katecX": 302825.0476,
          "katecY": 540202.8721,
          "latitude": 37.4587725,
          "longitude": 126.8993489,
          "coordinateSource": "katec-converted"
        },
        {
          "id": "A0000428",
          "name": "주식회사 새서울글로벌",
          "brand": "HDO",
          "brandCode": "HDO",
          "price": 1969,
          "address": "서울 동작구 신대방동 686-44",
          "roadAddress": "서울 동작구 시흥대로 616 (신대방동)",
          "katecX": 303404.15715,
          "katecY": 543341.8704,
          "latitude": 37.4871133,
          "longitude": 126.9054815,
          "coordinateSource": "katec-converted"
        },
        {
          "id": "A0009932",
          "name": "남성대주유소",
          "brand": "SK에너지",
          "brandCode": "SKE",
          "price": 1973,
          "address": "서울 송파구 장지동 645-13",
          "roadAddress": "서울 송파구 송파대로 52 (장지동)",
          "katecX": 323016.65605,
          "katecY": 541837.69536,
          "latitude": 37.4754072,
          "longitude": 127.127387,
          "coordinateSource": "katec-converted"
        },
        {
          "id": "A0001141",
          "name": "㈜씨더블유이엔지",
          "brand": "HDO",
          "brandCode": "HDO",
          "price": 1976,
          "address": "서울 금천구 독산동 900-4",
          "roadAddress": "서울 금천구 남부순환로 1410 (독산동)",
          "katecX": 303569.4,
          "katecY": 542566.5,
          "latitude": 37.4801451,
          "longitude": 126.9074514,
          "coordinateSource": "katec-converted"
        },
        {
          "id": "A0009610",
          "name": "덕릉로주유소",
          "brand": "S-OIL",
          "brandCode": "SOL",
          "price": 1977,
          "address": "서울 강북구 번동 436-38",
          "roadAddress": "서울 강북구 덕릉로 158 (번동)",
          "katecX": 314697.92876,
          "katecY": 559622.82557,
          "latitude": 37.6349097,
          "longitude": 127.0312742,
          "coordinateSource": "katec-converted"
        },
        {
          "id": "A0032866",
          "name": "경동석유산업㈜ 강서오곡SELF주유소",
          "brand": "SK에너지",
          "brandCode": "SKE",
          "price": 1977,
          "address": "서울 강서구 오곡동 594-1",
          "roadAddress": "서울 강서구 벌말로 254 (오곡동)",
          "katecX": 291371.26835,
          "katecY": 550919.91578,
          "latitude": 37.5540431,
          "longitude": 126.7683212,
          "coordinateSource": "katec-converted"
        },
        {
          "id": "A0009640",
          "name": "(주)자연에너지 번동주유소",
          "brand": "HDO",
          "brandCode": "HDO",
          "price": 1977,
          "address": "서울 강북구 번동 410-95",
          "roadAddress": "서울 강북구 한천로 963 (번동)",
          "katecX": 314838,
          "katecY": 559686,
          "latitude": 37.6354919,
          "longitude": 127.0328536,
          "coordinateSource": "katec-converted"
        },
        {
          "id": "A0001023",
          "name": "㈜자연에너지 남부주유소",
          "brand": "HDO",
          "brandCode": "HDO",
          "price": 1977,
          "address": "서울 양천구 신월4동 525-1",
          "roadAddress": "서울 양천구 남부순환로 553",
          "katecX": 297546.1436,
          "katecY": 546999.2892,
          "latitude": 37.5194307,
          "longitude": 126.838742,
          "coordinateSource": "katec-converted"
        },
        {
          "id": "A0000519",
          "name": "화곡역주유소",
          "brand": "RTO",
          "brandCode": "RTO",
          "price": 1977,
          "address": "서울 강서구 화곡동 1076-14",
          "roadAddress": "서울 강서구 강서로 154 (화곡동)",
          "katecX": 297830.02778,
          "katecY": 549333.51356,
          "latitude": 37.5404911,
          "longitude": 126.8416277,
          "coordinateSource": "katec-converted"
        },
        {
          "id": "A0009641",
          "name": "(주)석산에너지",
          "brand": "HDO",
          "brandCode": "HDO",
          "price": 1977,
          "address": "서울 강북구 수유동 472-211",
          "roadAddress": "서울 강북구 삼양로 316 (수유동)",
          "katecX": 313510.1896,
          "katecY": 559272.5183,
          "latitude": 37.6316425,
          "longitude": 127.0178602,
          "coordinateSource": "katec-converted"
        },
        {
          "id": "A0001015",
          "name": "동일석유㈜개나리주유소",
          "brand": "SK에너지",
          "brandCode": "SKE",
          "price": 1977,
          "address": "서울 양천구 신월동 206-1",
          "roadAddress": "서울 양천구 남부순환로 442 (신월동)",
          "katecX": 297042.8987,
          "katecY": 548004.3926,
          "latitude": 37.5284295,
          "longitude": 126.832909,
          "coordinateSource": "katec-converted"
        },
        {
          "id": "A0009678",
          "name": "북서울고속주유소",
          "brand": "SK에너지",
          "brandCode": "SKE",
          "price": 1977,
          "address": "서울 강북구 수유동 392",
          "roadAddress": "서울 강북구 삼양로 410 (수유동)",
          "katecX": 313458.33212,
          "katecY": 560213.64206,
          "latitude": 37.6401164,
          "longitude": 127.0171611,
          "coordinateSource": "katec-converted"
        },
        {
          "id": "A0000549",
          "name": "이케이에너지(주) 강서주유소",
          "brand": "HDO",
          "brandCode": "HDO",
          "price": 1977,
          "address": "서울 강서구 화곡동 983-1",
          "roadAddress": "서울 강서구 화곡로 273 (화곡동)",
          "katecX": 298318.039,
          "katecY": 550276.2648,
          "latitude": 37.5490384,
          "longitude": 126.8470181,
          "coordinateSource": "katec-converted"
        },
        {
          "id": "A0000011",
          "name": "이케이에너지(주) 무산주유소",
          "brand": "HDO",
          "brandCode": "HDO",
          "price": 1977,
          "address": "서울 양천구 신정3동 1294-6",
          "roadAddress": "서울 양천구 신정로 236",
          "katecX": 298323.406,
          "katecY": 546013.55295,
          "latitude": 37.5106363,
          "longitude": 126.8476698,
          "coordinateSource": "katec-converted"
        },
        {
          "id": "A0000189",
          "name": "(주)서울에너지 시민주유소",
          "brand": "HDO",
          "brandCode": "HDO",
          "price": 1977,
          "address": "서울 강북구 수유동 440-36",
          "roadAddress": "서울 강북구 인수봉로 185 (수유동)",
          "katecX": 313067,
          "katecY": 559776,
          "latitude": 37.6361366,
          "longitude": 127.0127796,
          "coordinateSource": "katec-converted"
        },
        {
          "id": "A0001005",
          "name": "현대주유소",
          "brand": "S-OIL",
          "brandCode": "SOL",
          "price": 1977,
          "address": "서울 양천구 신월동 167-1",
          "roadAddress": "서울 양천구 남부순환로 372 (신월동)",
          "katecX": 296738.3507,
          "katecY": 548590.8561,
          "latitude": 37.5336788,
          "longitude": 126.8293814,
          "coordinateSource": "katec-converted"
        },
        {
          "id": "A0009421",
          "name": "(주)자연에너지 중원주유소",
          "brand": "HDO",
          "brandCode": "HDO",
          "price": 1978,
          "address": "서울 광진구 중곡동 235-2",
          "roadAddress": "서울 광진구 동일로 398 (중곡동)",
          "katecX": 318704.3461,
          "katecY": 551889.0392,
          "latitude": 37.5655961,
          "longitude": 127.0775229,
          "coordinateSource": "katec-converted"
        },
        {
          "id": "A0009158",
          "name": "면목SELF주유소",
          "brand": "SK에너지",
          "brandCode": "SKE",
          "price": 1978,
          "address": "서울 중랑구 면목동 175-1",
          "roadAddress": "서울 중랑구 동일로 627 (면목동)",
          "katecX": 318904.9,
          "katecY": 554183.5,
          "latitude": 37.5862858,
          "longitude": 127.0795384,
          "coordinateSource": "katec-converted"
        }
      ]
    },
    {
      "regionCode": "01",
      "regionName": "서울",
      "fuelCode": "D047",
      "fuelName": "경유",
      "stations": [
        {
          "id": "A0009932",
          "name": "남성대주유소",
          "brand": "SK에너지",
          "brandCode": "SKE",
          "price": 1963,
          "address": "서울 송파구 장지동 645-13",
          "roadAddress": "서울 송파구 송파대로 52 (장지동)",
          "katecX": 323016.65605,
          "katecY": 541837.69536,
          "latitude": 37.4754072,
          "longitude": 127.127387,
          "coordinateSource": "katec-converted"
        },
        {
          "id": "A0001132",
          "name": "㈜씨더블유 이엔지 금천지점",
          "brand": "HDO",
          "brandCode": "HDO",
          "price": 1969,
          "address": "서울 금천구 시흥동 860-36",
          "roadAddress": "서울 금천구 독산로 147",
          "katecX": 303289.50294,
          "katecY": 540374.09535,
          "latitude": 37.4603639,
          "longitude": 126.9045755,
          "coordinateSource": "katec-converted"
        },
        {
          "id": "A0009272",
          "name": "(주)연우에너지 신관주유소",
          "brand": "RTO",
          "brandCode": "RTO",
          "price": 1974,
          "address": "서울 관악구 신림동 1641-58",
          "roadAddress": "서울 관악구 신림로 290 (신림동)",
          "katecX": 305616.56394,
          "katecY": 542563.88518,
          "latitude": 37.4803333,
          "longitude": 126.9305948,
          "coordinateSource": "katec-converted"
        },
        {
          "id": "A0001164",
          "name": "(주)화동유업 화동주유소",
          "brand": "SK에너지",
          "brandCode": "SKE",
          "price": 1974,
          "address": "서울 금천구 독산동 967",
          "roadAddress": "서울 금천구 시흥대로 484",
          "katecX": 302821.53096,
          "katecY": 542201.78194,
          "latitude": 37.4767808,
          "longitude": 126.8990451,
          "coordinateSource": "katec-converted"
        },
        {
          "id": "A0009411",
          "name": "㈜동화오일 대원주유소",
          "brand": "GS칼텍스",
          "brandCode": "GSC",
          "price": 1975,
          "address": "서울 광진구 중곡4동 18-70",
          "roadAddress": "서울 광진구 용마산로 122 (중곡동)",
          "katecX": 319532.5163,
          "katecY": 551757.6597,
          "latitude": 37.5644852,
          "longitude": 127.0869109,
          "coordinateSource": "katec-converted"
        },
        {
          "id": "A0009421",
          "name": "(주)자연에너지 중원주유소",
          "brand": "HDO",
          "brandCode": "HDO",
          "price": 1975,
          "address": "서울 광진구 중곡동 235-2",
          "roadAddress": "서울 광진구 동일로 398 (중곡동)",
          "katecX": 318704.3461,
          "katecY": 551889.0392,
          "latitude": 37.5655961,
          "longitude": 127.0775229,
          "coordinateSource": "katec-converted"
        },
        {
          "id": "A0009138",
          "name": "우림주유소",
          "brand": "GS칼텍스",
          "brandCode": "GSC",
          "price": 1975,
          "address": "서울 중랑구 망우3동 458-6",
          "roadAddress": "서울 중랑구 용마산로 487 (망우제3동)",
          "katecX": 320658.8,
          "katecY": 555087.9,
          "latitude": 37.5945873,
          "longitude": 127.0992971,
          "coordinateSource": "katec-converted"
        },
        {
          "id": "A0009232",
          "name": "(주)자연에너지 국민주유소",
          "brand": "HDO",
          "brandCode": "HDO",
          "price": 1975,
          "address": "서울 동대문구 답십리동 3-39",
          "roadAddress": "서울 동대문구 답십리로 223 (답십리동)",
          "katecX": 317607,
          "katecY": 552712,
          "latitude": 37.5729128,
          "longitude": 127.0650101,
          "coordinateSource": "katec-converted"
        },
        {
          "id": "A0009203",
          "name": "(주)자연에너지 대창주유소",
          "brand": "HDO",
          "brandCode": "HDO",
          "price": 1975,
          "address": "서울 중랑구 면목동 146-72",
          "roadAddress": "서울 중랑구 동일로 636 (면목동)",
          "katecX": 318960.8459,
          "katecY": 554281.8434,
          "latitude": 37.5871768,
          "longitude": 127.0801609,
          "coordinateSource": "katec-converted"
        },
        {
          "id": "A0009217",
          "name": "구도일주유소 동천",
          "brand": "S-OIL",
          "brandCode": "SOL",
          "price": 1975,
          "address": "서울 중랑구 면목동 145-56",
          "roadAddress": "서울 중랑구 동일로 654 (면목동)",
          "katecX": 318973,
          "katecY": 554471,
          "latitude": 37.5888821,
          "longitude": 127.0802776,
          "coordinateSource": "katec-converted"
        },
        {
          "id": "A0001086",
          "name": "(주)백운주유소",
          "brand": "RTO",
          "brandCode": "RTO",
          "price": 1975,
          "address": "서울 금천구 독산동 1077-3",
          "roadAddress": "서울 금천구 시흥대로 282",
          "katecX": 302825.0476,
          "katecY": 540202.8721,
          "latitude": 37.4587725,
          "longitude": 126.8993489,
          "coordinateSource": "katec-converted"
        },
        {
          "id": "A0009130",
          "name": "대양주유소",
          "brand": "GS칼텍스",
          "brandCode": "GSC",
          "price": 1975,
          "address": "서울 중랑구 상봉동 109-45",
          "roadAddress": "서울 중랑구 봉우재로 105 (상봉동)",
          "katecX": 319385.39286,
          "katecY": 554867.31665,
          "latitude": 37.592489,
          "longitude": 127.0849029,
          "coordinateSource": "katec-converted"
        },
        {
          "id": "A0009158",
          "name": "면목SELF주유소",
          "brand": "SK에너지",
          "brandCode": "SKE",
          "price": 1975,
          "address": "서울 중랑구 면목동 175-1",
          "roadAddress": "서울 중랑구 동일로 627 (면목동)",
          "katecX": 318904.9,
          "katecY": 554183.5,
          "latitude": 37.5862858,
          "longitude": 127.0795384,
          "coordinateSource": "katec-converted"
        },
        {
          "id": "A0009180",
          "name": "대원주유소",
          "brand": "GS칼텍스",
          "brandCode": "GSC",
          "price": 1975,
          "address": "서울 중랑구 면목동 161-17",
          "roadAddress": "서울 중랑구 동일로 600",
          "katecX": 318949.33634,
          "katecY": 553926.04177,
          "latitude": 37.5839702,
          "longitude": 127.0800701,
          "coordinateSource": "katec-converted"
        },
        {
          "id": "A0002227",
          "name": "(주)태영 구도일주유소 한인",
          "brand": "S-OIL",
          "brandCode": "SOL",
          "price": 1975,
          "address": "서울 중랑구 상봉동 137-8",
          "roadAddress": "서울 중랑구 망우로 170",
          "katecX": 318236.7,
          "katecY": 554871.8,
          "latitude": 37.5924279,
          "longitude": 127.0718964,
          "coordinateSource": "katec-converted"
        },
        {
          "id": "A0000856",
          "name": "씨앤에스유통(주) 구로드림주유소",
          "brand": "S-OIL",
          "brandCode": "SOL",
          "price": 1976,
          "address": "서울 구로구 온수동 35-3",
          "roadAddress": "서울 구로구 경인로 41 (온수동)",
          "katecX": 296439,
          "katecY": 543853,
          "latitude": 37.4909622,
          "longitude": 126.8266633,
          "coordinateSource": "katec-converted"
        },
        {
          "id": "A0000549",
          "name": "이케이에너지(주) 강서주유소",
          "brand": "HDO",
          "brandCode": "HDO",
          "price": 1976,
          "address": "서울 강서구 화곡동 983-1",
          "roadAddress": "서울 강서구 화곡로 273 (화곡동)",
          "katecX": 298318.039,
          "katecY": 550276.2648,
          "latitude": 37.5490384,
          "longitude": 126.8470181,
          "coordinateSource": "katec-converted"
        },
        {
          "id": "A0000519",
          "name": "화곡역주유소",
          "brand": "RTO",
          "brandCode": "RTO",
          "price": 1976,
          "address": "서울 강서구 화곡동 1076-14",
          "roadAddress": "서울 강서구 강서로 154 (화곡동)",
          "katecX": 297830.02778,
          "katecY": 549333.51356,
          "latitude": 37.5404911,
          "longitude": 126.8416277,
          "coordinateSource": "katec-converted"
        },
        {
          "id": "A0001005",
          "name": "현대주유소",
          "brand": "S-OIL",
          "brandCode": "SOL",
          "price": 1976,
          "address": "서울 양천구 신월동 167-1",
          "roadAddress": "서울 양천구 남부순환로 372 (신월동)",
          "katecX": 296738.3507,
          "katecY": 548590.8561,
          "latitude": 37.5336788,
          "longitude": 126.8293814,
          "coordinateSource": "katec-converted"
        },
        {
          "id": "A0032712",
          "name": "개봉주유소",
          "brand": "HDO",
          "brandCode": "HDO",
          "price": 1976,
          "address": "서울 구로구 개봉동 92-4",
          "roadAddress": "서울 구로구 고척로 115 (개봉동)",
          "katecX": 298236.7293,
          "katecY": 545036.2098,
          "latitude": 37.5018219,
          "longitude": 126.846825,
          "coordinateSource": "katec-converted"
        }
      ]
    },
    {
      "regionCode": "01",
      "regionName": "서울",
      "fuelCode": "K015",
      "fuelName": "LPG",
      "stations": [
        {
          "id": "A0032953",
          "name": "한경에너지",
          "brand": "SK에너지",
          "brandCode": "SKE",
          "price": 1087,
          "address": "서울 강서구 개화동 215-6",
          "roadAddress": "서울 강서구 개화동로 255",
          "katecX": 294104.61392,
          "katecY": 554571.18999,
          "latitude": 37.5872551,
          "longitude": 126.7987223,
          "coordinateSource": "katec-converted"
        },
        {
          "id": "A0000481",
          "name": "강서충전소",
          "brand": "SK가스",
          "brandCode": "SKG",
          "price": 1116,
          "address": "서울 강서구 오곡동 593-2",
          "roadAddress": "서울 강서구 벌말로 266",
          "katecX": 291406.00294,
          "katecY": 551023.99532,
          "latitude": 37.5549848,
          "longitude": 126.7686988,
          "coordinateSource": "katec-converted"
        },
        {
          "id": "A0000559",
          "name": "오곡동충전소",
          "brand": "E1",
          "brandCode": "E1G",
          "price": 1116,
          "address": "서울 강서구 오곡동 699-14",
          "roadAddress": "서울 강서구 벌말로 271 (오곡동)",
          "katecX": 291362.00588,
          "katecY": 551107.99064,
          "latitude": 37.5557363,
          "longitude": 126.7681885,
          "coordinateSource": "katec-converted"
        },
        {
          "id": "A0033750",
          "name": "강남세곡충전소 셀프세차장㈜",
          "brand": "SK에너지",
          "brandCode": "SKE",
          "price": 1152,
          "address": "서울 강남구 세곡동 34-3",
          "roadAddress": "서울 강남구 헌릉로 717",
          "katecX": 322120.86079,
          "katecY": 540867.46644,
          "latitude": 37.4665904,
          "longitude": 127.1173629,
          "coordinateSource": "katec-converted"
        },
        {
          "id": "A0000291",
          "name": "양평동충전소",
          "brand": "SK가스",
          "brandCode": "SKG",
          "price": 1155,
          "address": "서울 영등포구 양평동3가 59",
          "roadAddress": "서울 영등포구 선유로 157",
          "katecX": 302183.00295,
          "katecY": 547885.99534,
          "latitude": 37.5279232,
          "longitude": 126.8910698,
          "coordinateSource": "katec-converted"
        },
        {
          "id": "A0011826",
          "name": "㈜에이치앤디이 만남의광장주유소",
          "brand": "GS칼텍스",
          "brandCode": "GSC",
          "price": 1157,
          "address": "서울 서초구 원지동 10-16",
          "roadAddress": "서울 서초구 양재대로12길 73-71",
          "katecX": 315535.76499,
          "katecY": 540150.38545,
          "latitude": 37.4595503,
          "longitude": 127.0430113,
          "coordinateSource": "katec-converted"
        },
        {
          "id": "A0010082",
          "name": "태능가스(주)",
          "brand": "S-OIL",
          "brandCode": "SOL",
          "price": 1165,
          "address": "서울 노원구 공릉동 690-11",
          "roadAddress": "서울 노원구 화랑로 405 (공릉동)",
          "katecX": 318316,
          "katecY": 557588,
          "latitude": 37.6169065,
          "longitude": 127.0724905,
          "coordinateSource": "katec-converted"
        },
        {
          "id": "A0012841",
          "name": "(주)평안에너지 도봉충전소",
          "brand": "E1",
          "brandCode": "E1G",
          "price": 1165,
          "address": "서울 도봉구 도봉동 376",
          "roadAddress": "서울 도봉구 도봉로 983 (도봉동)",
          "katecX": 315939.24421,
          "katecY": 565987.46091,
          "latitude": 37.6923655,
          "longitude": 127.0446021,
          "coordinateSource": "katec-converted"
        },
        {
          "id": "A0009683",
          "name": "한영가스충전소",
          "brand": "GS칼텍스",
          "brandCode": "GSC",
          "price": 1165,
          "address": "서울 도봉구 쌍문동 715-1",
          "roadAddress": "서울 도봉구 도봉로 627",
          "katecX": 315616.83397,
          "katecY": 562454.54833,
          "latitude": 37.6605067,
          "longitude": 127.0413564,
          "coordinateSource": "katec-converted"
        },
        {
          "id": "A0010145",
          "name": "(주)평안에너지 상계충전소",
          "brand": "E1",
          "brandCode": "E1G",
          "price": 1165,
          "address": "서울 노원구 중계동 515-5",
          "roadAddress": "서울 노원구 동일로210길 86 (중계동)",
          "katecX": 317868,
          "katecY": 561177,
          "latitude": 37.6492014,
          "longitude": 127.0670122,
          "coordinateSource": "katec-converted"
        },
        {
          "id": "A0010132",
          "name": "복지공릉충전소 ㈜서울개인택시복지법인",
          "brand": "E1",
          "brandCode": "E1G",
          "price": 1166,
          "address": "서울 노원구 공릉동 26-69",
          "roadAddress": "서울 노원구 화랑로 826",
          "katecX": 321612,
          "katecY": 559996,
          "latitude": 37.638889,
          "longitude": 127.1095629,
          "coordinateSource": "katec-converted"
        },
        {
          "id": "A0010129",
          "name": "SK행복충전 노일가스충전소",
          "brand": "SK가스",
          "brandCode": "SKG",
          "price": 1167,
          "address": "서울 노원구 상계동 1034-1",
          "roadAddress": "서울 노원구 동일로 1601 (상계동)",
          "katecX": 316881.3,
          "katecY": 563646,
          "latitude": 37.6713565,
          "longitude": 127.0555502,
          "coordinateSource": "katec-converted"
        },
        {
          "id": "A0009491",
          "name": "SK행복충전 장위가스충전소",
          "brand": "SK가스",
          "brandCode": "SKG",
          "price": 1167,
          "address": "서울 성북구 장위3동44-3",
          "roadAddress": "서울 성북구 화랑로 291 (장위동)",
          "katecX": 317260,
          "katecY": 557194,
          "latitude": 37.6132622,
          "longitude": 127.0605748,
          "coordinateSource": "katec-converted"
        },
        {
          "id": "A0001874",
          "name": "복지강북충전소 ㈜서울개인택시복지법인",
          "brand": "GS칼텍스",
          "brandCode": "GSC",
          "price": 1167,
          "address": "서울 도봉구 창동 643-2",
          "roadAddress": "서울특별시 도봉구 도봉로 430 (창동)",
          "katecX": 314819,
          "katecY": 560656,
          "latitude": 37.6442292,
          "longitude": 127.0325251,
          "coordinateSource": "katec-converted"
        },
        {
          "id": "A0009627",
          "name": "SK행복충전 서울와사공업충전소",
          "brand": "SK가스",
          "brandCode": "SKG",
          "price": 1167,
          "address": "서울 강북구 번동 446-31",
          "roadAddress": "서울 강북구 도봉로 318 (번동)",
          "katecX": 314101.6,
          "katecY": 559768.7,
          "latitude": 37.6361683,
          "longitude": 127.0245014,
          "coordinateSource": "katec-converted"
        },
        {
          "id": "A0009625",
          "name": "국제가스공업(주)",
          "brand": "SK에너지",
          "brandCode": "SKE",
          "price": 1167,
          "address": "서울 강북구 수유동 48-83",
          "roadAddress": "서울 강북구 덕릉로 70",
          "katecX": 313864,
          "katecY": 559556,
          "latitude": 37.6342297,
          "longitude": 127.0218347,
          "coordinateSource": "katec-converted"
        },
        {
          "id": "A0009630",
          "name": "SK행복충전 청학에너지충전소",
          "brand": "SK가스",
          "brandCode": "SKG",
          "price": 1167,
          "address": "서울 강북구 번3동 267",
          "roadAddress": "서울 강북구 한천로 833 (번동)",
          "katecX": 315808.2,
          "katecY": 558866.3,
          "latitude": 37.6281965,
          "longitude": 127.0439395,
          "coordinateSource": "katec-converted"
        },
        {
          "id": "A0009165",
          "name": "복지장안충전소 ㈜서울개인택시복지법인",
          "brand": "SK가스",
          "brandCode": "SKG",
          "price": 1168,
          "address": "서울 동대문구 답십리동 1-478",
          "roadAddress": "서울 동대문구 한천로 169",
          "katecX": 317796,
          "katecY": 553070,
          "latitude": 37.5761552,
          "longitude": 127.0671092,
          "coordinateSource": "katec-converted"
        },
        {
          "id": "A0009243",
          "name": "장안동가스충전소",
          "brand": "E1",
          "brandCode": "E1G",
          "price": 1168,
          "address": "서울 동대문구 장안동 413-6",
          "roadAddress": "서울 동대문구 천호대로 353 (장안동)",
          "katecX": 317038.6,
          "katecY": 551599.6,
          "latitude": 37.5628395,
          "longitude": 127.0587023,
          "coordinateSource": "katec-converted"
        },
        {
          "id": "A0010133",
          "name": "복지노원충전소 ㈜서울개인택시복지법인",
          "brand": "E1",
          "brandCode": "E1G",
          "price": 1168,
          "address": "서울 노원구 상계동 1205-8",
          "roadAddress": "서울 노원구 동일로 1778",
          "katecX": 316922.45561,
          "katecY": 565391.24963,
          "latitude": 37.6870838,
          "longitude": 127.0558174,
          "coordinateSource": "katec-converted"
        }
      ]
    },
    {
      "regionCode": "02",
      "regionName": "경기",
      "fuelCode": "B027",
      "fuelName": "휘발유",
      "stations": [
        {
          "id": "A0007872",
          "name": "수현주유소",
          "brand": "GS칼텍스",
          "brandCode": "GSC",
          "price": 1934,
          "address": "경기 김포시 월곶면 갈산리 466-14",
          "roadAddress": "경기 김포시 월곶면 김포대로 2553",
          "katecX": 273898,
          "katecY": 567666,
          "latitude": 37.7026607,
          "longitude": 126.5677214,
          "coordinateSource": "katec-converted"
        },
        {
          "id": "A0004494",
          "name": "(주)제이와이페트로",
          "brand": "SK에너지",
          "brandCode": "SKE",
          "price": 1959,
          "address": "경기 양주시 백석읍 오산리 456-7",
          "roadAddress": "경기 양주시 백석읍 중앙로 308",
          "katecX": 310363,
          "katecY": 577907,
          "latitude": 37.7992198,
          "longitude": 126.9799093,
          "coordinateSource": "katec-converted"
        },
        {
          "id": "A0004808",
          "name": "서울이엔지㈜ 일월주유소",
          "brand": "HDO",
          "brandCode": "HDO",
          "price": 1961,
          "address": "경기 양주시 백석읍 방성리 471-4",
          "roadAddress": "경기 양주시 백석읍 부흥로 1126",
          "katecX": 312834.00301,
          "katecY": 577764.99533,
          "latitude": 37.7981801,
          "longitude": 127.0079814,
          "coordinateSource": "katec-converted"
        },
        {
          "id": "A0006122",
          "name": "㈜원흥.양주지점 제이앤에스",
          "brand": "HDO",
          "brandCode": "HDO",
          "price": 1961,
          "address": "경기 양주시 산북동 198-3",
          "roadAddress": "경기 양주시 평화로 1107 (산북동)",
          "katecX": 316375.4981,
          "katecY": 576840.0958,
          "latitude": 37.7901792,
          "longitude": 127.0482971,
          "coordinateSource": "katec-converted"
        },
        {
          "id": "A0005030",
          "name": "(주)교현 알뜰주유소",
          "brand": "RTO",
          "brandCode": "RTO",
          "price": 1961,
          "address": "경기 양주시 장흥면 교현리 333-3",
          "roadAddress": "경기 양주시 장흥면 북한산로 863",
          "katecX": 309314,
          "katecY": 566778,
          "latitude": 37.698855,
          "longitude": 126.9693909,
          "coordinateSource": "katec-converted"
        },
        {
          "id": "A0004417",
          "name": "KH에너지㈜직영 대복주유소",
          "brand": "자가상표",
          "brandCode": "ETC",
          "price": 1961,
          "address": "경기 양주시 광사동 401",
          "roadAddress": "경기 양주시 부흥로 1807",
          "katecX": 318243,
          "katecY": 576398,
          "latitude": 37.7863656,
          "longitude": 127.0695478,
          "coordinateSource": "katec-converted"
        },
        {
          "id": "A0004826",
          "name": "하나셀프주유소",
          "brand": "GS칼텍스",
          "brandCode": "GSC",
          "price": 1963,
          "address": "경기 양주시 백석읍 방성리 86-3",
          "roadAddress": "경기 양주시 백석읍 부흥로 1024",
          "katecX": 312246,
          "katecY": 578576,
          "latitude": 37.80543,
          "longitude": 127.0012071,
          "coordinateSource": "katec-converted"
        },
        {
          "id": "A0017725",
          "name": "광적주유소",
          "brand": "S-OIL",
          "brandCode": "SOL",
          "price": 1963,
          "address": "경기 양주시 광적면 가납리 444-25",
          "roadAddress": "경기 양주시 광적면 부흥로 917",
          "katecX": 311466.46291,
          "katecY": 579265.73919,
          "latitude": 37.8115684,
          "longitude": 126.9922713,
          "coordinateSource": "katec-converted"
        },
        {
          "id": "A0005003",
          "name": "(주)어하둥둥알뜰주유소",
          "brand": "RTO",
          "brandCode": "RTO",
          "price": 1963,
          "address": "경기 양주시 유양동 612-4",
          "roadAddress": "경기 양주시 부흥로 1300",
          "katecX": 313875.60453,
          "katecY": 576535.82059,
          "latitude": 37.7872053,
          "longitude": 127.0199536,
          "coordinateSource": "katec-converted"
        },
        {
          "id": "A0004712",
          "name": "㈜신원",
          "brand": "HDO",
          "brandCode": "HDO",
          "price": 1963,
          "address": "경기 양주시 백석읍 오산리 521-1",
          "roadAddress": "경기 양주시 백석읍 중앙로 246",
          "katecX": 310934,
          "katecY": 577676,
          "latitude": 37.7971947,
          "longitude": 126.9864207,
          "coordinateSource": "katec-converted"
        },
        {
          "id": "A0004822",
          "name": "카이에너지㈜ 복지주유소",
          "brand": "SK에너지",
          "brandCode": "SKE",
          "price": 1965,
          "address": "경기 양주시 백석읍 복지리 197-3",
          "roadAddress": "경기 양주시 백석읍 중앙로 175",
          "katecX": 311424.14242,
          "katecY": 577192.14209,
          "latitude": 37.7928834,
          "longitude": 126.9920446,
          "coordinateSource": "katec-converted"
        },
        {
          "id": "A0009185",
          "name": "무지내주유소",
          "brand": "RTO",
          "brandCode": "RTO",
          "price": 1968,
          "address": "경기 시흥시 무지내동 277-1",
          "roadAddress": "경기 시흥시  금오로 144 (무지내동)",
          "katecX": 297552,
          "katecY": 535584,
          "latitude": 37.4165906,
          "longitude": 126.8403979,
          "coordinateSource": "katec-converted"
        },
        {
          "id": "A0033684",
          "name": "희망주유소",
          "brand": "HDO",
          "brandCode": "HDO",
          "price": 1968,
          "address": "경기 화성시 효행구 봉담읍 덕리 284-4",
          "roadAddress": "경기 화성시 효행구 봉담읍 삼천병마로 649",
          "katecX": 305426.85082,
          "katecY": 507735.2792,
          "latitude": 37.1665243,
          "longitude": 126.9328965,
          "coordinateSource": "katec-converted"
        },
        {
          "id": "A0004529",
          "name": "씨앤에스유통㈜ 장암IC주유소",
          "brand": "S-OIL",
          "brandCode": "SOL",
          "price": 1968,
          "address": "경기 의정부시 신곡동 266-9외10",
          "roadAddress": "경기 의정부시 금신로 30 (신곡동)",
          "katecX": 317604.2,
          "katecY": 569471.1,
          "latitude": 37.7239021,
          "longitude": 127.0630836,
          "coordinateSource": "katec-converted"
        },
        {
          "id": "A0002511",
          "name": "경진셀프주유소",
          "brand": "SK에너지",
          "brandCode": "SKE",
          "price": 1968,
          "address": "경기 수원시 장안구 파장동 585-4",
          "roadAddress": "경기 수원시 장안구 경수대로 1059",
          "katecX": 311212.00293,
          "katecY": 523376.99537,
          "latitude": 37.3080225,
          "longitude": 126.9961602,
          "coordinateSource": "katec-converted"
        },
        {
          "id": "A0007006",
          "name": "㈜현 유니콘주유소",
          "brand": "HDO",
          "brandCode": "HDO",
          "price": 1968,
          "address": "경기 평택시 현덕면 권관리 919-10",
          "roadAddress": "경기 평택시 현덕면 서해로 399",
          "katecX": 303570.64463,
          "katecY": 482224.76664,
          "latitude": 36.9364871,
          "longitude": 126.9152756,
          "coordinateSource": "katec-converted"
        },
        {
          "id": "A0002506",
          "name": "대신self주유소",
          "brand": "HDO",
          "brandCode": "HDO",
          "price": 1968,
          "address": "경기 수원시 장안구 송죽동 440-4",
          "roadAddress": "경기 수원시 장안구  경수대로 1011",
          "katecX": 311624,
          "katecY": 523160,
          "latitude": 37.3061068,
          "longitude": 127.0008331,
          "coordinateSource": "katec-converted"
        },
        {
          "id": "A0002260",
          "name": "㈜성인석유 거창주유소",
          "brand": "HDO",
          "brandCode": "HDO",
          "price": 1968,
          "address": "경기 화성시 만세구 팔탄면 구장리 846-1",
          "roadAddress": "경기 화성시 만세구 팔탄면 마당바위로 113",
          "katecX": 303357,
          "katecY": 507212.8,
          "latitude": 37.1616048,
          "longitude": 126.9096617,
          "coordinateSource": "katec-converted"
        },
        {
          "id": "A0007545",
          "name": "동일석유㈜금호주유소",
          "brand": "SK에너지",
          "brandCode": "SKE",
          "price": 1968,
          "address": "경기 수원시 장안구 조원동 774-28",
          "roadAddress": "경기 수원시 장안구 경수대로 852 (조원동)",
          "katecX": 312849,
          "katecY": 522132,
          "latitude": 37.2969605,
          "longitude": 127.0147709,
          "coordinateSource": "katec-converted"
        },
        {
          "id": "A0004155",
          "name": "광신직영(랜드마크셀프)",
          "brand": "S-OIL",
          "brandCode": "SOL",
          "price": 1968,
          "address": "경기 이천시 모가면 어농리 61-1",
          "roadAddress": "경기 이천시 모가면 사실로 878",
          "katecX": 350559.32839,
          "katecY": 509973.36797,
          "latitude": 37.1901778,
          "longitude": 127.440902,
          "coordinateSource": "katec-converted"
        }
      ]
    },
    {
      "regionCode": "02",
      "regionName": "경기",
      "fuelCode": "D047",
      "fuelName": "경유",
      "stations": [
        {
          "id": "A0004808",
          "name": "서울이엔지㈜ 일월주유소",
          "brand": "HDO",
          "brandCode": "HDO",
          "price": 1943,
          "address": "경기 양주시 백석읍 방성리 471-4",
          "roadAddress": "경기 양주시 백석읍 부흥로 1126",
          "katecX": 312834.00301,
          "katecY": 577764.99533,
          "latitude": 37.7981801,
          "longitude": 127.0079814,
          "coordinateSource": "katec-converted"
        },
        {
          "id": "A0004826",
          "name": "하나셀프주유소",
          "brand": "GS칼텍스",
          "brandCode": "GSC",
          "price": 1945,
          "address": "경기 양주시 백석읍 방성리 86-3",
          "roadAddress": "경기 양주시 백석읍 부흥로 1024",
          "katecX": 312246,
          "katecY": 578576,
          "latitude": 37.80543,
          "longitude": 127.0012071,
          "coordinateSource": "katec-converted"
        },
        {
          "id": "A0004627",
          "name": "석우리주유소",
          "brand": "S-OIL",
          "brandCode": "SOL",
          "price": 1949,
          "address": "경기 양주시 광적면 석우리 441-9",
          "roadAddress": "경기 양주시 광적면 광적로 192",
          "katecX": 310089,
          "katecY": 581873,
          "latitude": 37.8349221,
          "longitude": 126.9763051,
          "coordinateSource": "katec-converted"
        },
        {
          "id": "A0005030",
          "name": "(주)교현 알뜰주유소",
          "brand": "RTO",
          "brandCode": "RTO",
          "price": 1951,
          "address": "경기 양주시 장흥면 교현리 333-3",
          "roadAddress": "경기 양주시 장흥면 북한산로 863",
          "katecX": 309314,
          "katecY": 566778,
          "latitude": 37.698855,
          "longitude": 126.9693909,
          "coordinateSource": "katec-converted"
        },
        {
          "id": "A0004417",
          "name": "KH에너지㈜직영 대복주유소",
          "brand": "자가상표",
          "brandCode": "ETC",
          "price": 1951,
          "address": "경기 양주시 광사동 401",
          "roadAddress": "경기 양주시 부흥로 1807",
          "katecX": 318243,
          "katecY": 576398,
          "latitude": 37.7863656,
          "longitude": 127.0695478,
          "coordinateSource": "katec-converted"
        },
        {
          "id": "A0006122",
          "name": "㈜원흥.양주지점 제이앤에스",
          "brand": "HDO",
          "brandCode": "HDO",
          "price": 1951,
          "address": "경기 양주시 산북동 198-3",
          "roadAddress": "경기 양주시 평화로 1107 (산북동)",
          "katecX": 316375.4981,
          "katecY": 576840.0958,
          "latitude": 37.7901792,
          "longitude": 127.0482971,
          "coordinateSource": "katec-converted"
        },
        {
          "id": "A0017725",
          "name": "광적주유소",
          "brand": "S-OIL",
          "brandCode": "SOL",
          "price": 1953,
          "address": "경기 양주시 광적면 가납리 444-25",
          "roadAddress": "경기 양주시 광적면 부흥로 917",
          "katecX": 311466.46291,
          "katecY": 579265.73919,
          "latitude": 37.8115684,
          "longitude": 126.9922713,
          "coordinateSource": "katec-converted"
        },
        {
          "id": "A0005003",
          "name": "(주)어하둥둥알뜰주유소",
          "brand": "RTO",
          "brandCode": "RTO",
          "price": 1953,
          "address": "경기 양주시 유양동 612-4",
          "roadAddress": "경기 양주시 부흥로 1300",
          "katecX": 313875.60453,
          "katecY": 576535.82059,
          "latitude": 37.7872053,
          "longitude": 127.0199536,
          "coordinateSource": "katec-converted"
        },
        {
          "id": "A0004819",
          "name": "㈜제이씨네트웍 양주제일백석점",
          "brand": "HDO",
          "brandCode": "HDO",
          "price": 1955,
          "address": "경기 양주시 백석읍 방성리 51-16",
          "roadAddress": "경기 양주시 백석읍 부흥로 991",
          "katecX": 312009,
          "katecY": 578770,
          "latitude": 37.8071549,
          "longitude": 126.9984924,
          "coordinateSource": "katec-converted"
        },
        {
          "id": "A0004155",
          "name": "광신직영(랜드마크셀프)",
          "brand": "S-OIL",
          "brandCode": "SOL",
          "price": 1958,
          "address": "경기 이천시 모가면 어농리 61-1",
          "roadAddress": "경기 이천시 모가면 사실로 878",
          "katecX": 350559.32839,
          "katecY": 509973.36797,
          "latitude": 37.1901778,
          "longitude": 127.440902,
          "coordinateSource": "katec-converted"
        },
        {
          "id": "A0009185",
          "name": "무지내주유소",
          "brand": "RTO",
          "brandCode": "RTO",
          "price": 1958,
          "address": "경기 시흥시 무지내동 277-1",
          "roadAddress": "경기 시흥시  금오로 144 (무지내동)",
          "katecX": 297552,
          "katecY": 535584,
          "latitude": 37.4165906,
          "longitude": 126.8403979,
          "coordinateSource": "katec-converted"
        },
        {
          "id": "A0006413",
          "name": "한강주유소",
          "brand": "RTO",
          "brandCode": "RTO",
          "price": 1959,
          "address": "경기 고양시 덕양구 행주내동 136-1",
          "roadAddress": "경기 고양시 덕양구 행주로 57-28",
          "katecX": 296635.29217,
          "katecY": 556157.99545,
          "latitude": 37.6018384,
          "longitude": 126.827147,
          "coordinateSource": "katec-converted"
        },
        {
          "id": "A0010149",
          "name": "대성에너지주유소",
          "brand": "HDO",
          "brandCode": "HDO",
          "price": 1959,
          "address": "경기 평택시 진위면 마산리 387-3",
          "roadAddress": "경기 평택시 진위면 삼남로 691",
          "katecX": 319401.0029,
          "katecY": 498582.99541,
          "latitude": 37.085372,
          "longitude": 127.0912106,
          "coordinateSource": "katec-converted"
        },
        {
          "id": "A0007830",
          "name": "대명주유소",
          "brand": "S-OIL",
          "brandCode": "SOL",
          "price": 1959,
          "address": "경기 김포시 대곶면 대명리 393-4",
          "roadAddress": "경기 김포시 대곶면 대명항로 501",
          "katecX": 273645,
          "katecY": 561424,
          "latitude": 37.6463995,
          "longitude": 126.5659358,
          "coordinateSource": "katec-converted"
        },
        {
          "id": "A0011918",
          "name": "오일필드㈜덕양지점",
          "brand": "자가상표",
          "brandCode": "ETC",
          "price": 1959,
          "address": "경기 고양시 덕양구 관산동 685-60",
          "roadAddress": "경기 고양시 덕양구 통일로 1020",
          "katecX": 299413.22342,
          "katecY": 567785.34357,
          "latitude": 37.7068953,
          "longitude": 126.856997,
          "coordinateSource": "katec-converted"
        },
        {
          "id": "A0005555",
          "name": "(주)원흥 고양동지점",
          "brand": "HDO",
          "brandCode": "HDO",
          "price": 1961,
          "address": "경기 고양시 덕양구 고양동 590",
          "roadAddress": "경기 고양시 덕양구 호국로 1789",
          "katecX": 303780.00298,
          "katecY": 568143.99533,
          "latitude": 37.710596,
          "longitude": 126.9064652,
          "coordinateSource": "katec-converted"
        },
        {
          "id": "A0005571",
          "name": "(주)원흥 풍동지점",
          "brand": "HDO",
          "brandCode": "HDO",
          "price": 1961,
          "address": "경기 고양시 일산동구 풍동619-2",
          "roadAddress": "경기 고양시 일산동구 무궁화로 299 (풍동)",
          "katecX": 293736.87552,
          "katecY": 564350.87533,
          "latitude": 37.6753142,
          "longitude": 126.7931353,
          "coordinateSource": "katec-converted"
        },
        {
          "id": "A0005566",
          "name": "㈜아동파크 고봉산주유소",
          "brand": "SK에너지",
          "brandCode": "SKE",
          "price": 1961,
          "address": "경기 고양시 일산동구 성석동 1305-9",
          "roadAddress": "경기 고양시 일산동구 고봉로 464",
          "katecX": 292760.00297,
          "katecY": 567052.99531,
          "latitude": 37.6995425,
          "longitude": 126.7816653,
          "coordinateSource": "katec-converted"
        },
        {
          "id": "A0005281",
          "name": "일광에너비스 덕이동점 ㈜신흥에너비스",
          "brand": "GS칼텍스",
          "brandCode": "GSC",
          "price": 1961,
          "address": "경기 고양시 일산서구 덕이동 1184-1",
          "roadAddress": "경기 고양시 일산서구  덕이로 299",
          "katecX": 288398,
          "katecY": 567392,
          "latitude": 37.702075,
          "longitude": 126.7321592,
          "coordinateSource": "katec-converted"
        },
        {
          "id": "A0005154",
          "name": "KH에너지㈜직영 가나주유소",
          "brand": "SK에너지",
          "brandCode": "SKE",
          "price": 1961,
          "address": "경기 고양시 덕양구 벽제동 159-9",
          "roadAddress": "경기 고양시 덕양구 호국로 1941 (벽제동)",
          "katecX": 304888,
          "katecY": 568911,
          "latitude": 37.7176217,
          "longitude": 126.9189293,
          "coordinateSource": "katec-converted"
        }
      ]
    },
    {
      "regionCode": "02",
      "regionName": "경기",
      "fuelCode": "K015",
      "fuelName": "LPG",
      "stations": [
        {
          "id": "A0007594",
          "name": "SK행복충전 조암충전소",
          "brand": "SK가스",
          "brandCode": "SKG",
          "price": 990,
          "address": "경기 화성시 만세구 우정읍 호곡리 89-1",
          "roadAddress": "경기 화성시 만세구 우정읍 호곡길 84",
          "katecX": 292305,
          "katecY": 502668,
          "latitude": 37.119449,
          "longitude": 126.7859044,
          "coordinateSource": "katec-converted"
        },
        {
          "id": "A0003403",
          "name": "성원이앤에스(주)안성지점",
          "brand": "GS칼텍스",
          "brandCode": "GSC",
          "price": 994,
          "address": "경기 안성시 대덕면 모산리 359-13",
          "roadAddress": "경기 안성시 대덕면 안성대로 1284",
          "katecX": 332379.39956,
          "katecY": 492485.30988,
          "latitude": 37.0314562,
          "longitude": 127.2377274,
          "coordinateSource": "katec-converted"
        },
        {
          "id": "A0003035",
          "name": "평화lpg충전소",
          "brand": "SK에너지",
          "brandCode": "SKE",
          "price": 995,
          "address": "경기 안성시 공도읍 승두리 593-6",
          "roadAddress": "경기 안성시 공도읍 서동대로 4068",
          "katecX": 325389.85097,
          "katecY": 488787.01039,
          "latitude": 36.9976017,
          "longitude": 127.1595394,
          "coordinateSource": "katec-converted"
        },
        {
          "id": "A0003238",
          "name": "(유)유성홀딩스 공도충전소",
          "brand": "SK가스",
          "brandCode": "SKG",
          "price": 995,
          "address": "경기 안성시 공도읍 만정리 290-7",
          "roadAddress": "경기 안성시 공도읍 서동대로 4287-12",
          "katecX": 327160.00289,
          "katecY": 489628.99543,
          "latitude": 37.0053277,
          "longitude": 127.1793436,
          "coordinateSource": "katec-converted"
        },
        {
          "id": "A0010546",
          "name": "녹박재충전소",
          "brand": "자가상표",
          "brandCode": "ETC",
          "price": 996,
          "address": "경기 안성시 죽산면 장릉리 660-4",
          "roadAddress": "경기 안성시 죽산면 서동대로 6516",
          "katecX": 345135.5,
          "katecY": 496570.1,
          "latitude": 37.0690986,
          "longitude": 127.3807985,
          "coordinateSource": "katec-converted"
        },
        {
          "id": "A0033217",
          "name": "비봉충전소 ㈜대원에너지",
          "brand": "HDO",
          "brandCode": "HDO",
          "price": 996,
          "address": "경기 안성시 죽산면 장능리 580",
          "roadAddress": "경기 안성시 죽산면 서동대로 6617",
          "katecX": 346078.32881,
          "katecY": 496938.35038,
          "latitude": 37.0724718,
          "longitude": 127.3913741,
          "coordinateSource": "katec-converted"
        },
        {
          "id": "A0002759",
          "name": "이화LPG충전소",
          "brand": "HDO",
          "brandCode": "HDO",
          "price": 999,
          "address": "경기 안성시 보개면 상삼리 211",
          "roadAddress": "경기 안성시 보개면 서동대로 5894",
          "katecX": 341476.3,
          "katecY": 492034.8,
          "latitude": 37.0280094,
          "longitude": 127.340005,
          "coordinateSource": "katec-converted"
        },
        {
          "id": "A0005446",
          "name": "신우에너지(주)",
          "brand": "SK가스",
          "brandCode": "SKG",
          "price": 1004,
          "address": "경기 고양시 일산동구 성석동 1305-5",
          "roadAddress": "경기 고양시 일산동구 고봉로 470",
          "katecX": 292745.65477,
          "katecY": 567163.06735,
          "latitude": 37.7005324,
          "longitude": 126.7814864,
          "coordinateSource": "katec-converted"
        },
        {
          "id": "A0005301",
          "name": "일산충전소",
          "brand": "SK에너지",
          "brandCode": "SKE",
          "price": 1004,
          "address": "경기 고양시 일산동구 식사동 832-20",
          "roadAddress": "경기 고양시 일산동구 무궁화로 362(식사동)",
          "katecX": 294298,
          "katecY": 564556,
          "latitude": 37.677227,
          "longitude": 126.7994653,
          "coordinateSource": "katec-converted"
        },
        {
          "id": "A0003147",
          "name": "안성에너지",
          "brand": "E1",
          "brandCode": "E1G",
          "price": 1008,
          "address": "경기 안성시 대덕면 모산리 396-3",
          "roadAddress": "경기 안성시 대덕면 만세로 77-1",
          "katecX": 332313,
          "katecY": 491866,
          "latitude": 37.025871,
          "longitude": 127.237037,
          "coordinateSource": "katec-converted"
        },
        {
          "id": "A0008954",
          "name": "희망충전소",
          "brand": "HDO",
          "brandCode": "HDO",
          "price": 1009,
          "address": "경기 화성시 효행구 비봉면 삼화리 4-1",
          "roadAddress": "경기 화성시 효행구 비봉면 비봉로 487",
          "katecX": 298204.0029,
          "katecY": 518021.99536,
          "latitude": 37.2584419,
          "longitude": 126.8501769,
          "coordinateSource": "katec-converted"
        },
        {
          "id": "A0007669",
          "name": "안성맞춤LPG충전소",
          "brand": "SK에너지",
          "brandCode": "SKE",
          "price": 1010,
          "address": "경기 안성시 당왕동 269-3",
          "roadAddress": "경기 안성시 당왕동안성맞춤대로 1253",
          "katecX": 334798.33866,
          "katecY": 491646.81144,
          "latitude": 37.0240722,
          "longitude": 127.264987,
          "coordinateSource": "katec-converted"
        },
        {
          "id": "A0006835",
          "name": "(주)옥산에너지 안성제일충전소",
          "brand": "S-OIL",
          "brandCode": "SOL",
          "price": 1011,
          "address": "경기 안성시 대덕면 소현리 297-1",
          "roadAddress": "경기 안성시 대덕면 서동대로 5059",
          "katecX": 334300,
          "katecY": 491588,
          "latitude": 37.0235074,
          "longitude": 127.2593918,
          "coordinateSource": "katec-converted"
        },
        {
          "id": "A0002387",
          "name": "다인산업(주) 화성충전소",
          "brand": "SK에너지",
          "brandCode": "SKE",
          "price": 1013,
          "address": "경기 화성시 효행구 비봉면 삼화리 773-1",
          "roadAddress": "경기 화성시 효행구 비봉면 비봉로 366",
          "katecX": 298067,
          "katecY": 516845,
          "latitude": 37.2478229,
          "longitude": 126.8487941,
          "coordinateSource": "katec-converted"
        },
        {
          "id": "A0002693",
          "name": "한일크린에너지(주)",
          "brand": "HDO",
          "brandCode": "HDO",
          "price": 1019,
          "address": "경기 안성시 계동5,6",
          "roadAddress": "경기 안성시 안성맞춤대로 872",
          "katecX": 335215,
          "katecY": 488099,
          "latitude": 36.9921323,
          "longitude": 127.2699753,
          "coordinateSource": "katec-converted"
        },
        {
          "id": "A0005464",
          "name": "SK행복충전 원일에너지충전소",
          "brand": "SK가스",
          "brandCode": "SKG",
          "price": 1020,
          "address": "경기 고양시 일산동구 문봉동 195-4",
          "roadAddress": "경기 고양시 일산동구 문원길 37",
          "katecX": 296092,
          "katecY": 568175,
          "latitude": 37.7100345,
          "longitude": 126.8192822,
          "coordinateSource": "katec-converted"
        },
        {
          "id": "A0005523",
          "name": "㈜엘아이지휴세코 희망주유소/충전소",
          "brand": "HDO",
          "brandCode": "HDO",
          "price": 1024,
          "address": "경기 고양시 일산서구 덕이동 304-4",
          "roadAddress": "경기 고양시 일산서구 경의로 910",
          "katecX": 290794.7,
          "katecY": 566958.3,
          "latitude": 37.6984571,
          "longitude": 126.7593978,
          "coordinateSource": "katec-converted"
        },
        {
          "id": "A0033170",
          "name": "야목충전소",
          "brand": "HDO",
          "brandCode": "HDO",
          "price": 1024,
          "address": "경기 화성시 효행구 매송면 야목리 801",
          "roadAddress": "경기 화성시 효행구 매송면 매송로 279",
          "katecX": 301382.68901,
          "katecY": 518176.82344,
          "latitude": 37.2601794,
          "longitude": 126.8859851,
          "coordinateSource": "katec-converted"
        },
        {
          "id": "A0005483",
          "name": "SK행복충전 신우에너지 신일산충전소",
          "brand": "SK가스",
          "brandCode": "SKG",
          "price": 1024,
          "address": "경기 고양시 일산서구 대화동 59",
          "roadAddress": "경기 고양시 일산서구 경의로 789 (대화동)",
          "katecX": 290610,
          "katecY": 565808,
          "latitude": 37.6880726,
          "longitude": 126.7574768,
          "coordinateSource": "katec-converted"
        },
        {
          "id": "A0008184",
          "name": "SK행복충전 케이씨에너지충전소",
          "brand": "SK가스",
          "brandCode": "SKG",
          "price": 1028,
          "address": "경기 과천시 갈현동 302-1",
          "roadAddress": "경기 과천시 과천대로 20",
          "katecX": 309789.4,
          "katecY": 534051.9,
          "latitude": 37.4040622,
          "longitude": 126.978812,
          "coordinateSource": "katec-converted"
        }
      ]
    },
    {
      "regionCode": "03",
      "regionName": "강원",
      "fuelCode": "B027",
      "fuelName": "휘발유",
      "stations": [
        {
          "id": "A0011396",
          "name": "회산주유소",
          "brand": "S-OIL",
          "brandCode": "SOL",
          "price": 1956,
          "address": "강원 강릉시 회산동 234-1",
          "roadAddress": "강원 강릉시 관솔길 27 (회산동)",
          "katecX": 476869.0913,
          "katecY": 571111.1021,
          "latitude": 37.7391922,
          "longitude": 128.8699272,
          "coordinateSource": "katec-converted"
        },
        {
          "id": "A0011488",
          "name": "솔향주유소",
          "brand": "RTO",
          "brandCode": "RTO",
          "price": 1958,
          "address": "강원 강릉시 홍제동 757-1",
          "roadAddress": "강원 강릉시 공제로437번길 1 (홍제동)",
          "katecX": 476659,
          "katecY": 571877,
          "latitude": 37.7461101,
          "longitude": 128.8676243,
          "coordinateSource": "katec-converted"
        },
        {
          "id": "A0010489",
          "name": "동춘천농협주유소",
          "brand": "농협알뜰",
          "brandCode": "NHO",
          "price": 1959,
          "address": "강원 춘천시 동내면 학곡리 590",
          "roadAddress": "강원 춘천시 동내면 학곡동2길 11",
          "katecX": 379111,
          "katecY": 581732,
          "latitude": 37.837857,
          "longitude": 127.7604322,
          "coordinateSource": "katec-converted"
        },
        {
          "id": "A0009978",
          "name": "거두주유소",
          "brand": "GS칼텍스",
          "brandCode": "GSC",
          "price": 1969,
          "address": "강원 춘천시 동내면 거두리 910",
          "roadAddress": "강원도 춘천시 동내면 춘천순환로 59",
          "katecX": 378218.14178,
          "katecY": 583718.13754,
          "latitude": 37.8557315,
          "longitude": 127.7502279,
          "coordinateSource": "katec-converted"
        },
        {
          "id": "A0010431",
          "name": "㈜붕붕붕주유소",
          "brand": "GS칼텍스",
          "brandCode": "GSC",
          "price": 1969,
          "address": "강원 춘천시 석사동 430-1",
          "roadAddress": "강원 춘천시 공지로 156-3",
          "katecX": 377764.15575,
          "katecY": 584168.95196,
          "latitude": 37.8597823,
          "longitude": 127.7450548,
          "coordinateSource": "katec-converted"
        },
        {
          "id": "A0010326",
          "name": "새춘천주유소",
          "brand": "RTO",
          "brandCode": "RTO",
          "price": 1969,
          "address": "강원 춘천시 동내면 거두리 667-1",
          "roadAddress": "강원 춘천시 동내면 세실로 38",
          "katecX": 379030.8987,
          "katecY": 584271.8049,
          "latitude": 37.8607393,
          "longitude": 127.7594478,
          "coordinateSource": "katec-converted"
        },
        {
          "id": "A0033584",
          "name": "(주)강릉햇살 유천주유소",
          "brand": "HDO",
          "brandCode": "HDO",
          "price": 1969,
          "address": "강원도 강릉시 유천동 776-5",
          "roadAddress": "강원도 강릉시 사임당로 178(유천동)",
          "katecX": 476514.3959,
          "katecY": 573502.17965,
          "latitude": 37.7607641,
          "longitude": 128.8661543,
          "coordinateSource": "katec-converted"
        },
        {
          "id": "A0010481",
          "name": "㈜갤럭시(Galaxy)E＆S",
          "brand": "GS칼텍스",
          "brandCode": "GSC",
          "price": 1969,
          "address": "강원 춘천시 동내면 거두리 682-8",
          "roadAddress": "강원 춘천시 동내면 세실로 20",
          "katecX": 379108.27023,
          "katecY": 584110.51545,
          "latitude": 37.8592879,
          "longitude": 127.7603318,
          "coordinateSource": "katec-converted"
        },
        {
          "id": "A0010392",
          "name": "춘천주유소",
          "brand": "SK에너지",
          "brandCode": "SKE",
          "price": 1969,
          "address": "강원 춘천시 효자동 287-1",
          "roadAddress": "강원 춘천시  공지로 234-1 (효자동)",
          "katecX": 377115.7567,
          "katecY": 584606.7506,
          "latitude": 37.8637108,
          "longitude": 127.7376721,
          "coordinateSource": "katec-converted"
        },
        {
          "id": "A0011577",
          "name": "KH에너지㈜직영 교동주유소",
          "brand": "SK에너지",
          "brandCode": "SKE",
          "price": 1969,
          "address": "강원 강릉시 교동 1893",
          "roadAddress": "강원 강릉시 하슬라로 159 (교동)",
          "katecX": 477267.9199,
          "katecY": 574009.603,
          "latitude": 37.7652725,
          "longitude": 128.8747592,
          "coordinateSource": "katec-converted"
        },
        {
          "id": "A0010847",
          "name": "무궁화주유소",
          "brand": "HDO",
          "brandCode": "HDO",
          "price": 1971,
          "address": "강원 홍천군 홍천읍 하오안리 166-27",
          "roadAddress": "강원 홍천군 홍천읍 설악로 1277",
          "katecX": 386986.5856,
          "katecY": 562949.2311,
          "latitude": 37.6687645,
          "longitude": 127.8502503,
          "coordinateSource": "katec-converted"
        },
        {
          "id": "A0010507",
          "name": "㈜대경유업 퇴계로주유소",
          "brand": "HDO",
          "brandCode": "HDO",
          "price": 1973,
          "address": "강원 춘천시 석사동 818-6",
          "roadAddress": "강원 춘천시 퇴계로 231",
          "katecX": 377692.6239,
          "katecY": 583748.2141,
          "latitude": 37.8559896,
          "longitude": 127.744255,
          "coordinateSource": "katec-converted"
        },
        {
          "id": "A0010288",
          "name": "퇴계주유소",
          "brand": "GS칼텍스",
          "brandCode": "GSC",
          "price": 1973,
          "address": "강원 춘천시 퇴계동 1162-1",
          "roadAddress": "강원 춘천시 퇴계로 25",
          "katecX": 375975,
          "katecY": 584841,
          "latitude": 37.8657918,
          "longitude": 127.7246993,
          "coordinateSource": "katec-converted"
        },
        {
          "id": "A0010717",
          "name": "하이트주유소",
          "brand": "S-OIL",
          "brandCode": "SOL",
          "price": 1974,
          "address": "강원 홍천군 북방면 하화계리 102",
          "roadAddress": "강원 홍천군 북방면 송학정로 38",
          "katecX": 387701.8582,
          "katecY": 564455.4471,
          "latitude": 37.6823463,
          "longitude": 127.8583324,
          "coordinateSource": "katec-converted"
        },
        {
          "id": "A0010745",
          "name": "중앙주유소self",
          "brand": "SK에너지",
          "brandCode": "SKE",
          "price": 1975,
          "address": "강원 홍천군 홍천읍 하오안리 141-3",
          "roadAddress": "강원 홍천군 홍천읍 설악로 1356",
          "katecX": 387509.4723,
          "katecY": 563595.7358,
          "latitude": 37.6745972,
          "longitude": 127.8561662,
          "coordinateSource": "katec-converted"
        },
        {
          "id": "A0033649",
          "name": "춘천농협주유소 엔타점",
          "brand": "농협알뜰",
          "brandCode": "NHO",
          "price": 1975,
          "address": "강원 춘천시 석사동 980",
          "roadAddress": "강원 춘천시 후석로 120",
          "katecX": 378016.80833,
          "katecY": 584557.98708,
          "latitude": 37.8632938,
          "longitude": 127.7479142,
          "coordinateSource": "katec-converted"
        },
        {
          "id": "A0010825",
          "name": "동국주유소",
          "brand": "SK에너지",
          "brandCode": "SKE",
          "price": 1975,
          "address": "강원 홍천군 홍천읍 연봉리 232",
          "roadAddress": "강원 홍천군 홍천읍 무궁화로 62",
          "katecX": 389255.3389,
          "katecY": 564675.2175,
          "latitude": 37.6843464,
          "longitude": 127.8759418,
          "coordinateSource": "katec-converted"
        },
        {
          "id": "A0010718",
          "name": "㈜지에스에너지 세방지점",
          "brand": "SK에너지",
          "brandCode": "SKE",
          "price": 1975,
          "address": "강원 홍천군 홍천읍 진리 16-1",
          "roadAddress": "강원 홍천군 홍천읍 홍천로 440",
          "katecX": 390745.8412,
          "katecY": 565607.393,
          "latitude": 37.6927623,
          "longitude": 127.8928288,
          "coordinateSource": "katec-converted"
        },
        {
          "id": "A0010364",
          "name": "IOZEN(이오젠)",
          "brand": "SK에너지",
          "brandCode": "SKE",
          "price": 1975,
          "address": "강원 춘천시 동내면 고은리 537-1",
          "roadAddress": "강원 춘천시 동내면 순환대로 758",
          "katecX": 380086.1,
          "katecY": 582846.8,
          "latitude": 37.8479236,
          "longitude": 127.7714795,
          "coordinateSource": "katec-converted"
        },
        {
          "id": "A0010337",
          "name": "광장셀프주유소",
          "brand": "SK에너지",
          "brandCode": "SKE",
          "price": 1978,
          "address": "강원 춘천시 효자동 653-1",
          "roadAddress": "강원 춘천시 효자로 150",
          "katecX": 376945.95091,
          "katecY": 585960.1595,
          "latitude": 37.8759009,
          "longitude": 127.7356986,
          "coordinateSource": "katec-converted"
        }
      ]
    },
    {
      "regionCode": "03",
      "regionName": "강원",
      "fuelCode": "D047",
      "fuelName": "경유",
      "stations": [
        {
          "id": "A0010489",
          "name": "동춘천농협주유소",
          "brand": "농협알뜰",
          "brandCode": "NHO",
          "price": 1949,
          "address": "강원 춘천시 동내면 학곡리 590",
          "roadAddress": "강원 춘천시 동내면 학곡동2길 11",
          "katecX": 379111,
          "katecY": 581732,
          "latitude": 37.837857,
          "longitude": 127.7604322,
          "coordinateSource": "katec-converted"
        },
        {
          "id": "A0011396",
          "name": "회산주유소",
          "brand": "S-OIL",
          "brandCode": "SOL",
          "price": 1951,
          "address": "강원 강릉시 회산동 234-1",
          "roadAddress": "강원 강릉시 관솔길 27 (회산동)",
          "katecX": 476869.0913,
          "katecY": 571111.1021,
          "latitude": 37.7391922,
          "longitude": 128.8699272,
          "coordinateSource": "katec-converted"
        },
        {
          "id": "A0011488",
          "name": "솔향주유소",
          "brand": "RTO",
          "brandCode": "RTO",
          "price": 1953,
          "address": "강원 강릉시 홍제동 757-1",
          "roadAddress": "강원 강릉시 공제로437번길 1 (홍제동)",
          "katecX": 476659,
          "katecY": 571877,
          "latitude": 37.7461101,
          "longitude": 128.8676243,
          "coordinateSource": "katec-converted"
        },
        {
          "id": "A0010431",
          "name": "㈜붕붕붕주유소",
          "brand": "GS칼텍스",
          "brandCode": "GSC",
          "price": 1959,
          "address": "강원 춘천시 석사동 430-1",
          "roadAddress": "강원 춘천시 공지로 156-3",
          "katecX": 377764.15575,
          "katecY": 584168.95196,
          "latitude": 37.8597823,
          "longitude": 127.7450548,
          "coordinateSource": "katec-converted"
        },
        {
          "id": "A0010481",
          "name": "㈜갤럭시(Galaxy)E＆S",
          "brand": "GS칼텍스",
          "brandCode": "GSC",
          "price": 1959,
          "address": "강원 춘천시 동내면 거두리 682-8",
          "roadAddress": "강원 춘천시 동내면 세실로 20",
          "katecX": 379108.27023,
          "katecY": 584110.51545,
          "latitude": 37.8592879,
          "longitude": 127.7603318,
          "coordinateSource": "katec-converted"
        },
        {
          "id": "A0009978",
          "name": "거두주유소",
          "brand": "GS칼텍스",
          "brandCode": "GSC",
          "price": 1959,
          "address": "강원 춘천시 동내면 거두리 910",
          "roadAddress": "강원도 춘천시 동내면 춘천순환로 59",
          "katecX": 378218.14178,
          "katecY": 583718.13754,
          "latitude": 37.8557315,
          "longitude": 127.7502279,
          "coordinateSource": "katec-converted"
        },
        {
          "id": "A0010392",
          "name": "춘천주유소",
          "brand": "SK에너지",
          "brandCode": "SKE",
          "price": 1959,
          "address": "강원 춘천시 효자동 287-1",
          "roadAddress": "강원 춘천시  공지로 234-1 (효자동)",
          "katecX": 377115.7567,
          "katecY": 584606.7506,
          "latitude": 37.8637108,
          "longitude": 127.7376721,
          "coordinateSource": "katec-converted"
        },
        {
          "id": "A0010326",
          "name": "새춘천주유소",
          "brand": "RTO",
          "brandCode": "RTO",
          "price": 1959,
          "address": "강원 춘천시 동내면 거두리 667-1",
          "roadAddress": "강원 춘천시 동내면 세실로 38",
          "katecX": 379030.8987,
          "katecY": 584271.8049,
          "latitude": 37.8607393,
          "longitude": 127.7594478,
          "coordinateSource": "katec-converted"
        },
        {
          "id": "A0010288",
          "name": "퇴계주유소",
          "brand": "GS칼텍스",
          "brandCode": "GSC",
          "price": 1963,
          "address": "강원 춘천시 퇴계동 1162-1",
          "roadAddress": "강원 춘천시 퇴계로 25",
          "katecX": 375975,
          "katecY": 584841,
          "latitude": 37.8657918,
          "longitude": 127.7246993,
          "coordinateSource": "katec-converted"
        },
        {
          "id": "A0033649",
          "name": "춘천농협주유소 엔타점",
          "brand": "농협알뜰",
          "brandCode": "NHO",
          "price": 1963,
          "address": "강원 춘천시 석사동 980",
          "roadAddress": "강원 춘천시 후석로 120",
          "katecX": 378016.80833,
          "katecY": 584557.98708,
          "latitude": 37.8632938,
          "longitude": 127.7479142,
          "coordinateSource": "katec-converted"
        },
        {
          "id": "A0010507",
          "name": "㈜대경유업 퇴계로주유소",
          "brand": "HDO",
          "brandCode": "HDO",
          "price": 1963,
          "address": "강원 춘천시 석사동 818-6",
          "roadAddress": "강원 춘천시 퇴계로 231",
          "katecX": 377692.6239,
          "katecY": 583748.2141,
          "latitude": 37.8559896,
          "longitude": 127.744255,
          "coordinateSource": "katec-converted"
        },
        {
          "id": "A0011577",
          "name": "KH에너지㈜직영 교동주유소",
          "brand": "SK에너지",
          "brandCode": "SKE",
          "price": 1969,
          "address": "강원 강릉시 교동 1893",
          "roadAddress": "강원 강릉시 하슬라로 159 (교동)",
          "katecX": 477267.9199,
          "katecY": 574009.603,
          "latitude": 37.7652725,
          "longitude": 128.8747592,
          "coordinateSource": "katec-converted"
        },
        {
          "id": "A0011553",
          "name": "북강릉농협주유소",
          "brand": "농협알뜰",
          "brandCode": "NHO",
          "price": 1970,
          "address": "강원 강릉시 주문진읍 주문리 1157-8",
          "roadAddress": "강원 강릉시 주문진읍 신영길 43",
          "katecX": 472000.22036,
          "katecY": 589543.3872,
          "latitude": 37.9056512,
          "longitude": 128.8165172,
          "coordinateSource": "katec-converted"
        },
        {
          "id": "A0010847",
          "name": "무궁화주유소",
          "brand": "HDO",
          "brandCode": "HDO",
          "price": 1971,
          "address": "강원 홍천군 홍천읍 하오안리 166-27",
          "roadAddress": "강원 홍천군 홍천읍 설악로 1277",
          "katecX": 386986.5856,
          "katecY": 562949.2311,
          "latitude": 37.6687645,
          "longitude": 127.8502503,
          "coordinateSource": "katec-converted"
        },
        {
          "id": "A0033584",
          "name": "(주)강릉햇살 유천주유소",
          "brand": "HDO",
          "brandCode": "HDO",
          "price": 1974,
          "address": "강원도 강릉시 유천동 776-5",
          "roadAddress": "강원도 강릉시 사임당로 178(유천동)",
          "katecX": 476514.3959,
          "katecY": 573502.17965,
          "latitude": 37.7607641,
          "longitude": 128.8661543,
          "coordinateSource": "katec-converted"
        },
        {
          "id": "A0010717",
          "name": "하이트주유소",
          "brand": "S-OIL",
          "brandCode": "SOL",
          "price": 1974,
          "address": "강원 홍천군 북방면 하화계리 102",
          "roadAddress": "강원 홍천군 북방면 송학정로 38",
          "katecX": 387701.8582,
          "katecY": 564455.4471,
          "latitude": 37.6823463,
          "longitude": 127.8583324,
          "coordinateSource": "katec-converted"
        },
        {
          "id": "A0010293",
          "name": "영서에너지㈜ 에이스주유소",
          "brand": "GS칼텍스",
          "brandCode": "GSC",
          "price": 1975,
          "address": "강원 춘천시 효자동 666-2",
          "roadAddress": "강원 춘천시 효자로 94 (효자동)",
          "katecX": 376685.5657,
          "katecY": 585443.334,
          "latitude": 37.8712376,
          "longitude": 127.7327557,
          "coordinateSource": "katec-converted"
        },
        {
          "id": "A0010718",
          "name": "㈜지에스에너지 세방지점",
          "brand": "SK에너지",
          "brandCode": "SKE",
          "price": 1975,
          "address": "강원 홍천군 홍천읍 진리 16-1",
          "roadAddress": "강원 홍천군 홍천읍 홍천로 440",
          "katecX": 390745.8412,
          "katecY": 565607.393,
          "latitude": 37.6927623,
          "longitude": 127.8928288,
          "coordinateSource": "katec-converted"
        },
        {
          "id": "A0010745",
          "name": "중앙주유소self",
          "brand": "SK에너지",
          "brandCode": "SKE",
          "price": 1975,
          "address": "강원 홍천군 홍천읍 하오안리 141-3",
          "roadAddress": "강원 홍천군 홍천읍 설악로 1356",
          "katecX": 387509.4723,
          "katecY": 563595.7358,
          "latitude": 37.6745972,
          "longitude": 127.8561662,
          "coordinateSource": "katec-converted"
        },
        {
          "id": "A0010808",
          "name": "스카이주유소",
          "brand": "HDO",
          "brandCode": "HDO",
          "price": 1975,
          "address": "강원 홍천군 홍천읍 상오안리 172",
          "roadAddress": "강원 홍천군 홍천읍 설악로 951",
          "katecX": 384301,
          "katecY": 561284,
          "latitude": 37.6537172,
          "longitude": 127.8198442,
          "coordinateSource": "katec-converted"
        }
      ]
    },
    {
      "regionCode": "03",
      "regionName": "강원",
      "fuelCode": "K015",
      "fuelName": "LPG",
      "stations": [
        {
          "id": "A0033299",
          "name": "주식회사 세종에너지",
          "brand": "SK에너지",
          "brandCode": "SKE",
          "price": 1028,
          "address": "강원 원주시 지정면 보통리 251-1",
          "roadAddress": "강원 원주시 지정면 보통로 380",
          "katecX": 389105.38812,
          "katecY": 526457.26779,
          "latitude": 37.3399704,
          "longitude": 127.8748181,
          "coordinateSource": "katec-converted"
        },
        {
          "id": "A0011142",
          "name": "대성산업㈜ 원주충전소",
          "brand": "GS칼텍스",
          "brandCode": "GSC",
          "price": 1040,
          "address": "강원 원주시 단계동 199",
          "roadAddress": "강원 원주시 북원로 2302",
          "katecX": 394372.36484,
          "katecY": 527662.84074,
          "latitude": 37.3508819,
          "longitude": 127.9342511,
          "coordinateSource": "katec-converted"
        },
        {
          "id": "A0011118",
          "name": "원주정우LPG충전소",
          "brand": "E1",
          "brandCode": "E1G",
          "price": 1040,
          "address": "강원 원주시 태장동 2617-23",
          "roadAddress": "강원 원주시 북원로 2826",
          "katecX": 395897.2,
          "katecY": 532560.4,
          "latitude": 37.3950222,
          "longitude": 127.9514343,
          "coordinateSource": "katec-converted"
        },
        {
          "id": "A0033450",
          "name": "원주농협충전소",
          "brand": "농협알뜰",
          "brandCode": "NHO",
          "price": 1040,
          "address": "강원 원주시 가현동 369-8",
          "roadAddress": "강원 원주시 호저로 230",
          "katecX": 394621.19475,
          "katecY": 532645.4184,
          "latitude": 37.3957815,
          "longitude": 127.9370223,
          "coordinateSource": "katec-converted"
        },
        {
          "id": "A0011079",
          "name": "남원주LPG충전소",
          "brand": "E1",
          "brandCode": "E1G",
          "price": 1040,
          "address": "강원 원주시 무실동 1114-1",
          "roadAddress": "강원 원주시 행가리1길 2",
          "katecX": 393028,
          "katecY": 524614,
          "latitude": 37.3233991,
          "longitude": 127.919106,
          "coordinateSource": "katec-converted"
        },