{
  "mode": "opinet",
  "source": "한국석유공사 오피넷 Open API",
  "generatedAt": "2026-05-21T19:52:19.533Z",
  "notice": "한국석유공사 오피넷 Open API 기준 데이터입니다. 실제 판매 가격과 차이가 있을 수 있습니다.",
  "datasets": [
    {
      "regionCode": "ALL",
      "regionName": "전국",
      "fuelCode": "B027",
      "fuelName": "휘발유",
      "stations": [
        {
          "id": "A0021368",
          "name": "다향주유소",
          "brand": "GS칼텍스",
          "brandCode": "GSC",
          "price": 1708,
          "address": "전남 보성군 회천면 전일리 213",
          "roadAddress": "전남 보성군 회천면 남부관광로 2018",
          "katecX": 314276.8037,
          "katecY": 230232.6862,
          "latitude": 34.6665268,
          "longitude": 127.0625184
        },
        {
          "id": "A0016058",
          "name": "천안대로셀프",
          "brand": "S-OIL",
          "brandCode": "SOL",
          "price": 1939,
          "address": "충남 천안시 동남구 원성동 11-11",
          "roadAddress": "충남 천안시 동남구 천안대로 727",
          "katecX": 325646.44184,
          "katecY": 468322.85853,
          "latitude": 36.813224,
          "longitude": 127.1644351
        },
        {
          "id": "A0026119",
          "name": "대왕석유무역㈜ 대왕주유소",
          "brand": "현대오일뱅크",
          "brandCode": "HDO",
          "price": 1940,
          "address": "경북 칠곡군 왜관읍 낙산리 630-1",
          "roadAddress": "경북 칠곡군 왜관읍 강변대로 700",
          "katecX": 436566,
          "katecY": 371241,
          "latitude": 35.9405275,
          "longitude": 128.4030951
        },
        {
          "id": "A0026409",
          "name": "(주)제이엠제7주유소지점",
          "brand": "RTO",
          "brandCode": "RTO",
          "price": 1940,
          "address": "경북 칠곡군 왜관읍 금산리 860-1",
          "roadAddress": "경북 칠곡군 왜관읍 강변대로 852",
          "katecX": 436251.17307,
          "katecY": 372691.08649,
          "latitude": 35.9536087,
          "longitude": 128.3996716
        },
        {
          "id": "A0016224",
          "name": "(주)대성제2주유소",
          "brand": "GS칼텍스",
          "brandCode": "GSC",
          "price": 1947,
          "address": "충남 천안시 동남구 신부동 115-32",
          "roadAddress": "충남 천안시 동남구 가마골1길 10 (신부동)",
          "katecX": 325559.11593,
          "katecY": 469177.88704,
          "latitude": 36.8209217,
          "longitude": 127.1633726
        },
        {
          "id": "A0026102",
          "name": "행운에너지",
          "brand": "SK에너지",
          "brandCode": "SKE",
          "price": 1948,
          "address": "경북 칠곡군 약목면 복성리 639-1",
          "roadAddress": "경북 칠곡군 약목면 칠곡대로 504",
          "katecX": 431892.5353,
          "katecY": 382542.8176,
          "latitude": 36.0425531,
          "longitude": 128.3517493
        },
        {
          "id": "A0013150",
          "name": "충주주유소",
          "brand": "SK에너지",
          "brandCode": "SKE",
          "price": 1949,
          "address": "충북 충주시 봉방동 337-20",
          "roadAddress": "충북 충주시 중원대로 3506 (봉방동)",
          "katecX": 392585.7234,
          "katecY": 485368.4286,
          "latitude": 36.9697393,
          "longitude": 127.9145146
        },
        {
          "id": "A0033247",
          "name": "미니주유소",
          "brand": "RTO",
          "brandCode": "RTO",
          "price": 1950,
          "address": "대구 북구 침산동 25-10",
          "roadAddress": "대구 북구 침산남로 224",
          "katecX": 454359.4543,
          "katecY": 365311.65891,
          "latitude": 35.8862636,
          "longitude": 128.5998983
        },
        {
          "id": "A0028484",
          "name": "㈜미니E 직영주유소",
          "brand": "RTO",
          "brandCode": "RTO",
          "price": 1950,
          "address": "경남 창원시 마산회원구 회원동 43-1",
          "roadAddress": "경남 창원시 마산회원구 3.15대로 524",
          "katecX": 452464.98915,
          "katecY": 291495.16461,
          "latitude": 35.2210333,
          "longitude": 128.5741527
        },
        {
          "id": "A0024530",
          "name": "청하self주유소",
          "brand": "RTO",
          "brandCode": "RTO",
          "price": 1951,
          "address": "경북 포항시 북구 청하면 미남리 133",
          "roadAddress": "경북 포항시 북구 청하면 동해대로 2405",
          "katecX": 520946,
          "katecY": 398970,
          "latitude": 36.1835994,
          "longitude": 129.3424146
        },
        {
          "id": "A0024681",
          "name": "(주)송라오일뱅크",
          "brand": "현대오일뱅크",
          "brandCode": "HDO",
          "price": 1953,
          "address": "경북 포항시 북구 송라면 광천리 40",
          "roadAddress": "경북 포항시 북구 동해대로 2941",
          "katecX": 522430.18536,
          "katecY": 403935.19478,
          "latitude": 36.228151,
          "longitude": 129.3596845
        },
        {
          "id": "A0030597",
          "name": "에이디에너지(주)",
          "brand": "RTO",
          "brandCode": "RTO",
          "price": 1953,
          "address": "경남 김해시 안동 257-21",
          "roadAddress": "경남 김해시 김해대로 2651 (안동)",
          "katecX": 483621,
          "katecY": 292635,
          "latitude": 35.2292002,
          "longitude": 128.9164805
        },
        {
          "id": "A0024455",
          "name": "북포항주유소",
          "brand": "SK에너지",
          "brandCode": "SKE",
          "price": 1953,
          "address": "경북 포항시 북구 청하면 소동리 576-10",
          "roadAddress": "경북 포항시 북구 청하면 동해대로 2123",
          "katecX": 521290.2,
          "katecY": 396268.9,
          "latitude": 36.1592185,
          "longitude": 129.345824
        },
        {
          "id": "A0024185",
          "name": "삼일주유소",
          "brand": "SK에너지",
          "brandCode": "SKE",
          "price": 1954,
          "address": "경북 경주시 천북면 모아리 973-4",
          "roadAddress": "경북 경주시 천북면 산업로 4866",
          "katecX": 512255.36746,
          "katecY": 368597.53595,
          "latitude": 35.9109598,
          "longitude": 129.2415135
        },
        {
          "id": "A0023976",
          "name": "서라벌셀프주유소",
          "brand": "현대오일뱅크",
          "brandCode": "HDO",
          "price": 1955,
          "address": "경북 경주시 동방동 271-1",
          "roadAddress": "경북 경주시 산업로 3533",
          "katecX": 514025.5309,
          "katecY": 357063.504,
          "latitude": 35.8068205,
          "longitude": 129.2594759
        },
        {
          "id": "A0023692",
          "name": "아스트로주유소",
          "brand": "RTO",
          "brandCode": "RTO",
          "price": 1955,
          "address": "대구 북구 노원동 282-1",
          "roadAddress": "대구 북구 팔달로 215",
          "katecX": 451965.7179,
          "katecY": 365507.5955,
          "latitude": 35.888159,
          "longitude": 128.5733993
        },
        {
          "id": "A0018663",
          "name": "(유)우주에너지주유소/충전소",
          "brand": "현대오일뱅크",
          "brandCode": "HDO",
          "price": 1956,
          "address": "전북 김제시 금구면 용지리10-3",
          "roadAddress": "전북 김제시 금구면 선비로 905",
          "katecX": 311156,
          "katecY": 354105,
          "latitude": 35.7827184,
          "longitude": 127.0150723
        },
        {
          "id": "A0024102",
          "name": "시선㈜ 경주지점",
          "brand": "RTO",
          "brandCode": "RTO",
          "price": 1956,
          "address": "경북 경주시 동방동 307-1",
          "roadAddress": "경북 경주시 산업로 3585",
          "katecX": 513773,
          "katecY": 357440,
          "latitude": 35.8102424,
          "longitude": 129.2567358
        },
        {
          "id": "A0031594",
          "name": "럭키스파밸리 직영주유소",
          "brand": "RTO",
          "brandCode": "RTO",
          "price": 1957,
          "address": "울산 울주군 범서읍 굴화리 383-3",
          "roadAddress": "울산 울주군 범서읍 울밀로 2844",
          "katecX": 514358,
          "katecY": 329389,
          "latitude": 35.5573955,
          "longitude": 129.2592289
        },
        {
          "id": "A0024256",
          "name": "불국에너지(주)선덕지점",
          "brand": "현대오일뱅크",
          "brandCode": "HDO",
          "price": 1957,
          "address": "경북 경주시 배반동 336-1",
          "roadAddress": "경북 경주시 산업로 3667",
          "katecX": 513180.00283,
          "katecY": 358007.9959,
          "latitude": 35.8154292,
          "longitude": 129.2502558
        }
      ]
    },
    {
      "regionCode": "ALL",
      "regionName": "전국",
      "fuelCode": "D047",
      "fuelName": "경유",
      "stations": [
        {
          "id": "A0024290",
          "name": "대양석유(주)건천경마장주유소",
          "brand": "SK에너지",
          "brandCode": "SKE",
          "price": 1920,
          "address": "경북 경주시 서면 도리 1138-2",
          "roadAddress": "경북 경주시 대경로 3241",
          "katecX": 496077.78527,
          "katecY": 366527.49306,
          "latitude": 35.8940243,
          "longitude": 129.0620596
        },
        {
          "id": "A0033625",
          "name": "주식회사 시헌 STAY 365",
          "brand": "SK에너지",
          "brandCode": "SKE",
          "price": 1929,
          "address": "경기 용인시 처인구 남사읍 완장리 147-1",
          "roadAddress": "경기 용인시 처인구 남사읍 처인성로 973",
          "katecX": 327415.65415,
          "katecY": 508232.10477,
          "latitude": 37.1729716,
          "longitude": 127.1804128
        },
        {
          "id": "A0033295",
          "name": "무지개주유소",
          "brand": "자가상표",
          "brandCode": "ETC",
          "price": 1929,
          "address": "충남 서산시 음암면 도당리 28-12",
          "roadAddress": "충남 서산시 음암면 백제사신로 1180",
          "katecX": 269794.95942,
          "katecY": 469197.65964,
          "latitude": 36.8150607,
          "longitude": 126.5384478
        },
        {
          "id": "A0033621",
          "name": "㈜신화에너지서울 박물관주유소",
          "brand": "SK에너지",
          "brandCode": "SKE",
          "price": 1930,
          "address": "충북 진천군 진천읍 장관리 357-9",
          "roadAddress": "충북 진천군 진천읍 생거진천로 1399",
          "katecX": 349598.72985,
          "katecY": 474555.80356,
          "latitude": 36.8709747,
          "longitude": 127.4324624
        },
        {
          "id": "A0024382",
          "name": "청명주유소",
          "brand": "SK에너지",
          "brandCode": "SKE",
          "price": 1935,
          "address": "경북 영천시 고경면 덕암리 52-1",
          "roadAddress": "경북 영천시 고경면 호국로 1529",
          "katecX": 498527.00285,
          "katecY": 377393.99585,
          "latitude": 35.9917057,
          "longitude": 129.0905296
        },
        {
          "id": "A0028484",
          "name": "㈜미니E 직영주유소",
          "brand": "RTO",
          "brandCode": "RTO",
          "price": 1940,
          "address": "경남 창원시 마산회원구 회원동 43-1",
          "roadAddress": "경남 창원시 마산회원구 3.15대로 524",
          "katecX": 452464.98915,
          "katecY": 291495.16461,
          "latitude": 35.2210333,
          "longitude": 128.5741527
        },
        {
          "id": "A0033247",
          "name": "미니주유소",
          "brand": "RTO",
          "brandCode": "RTO",
          "price": 1940,
          "address": "대구 북구 침산동 25-10",
          "roadAddress": "대구 북구 침산남로 224",
          "katecX": 454359.4543,
          "katecY": 365311.65891,
          "latitude": 35.8862636,
          "longitude": 128.5998983
        },
        {
          "id": "A0026119",
          "name": "대왕석유무역㈜ 대왕주유소",
          "brand": "현대오일뱅크",
          "brandCode": "HDO",
          "price": 1941,
          "address": "경북 칠곡군 왜관읍 낙산리 630-1",
          "roadAddress": "경북 칠곡군 왜관읍 강변대로 700",
          "katecX": 436566,
          "katecY": 371241,
          "latitude": 35.9405275,
          "longitude": 128.4030951
        },
        {
          "id": "A0026409",
          "name": "(주)제이엠제7주유소지점",
          "brand": "RTO",
          "brandCode": "RTO",
          "price": 1941,
          "address": "경북 칠곡군 왜관읍 금산리 860-1",
          "roadAddress": "경북 칠곡군 왜관읍 강변대로 852",
          "katecX": 436251.17307,
          "katecY": 372691.08649,
          "latitude": 35.9536087,
          "longitude": 128.3996716
        },
        {
          "id": "A0020269",
          "name": "SK시민주유소",
          "brand": "SK에너지",
          "brandCode": "SKE",
          "price": 1943,
          "address": "광주 광산구 장수동 446",
          "roadAddress": "광주 광산구 고봉로 249 (장수동)",
          "katecX": 289371.1317,
          "katecY": 288103.7937,
          "latitude": 35.1857106,
          "longitude": 126.7831429
        },
        {
          "id": "A0022528",
          "name": "청운주유소",
          "brand": "S-OIL",
          "brandCode": "SOL",
          "price": 1944,
          "address": "전북 김제시 용지면 부교리 194-23",
          "roadAddress": "전북 김제시 용지면 콩쥐팥쥐로 717",
          "katecX": 307961.41996,
          "katecY": 357782.39752,
          "latitude": 35.8155645,
          "longitude": 126.9793166
        },
        {
          "id": "A0030597",
          "name": "에이디에너지(주)",
          "brand": "RTO",
          "brandCode": "RTO",
          "price": 1945,
          "address": "경남 김해시 안동 257-21",
          "roadAddress": "경남 김해시 김해대로 2651 (안동)",
          "katecX": 483621,
          "katecY": 292635,
          "latitude": 35.2292002,
          "longitude": 128.9164805
        },
        {
          "id": "A0023692",
          "name": "아스트로주유소",
          "brand": "RTO",
          "brandCode": "RTO",
          "price": 1945,
          "address": "대구 북구 노원동 282-1",
          "roadAddress": "대구 북구 팔달로 215",
          "katecX": 451965.7179,
          "katecY": 365507.5955,
          "latitude": 35.888159,
          "longitude": 128.5733993
        },
        {
          "id": "A0032939",
          "name": "탑셀프주유소",
          "brand": "현대오일뱅크",
          "brandCode": "HDO",
          "price": 1945,
          "address": "충남 홍성군 은하면 장척리 40-3",
          "roadAddress": "충남 홍성군 은하면 충서로 87-1",
          "katecX": 276056.51079,
          "katecY": 433298.73803,
          "latitude": 36.4924719,
          "longitude": 126.6144162
        },
        {
          "id": "A0005003",
          "name": "(주)어하둥둥알뜰주유소",
          "brand": "RTO",
          "brandCode": "RTO",
          "price": 1947,
          "address": "경기 양주시 유양동 612-4",
          "roadAddress": "경기 양주시 부흥로 1300",
          "katecX": 313875.60453,
          "katecY": 576535.82059,
          "latitude": 37.7872053,
          "longitude": 127.0199536
        },
        {
          "id": "A0026102",
          "name": "행운에너지",
          "brand": "SK에너지",
          "brandCode": "SKE",
          "price": 1948,
          "address": "경북 칠곡군 약목면 복성리 639-1",
          "roadAddress": "경북 칠곡군 약목면 칠곡대로 504",
          "katecX": 431892.5353,
          "katecY": 382542.8176,
          "latitude": 36.0425531,
          "longitude": 128.3517493
        },
        {
          "id": "A0004826",
          "name": "하나셀프주유소",
          "brand": "GS칼텍스",
          "brandCode": "GSC",
          "price": 1948,
          "address": "경기 양주시 백석읍 방성리 86-3",
          "roadAddress": "경기 양주시 백석읍 부흥로 1024",
          "katecX": 312246,
          "katecY": 578576,
          "latitude": 37.80543,
          "longitude": 127.0012071
        },
        {
          "id": "A0004808",
          "name": "서울이엔지㈜ 일월주유소",
          "brand": "현대오일뱅크",
          "brandCode": "HDO",
          "price": 1948,
          "address": "경기 양주시 백석읍 방성리 471-4",
          "roadAddress": "경기 양주시 백석읍 부흥로 1126",
          "katecX": 312834.00301,
          "katecY": 577764.99533,
          "latitude": 37.7981801,
          "longitude": 127.0079814
        },
        {
          "id": "A0028266",
          "name": "함마대로주유소",
          "brand": "RTO",
          "brandCode": "RTO",
          "price": 1949,
          "address": "경남 함안군 산인면 모곡리 997-2",
          "roadAddress": "경남 함안군 산인면 함마대로 2035",
          "katecX": 441088.08484,
          "katecY": 297236.67398,
          "latitude": 35.2733153,
          "longitude": 128.4494686
        },
        {
          "id": "A0026114",
          "name": "만남의주유소",
          "brand": "RTO",
          "brandCode": "RTO",
          "price": 1949,
          "address": "경북 칠곡군 가산면 석우리 53-1",
          "roadAddress": "경북 칠곡군 가산면 경북대로 1883",
          "katecX": 449874,
          "katecY": 389776.5,
          "latitude": 36.106996,
          "longitude": 128.5517533
        }
      ]
    },
    {
      "regionCode": "01",
      "regionName": "서울",
      "fuelCode": "B027",
      "fuelName": "휘발유",
      "stations": [
        {
          "id": "A0001086",
          "name": "(주)백운주유소",
          "brand": "RTO",
          "brandCode": "RTO",
          "price": 1964,
          "address": "서울 금천구 독산동 1077-3",
          "roadAddress": "서울 금천구 시흥대로 282",
          "katecX": 302825.0476,
          "katecY": 540202.8721,
          "latitude": 37.4587725,
          "longitude": 126.8993489
        },
        {
          "id": "A0001164",
          "name": "(주)화동유업 화동주유소",
          "brand": "SK에너지",
          "brandCode": "SKE",
          "price": 1967,
          "address": "서울 금천구 독산동 967",
          "roadAddress": "서울 금천구 시흥대로 484",
          "katecX": 302821.53096,
          "katecY": 542201.78194,
          "latitude": 37.4767808,
          "longitude": 126.8990451
        },
        {
          "id": "A0001132",
          "name": "㈜씨더블유 이엔지 금천지점",
          "brand": "현대오일뱅크",
          "brandCode": "HDO",
          "price": 1967,
          "address": "서울 금천구 시흥동 860-36",
          "roadAddress": "서울 금천구 독산로 147",
          "katecX": 303289.50294,
          "katecY": 540374.09535,
          "latitude": 37.4603639,
          "longitude": 126.9045755
        },
        {
          "id": "A0001141",
          "name": "㈜씨더블유이엔지",
          "brand": "현대오일뱅크",
          "brandCode": "HDO",
          "price": 1967,
          "address": "서울 금천구 독산동 900-4",
          "roadAddress": "서울 금천구 남부순환로 1410 (독산동)",
          "katecX": 303569.4,
          "katecY": 542566.5,
          "latitude": 37.4801451,
          "longitude": 126.9074514
        },
        {
          "id": "A0000428",
          "name": "주식회사 새서울글로벌",
          "brand": "현대오일뱅크",
          "brandCode": "HDO",
          "price": 1969,
          "address": "서울 동작구 신대방동 686-44",
          "roadAddress": "서울 동작구 시흥대로 616 (신대방동)",
          "katecX": 303404.15715,
          "katecY": 543341.8704,
          "latitude": 37.4871133,
          "longitude": 126.9054815
        },
        {
          "id": "A0000519",
          "name": "화곡역주유소",
          "brand": "RTO",
          "brandCode": "RTO",
          "price": 1979,
          "address": "서울 강서구 화곡동 1076-14",
          "roadAddress": "서울 강서구 강서로 154 (화곡동)",
          "katecX": 297830.02778,
          "katecY": 549333.51356,
          "latitude": 37.5404911,
          "longitude": 126.8416277
        },
        {
          "id": "A0009293",
          "name": "㈜성동에너지",
          "brand": "현대오일뱅크",
          "brandCode": "HDO",
          "price": 1979,
          "address": "서울 성동구 용답동 229-5",
          "roadAddress": "서울 성동구 천호대로 392",
          "katecX": 317359.9675,
          "katecY": 551436.8144,
          "latitude": 37.5614018,
          "longitude": 127.0623579
        },
        {
          "id": "A0000549",
          "name": "이케이에너지(주) 강서주유소",
          "brand": "현대오일뱅크",
          "brandCode": "HDO",
          "price": 1979,
          "address": "서울 강서구 화곡동 983-1",
          "roadAddress": "서울 강서구 화곡로 273 (화곡동)",
          "katecX": 298318.039,
          "katecY": 550276.2648,
          "latitude": 37.5490384,
          "longitude": 126.8470181
        },
        {
          "id": "A0033328",
          "name": "KH에너지㈜직영 KH외발산주유소",
          "brand": "SK에너지",
          "brandCode": "SKE",
          "price": 1983,
          "address": "서울 강서구 외발산동 379",
          "roadAddress": "서울 강서구 방화대로 30",
          "katecX": 295638.67967,
          "katecY": 549652.25429,
          "latitude": 37.5431168,
          "longitude": 126.8167901
        },
        {
          "id": "A0001015",
          "name": "동일석유㈜개나리주유소",
          "brand": "SK에너지",
          "brandCode": "SKE",
          "price": 1984,
          "address": "서울 양천구 신월동 206-1",
          "roadAddress": "서울 양천구 남부순환로 442 (신월동)",
          "katecX": 297042.8987,
          "katecY": 548004.3926,
          "latitude": 37.5284295,
          "longitude": 126.832909
        },
        {
          "id": "A0001005",
          "name": "현대주유소",
          "brand": "S-OIL",
          "brandCode": "SOL",
          "price": 1984,
          "address": "서울 양천구 신월동 167-1",
          "roadAddress": "서울 양천구 남부순환로 372 (신월동)",
          "katecX": 296738.3507,
          "katecY": 548590.8561,
          "latitude": 37.5336788,
          "longitude": 126.8293814
        },
        {
          "id": "A0001029",
          "name": "(주)타이거오일 신정주유소",
          "brand": "SK에너지",
          "brandCode": "SKE",
          "price": 1984,
          "address": "서울 양천구 신정동 1052-12",
          "roadAddress": "서울 양천구 중앙로 226 (신정동)",
          "katecX": 298952.04545,
          "katecY": 546698.44763,
          "latitude": 37.5168757,
          "longitude": 126.854685
        },
        {
          "id": "A0001023",
          "name": "㈜자연에너지 남부주유소",
          "brand": "현대오일뱅크",
          "brandCode": "HDO",
          "price": 1984,
          "address": "서울 양천구 신월4동 525-1",
          "roadAddress": "서울 양천구 남부순환로 553",
          "katecX": 297546.1436,
          "katecY": 546999.2892,
          "latitude": 37.5194307,
          "longitude": 126.838742
        },
        {
          "id": "A0000686",
          "name": "(주)디오티디 은평유니콘주유소",
          "brand": "현대오일뱅크",
          "brandCode": "HDO",
          "price": 1984,
          "address": "서울 은평구 진관동 73-22",
          "roadAddress": "서울 은평구 통일로 1151",
          "katecX": 304199,
          "katecY": 560741,
          "latitude": 37.6439469,
          "longitude": 126.9121908
        },
        {
          "id": "A0000680",
          "name": "서정주유소",
          "brand": "GS칼텍스",
          "brandCode": "GSC",
          "price": 1984,
          "address": "서울 은평구 진관동 240-27",
          "roadAddress": "서울 은평구 통일로 968 (진관동)",
          "katecX": 304825,
          "katecY": 559220,
          "latitude": 37.6303093,
          "longitude": 126.9194817
        },
        {
          "id": "A0009272",
          "name": "(주)연우에너지 신관주유소",
          "brand": "RTO",
          "brandCode": "RTO",
          "price": 1984,
          "address": "서울 관악구 신림동 1641-58",
          "roadAddress": "서울 관악구 신림로 290 (신림동)",
          "katecX": 305616.56394,
          "katecY": 542563.88518,
          "latitude": 37.4803333,
          "longitude": 126.9305948
        },
        {
          "id": "A0000567",
          "name": "유턴주유소",
          "brand": "RTO",
          "brandCode": "RTO",
          "price": 1984,
          "address": "서울 강서구 공항동 61-100",
          "roadAddress": "서울 강서구 남부순환로 57",
          "katecX": 294994.8717,
          "katecY": 551288.7664,
          "latitude": 37.5577866,
          "longitude": 126.8092715
        },
        {
          "id": "A0000011",
          "name": "이케이에너지(주) 무산주유소",
          "brand": "현대오일뱅크",
          "brandCode": "HDO",
          "price": 1984,
          "address": "서울 양천구 신정3동 1294-6",
          "roadAddress": "서울 양천구 신정로 236",
          "katecX": 298323.406,
          "katecY": 546013.55295,
          "latitude": 37.5106363,
          "longitude": 126.8476698
        },
        {
          "id": "A0009284",
          "name": "진우7주유소 ㈜준우에너지",
          "brand": "RTO",
          "brandCode": "RTO",
          "price": 1984,
          "address": "서울 관악구 봉천동 726-10",
          "roadAddress": "서울 관악구 보라매로 41",
          "katecX": 305291,
          "katecY": 543996,
          "latitude": 37.4932022,
          "longitude": 126.9267297
        },
        {
          "id": "A0000928",
          "name": "(주)대농석유 남태령주유소",
          "brand": "SK에너지",
          "brandCode": "SKE",
          "price": 1985,
          "address": "서울 서초구 방배동 2833",
          "roadAddress": "서울 서초구 과천대로 838 (방배동)",
          "katecX": 310659.3,
          "katecY": 541009.5,
          "latitude": 37.4668313,
          "longitude": 126.9877925
        }
      ]
    },
    {
      "regionCode": "01",
      "regionName": "서울",
      "fuelCode": "D047",
      "fuelName": "경유",
      "stations": [
        {
          "id": "A0001086",
          "name": "(주)백운주유소",
          "brand": "RTO",
          "brandCode": "RTO",
          "price": 1964,
          "address": "서울 금천구 독산동 1077-3",
          "roadAddress": "서울 금천구 시흥대로 282",
          "katecX": 302825.0476,
          "katecY": 540202.8721,
          "latitude": 37.4587725,
          "longitude": 126.8993489
        },
        {
          "id": "A0001141",
          "name": "㈜씨더블유이엔지",
          "brand": "현대오일뱅크",
          "brandCode": "HDO",
          "price": 1975,
          "address": "서울 금천구 독산동 900-4",
          "roadAddress": "서울 금천구 남부순환로 1410 (독산동)",
          "katecX": 303569.4,
          "katecY": 542566.5,
          "latitude": 37.4801451,
          "longitude": 126.9074514
        },
        {
          "id": "A0001164",
          "name": "(주)화동유업 화동주유소",
          "brand": "SK에너지",
          "brandCode": "SKE",
          "price": 1975,
          "address": "서울 금천구 독산동 967",
          "roadAddress": "서울 금천구 시흥대로 484",
          "katecX": 302821.53096,
          "katecY": 542201.78194,
          "latitude": 37.4767808,
          "longitude": 126.8990451
        },
        {
          "id": "A0001132",
          "name": "㈜씨더블유 이엔지 금천지점",
          "brand": "현대오일뱅크",
          "brandCode": "HDO",
          "price": 1975,
          "address": "서울 금천구 시흥동 860-36",
          "roadAddress": "서울 금천구 독산로 147",
          "katecX": 303289.50294,
          "katecY": 540374.09535,
          "latitude": 37.4603639,
          "longitude": 126.9045755
        },
        {
          "id": "A0009293",
          "name": "㈜성동에너지",
          "brand": "현대오일뱅크",
          "brandCode": "HDO",
          "price": 1977,
          "address": "서울 성동구 용답동 229-5",
          "roadAddress": "서울 성동구 천호대로 392",
          "katecX": 317359.9675,
          "katecY": 551436.8144,
          "latitude": 37.5614018,
          "longitude": 127.0623579
        },
        {
          "id": "A0000443",
          "name": "성락주유소",
          "brand": "S-OIL",
          "brandCode": "SOL",
          "price": 1977,
          "address": "서울 영등포구 신길5동 355-545",
          "roadAddress": "서울 영등포구 가마산로 414 (신길동)",
          "katecX": 303199,
          "katecY": 545191,
          "latitude": 37.5037509,
          "longitude": 126.9029183
        },
        {
          "id": "A0001034",
          "name": "도림주유소",
          "brand": "RTO",
          "brandCode": "RTO",
          "price": 1977,
          "address": "서울 영등포구 도림동 243-2",
          "roadAddress": "서울 영등포구 도림로 343 (도림동)",
          "katecX": 302974.2252,
          "katecY": 545620.8573,
          "latitude": 37.5075999,
          "longitude": 126.9003196
        },
        {
          "id": "A0000427",
          "name": "영등포제일셀프주유소",
          "brand": "현대오일뱅크",
          "brandCode": "HDO",
          "price": 1977,
          "address": "서울 영등포구 대림동 667-9",
          "roadAddress": "서울 영등포구 가마산로 379",
          "katecX": 302896.0305,
          "katecY": 545023.6863,
          "latitude": 37.5022117,
          "longitude": 126.8995143
        },
        {
          "id": "A0000444",
          "name": "(주)대청에너지 대청주유소",
          "brand": "GS칼텍스",
          "brandCode": "GSC",
          "price": 1977,
          "address": "서울 영등포구 대림동 776-3",
          "roadAddress": "서울 영등포구 가마산로 328 (대림동)",
          "katecX": 302548,
          "katecY": 544624,
          "latitude": 37.4985741,
          "longitude": 126.8956318
        },
        {
          "id": "A0000428",
          "name": "주식회사 새서울글로벌",
          "brand": "현대오일뱅크",
          "brandCode": "HDO",
          "price": 1978,
          "address": "서울 동작구 신대방동 686-44",
          "roadAddress": "서울 동작구 시흥대로 616 (신대방동)",
          "katecX": 303404.15715,
          "katecY": 543341.8704,
          "latitude": 37.4871133,
          "longitude": 126.9054815
        },
        {
          "id": "A0009939",
          "name": "양운개발 마천로주유소",
          "brand": "SK에너지",
          "brandCode": "SKE",
          "price": 1978,
          "address": "서울 송파구 마천동 31",
          "roadAddress": "서울 송파구 마천로 230",
          "katecX": 324438.9603,
          "katecY": 544568.9477,
          "latitude": 37.500133,
          "longitude": 127.1431851
        },
        {
          "id": "A0000549",
          "name": "이케이에너지(주) 강서주유소",
          "brand": "현대오일뱅크",
          "brandCode": "HDO",
          "price": 1978,
          "address": "서울 강서구 화곡동 983-1",
          "roadAddress": "서울 강서구 화곡로 273 (화곡동)",
          "katecX": 298318.039,
          "katecY": 550276.2648,
          "latitude": 37.5490384,
          "longitude": 126.8470181
        },
        {
          "id": "A0000519",
          "name": "화곡역주유소",
          "brand": "RTO",
          "brandCode": "RTO",
          "price": 1978,
          "address": "서울 강서구 화곡동 1076-14",
          "roadAddress": "서울 강서구 강서로 154 (화곡동)",
          "katecX": 297830.02778,
          "katecY": 549333.51356,
          "latitude": 37.5404911,
          "longitude": 126.8416277
        },
        {
          "id": "A0009989",
          "name": "상아주유소",
          "brand": "S-OIL",
          "brandCode": "SOL",
          "price": 1983,
          "address": "서울 송파구 마천동 49-11",
          "roadAddress": "서울 송파구 거마로 82",
          "katecX": 324844.3,
          "katecY": 544548.6,
          "latitude": 37.4999828,
          "longitude": 127.147771
        },
        {
          "id": "A0010023",
          "name": "서울이엔지㈜ 이월주유소",
          "brand": "GS칼텍스",
          "brandCode": "GSC",
          "price": 1983,
          "address": "서울 송파구 송파동 174-16",
          "roadAddress": "서울 송파구 송이로 28",
          "katecX": 322087.39514,
          "katecY": 544857.2824,
          "latitude": 37.502535,
          "longitude": 127.1165615
        },
        {
          "id": "A0000491",
          "name": "(주)타이거오일 방화주유소",
          "brand": "SK에너지",
          "brandCode": "SKE",
          "price": 1983,
          "address": "서울 강서구 방화동 609-59",
          "roadAddress": "서울 강서구 방화동로 58-2",
          "katecX": 295279,
          "katecY": 552147.9,
          "latitude": 37.5655588,
          "longitude": 126.8123639
        },
        {
          "id": "A0009932",
          "name": "남성대주유소",
          "brand": "SK에너지",
          "brandCode": "SKE",
          "price": 1983,
          "address": "서울 송파구 장지동 645-13",
          "roadAddress": "서울 송파구 송파대로 52 (장지동)",
          "katecX": 323016.65605,
          "katecY": 541837.69536,
          "latitude": 37.4754072,
          "longitude": 127.127387
        },
        {
          "id": "A0005900",
          "name": "(주)아이에스피에너지(서울서부고속주유소)",
          "brand": "현대오일뱅크",
          "brandCode": "HDO",
          "price": 1983,
          "address": "서울 은평구 응암동 594-1",
          "roadAddress": "서울 은평구 응암로 163",
          "katecX": 304456.00039,
          "katecY": 554380.95521,
          "latitude": 37.5866758,
          "longitude": 126.9159347
        },
        {
          "id": "A0033600",
          "name": "위례드림주유소",
          "brand": "S-OIL",
          "brandCode": "SOL",
          "price": 1983,
          "address": "서울시 송파구 장지동 646-7",
          "roadAddress": "서울시 송파구  위례중앙로 10",
          "katecX": 323108.45628,
          "katecY": 541830.80795,
          "latitude": 37.4753528,
          "longitude": 127.1284255
        },
        {
          "id": "A0033328",
          "name": "KH에너지㈜직영 KH외발산주유소",
          "brand": "SK에너지",
          "brandCode": "SKE",
          "price": 1983,
          "address": "서울 강서구 외발산동 379",
          "roadAddress": "서울 강서구 방화대로 30",
          "katecX": 295638.67967,
          "katecY": 549652.25429,
          "latitude": 37.5431168,
          "longitude": 126.8167901
        }
      ]
    },
    {
      "regionCode": "02",
      "regionName": "경기",
      "fuelCode": "B027",
      "fuelName": "휘발유",
      "stations": [
        {
          "id": "A0004417",
          "name": "KH에너지㈜직영 대복주유소",
          "brand": "자가상표",
          "brandCode": "ETC",
          "price": 1963,
          "address": "경기 양주시 광사동 401",
          "roadAddress": "경기 양주시 부흥로 1807",
          "katecX": 318243,
          "katecY": 576398,
          "latitude": 37.7863656,
          "longitude": 127.0695478
        },
        {
          "id": "A0006122",
          "name": "㈜원흥.양주지점 제이앤에스",
          "brand": "현대오일뱅크",
          "brandCode": "HDO",
          "price": 1963,
          "address": "경기 양주시 산북동 198-3",
          "roadAddress": "경기 양주시 평화로 1107 (산북동)",
          "katecX": 316375.4981,
          "katecY": 576840.0958,
          "latitude": 37.7901792,
          "longitude": 127.0482971
        },
        {
          "id": "A0005030",
          "name": "(주)교현 알뜰주유소",
          "brand": "RTO",
          "brandCode": "RTO",
          "price": 1963,
          "address": "경기 양주시 장흥면 교현리 333-3",
          "roadAddress": "경기 양주시 장흥면 북한산로 863",
          "katecX": 309314,
          "katecY": 566778,
          "latitude": 37.698855,
          "longitude": 126.9693909
        },
        {
          "id": "A0002264",
          "name": "차사랑주유소",
          "brand": "RTO",
          "brandCode": "RTO",
          "price": 1965,
          "address": "경기 오산시 오산동 851-4",
          "roadAddress": "경기 오산시 경기대로 296 (오산동)",
          "katecX": 317941.8,
          "katecY": 505904.6,
          "latitude": 37.1512146,
          "longitude": 127.0739965
        },
        {
          "id": "A0002511",
          "name": "경진셀프주유소",
          "brand": "SK에너지",
          "brandCode": "SKE",
          "price": 1968,
          "address": "경기 수원시 장안구 파장동 585-4",
          "roadAddress": "경기 수원시 장안구 경수대로 1059",
          "katecX": 311212.00293,
          "katecY": 523376.99537,
          "latitude": 37.3080225,
          "longitude": 126.9961602
        },
        {
          "id": "A0007006",
          "name": "㈜현 유니콘주유소",
          "brand": "현대오일뱅크",
          "brandCode": "HDO",
          "price": 1968,
          "address": "경기 평택시 현덕면 권관리 919-10",
          "roadAddress": "경기 평택시 현덕면 서해로 399",
          "katecX": 303570.64463,
          "katecY": 482224.76664,
          "latitude": 36.9364871,
          "longitude": 126.9152756
        },
        {
          "id": "A0005920",
          "name": "약대주유소",
          "brand": "S-OIL",
          "brandCode": "SOL",
          "price": 1969,
          "address": "경기 부천시 오정구 내동 55",
          "roadAddress": "경기 부천시 오정구 신흥로 365",
          "katecX": 291906.2286,
          "katecY": 546688.4002,
          "latitude": 37.5159855,
          "longitude": 126.7749983
        },
        {
          "id": "A0001901",
          "name": "주식회사 기정에너지",
          "brand": "GS칼텍스",
          "brandCode": "GSC",
          "price": 1972,
          "address": "경기 시흥시 신천동 586-6",
          "roadAddress": "경기 시흥시 수인로 3471 (신천동)",
          "katecX": 291677,
          "katecY": 538576,
          "latitude": 37.4428757,
          "longitude": 126.7736009
        },
        {
          "id": "A0006860",
          "name": "시흥주유소",
          "brand": "RTO",
          "brandCode": "RTO",
          "price": 1972,
          "address": "경기 시흥시 신천동 892-4",
          "roadAddress": "경기 시흥시 시흥대로 1049",
          "katecX": 293271.2446,
          "katecY": 537067.2078,
          "latitude": 37.4294686,
          "longitude": 126.7918324
        },
        {
          "id": "A0005571",
          "name": "(주)원흥 풍동지점",
          "brand": "현대오일뱅크",
          "brandCode": "HDO",
          "price": 1973,
          "address": "경기 고양시 일산동구 풍동619-2",
          "roadAddress": "경기 고양시 일산동구 무궁화로 299 (풍동)",
          "katecX": 293736.87552,
          "katecY": 564350.87533,
          "latitude": 37.6753142,
          "longitude": 126.7931353
        },
        {
          "id": "A0005519",
          "name": "경일석유(주) 신우주유소",
          "brand": "GS칼텍스",
          "brandCode": "GSC",
          "price": 1973,
          "address": "경기 고양시 일산동구 식사동 838-7",
          "roadAddress": "경기도 고양시 일산동구  고양대로 952 (식사동)",
          "katecX": 294336.1,
          "katecY": 564418.6,
          "latitude": 37.6759936,
          "longitude": 126.7999171
        },
        {
          "id": "A0005272",
          "name": "안곡주유소",
          "brand": "현대오일뱅크",
          "brandCode": "HDO",
          "price": 1973,
          "address": "경기 고양시 일산동구 중산동 산83-5",
          "roadAddress": "경기 고양시 일산동구 고양대로 831",
          "katecX": 293286.7961,
          "katecY": 565014.8523,
          "latitude": 37.6812434,
          "longitude": 126.7879368
        },
        {
          "id": "A0005463",
          "name": "(주)원흥 원흥동지점",
          "brand": "현대오일뱅크",
          "brandCode": "HDO",
          "price": 1973,
          "address": "경기 고양시 덕양구 원흥동 367",
          "roadAddress": "경기 고양시 덕양구 서오릉로 712 (원흥동)",
          "katecX": 300064.6586,
          "katecY": 560361.0942,
          "latitude": 37.6400831,
          "longitude": 126.8654026
        },
        {
          "id": "A0005297",
          "name": "개나리주유소",
          "brand": "RTO",
          "brandCode": "RTO",
          "price": 1973,
          "address": "경기 고양시 덕양구 벽제동 544-3",
          "roadAddress": "경기 고양시 덕양구 보광로 126 (벽제동)",
          "katecX": 303927.8,
          "katecY": 569871.1,
          "latitude": 37.7261708,
          "longitude": 126.9079128
        },
        {
          "id": "A0005271",
          "name": "(주)정발산 주유소",
          "brand": "현대오일뱅크",
          "brandCode": "HDO",
          "price": 1973,
          "address": "경기 고양시 일산동구 정발산동 1358",
          "roadAddress": "경기 고양시 일산동구 경의로 468 (정발산동)",
          "katecX": 293162,
          "katecY": 563854,
          "latitude": 37.6707712,
          "longitude": 126.7866926
        },
        {
          "id": "A0005066",
          "name": "남선석유(주)성현셀프주유소",
          "brand": "S-OIL",
          "brandCode": "SOL",
          "price": 1973,
          "address": "경기 고양시 일산동구 성석동 986-4",
          "roadAddress": "경기 고양시 일산동구 성현로 78 (성석동)",
          "katecX": 293926.4,
          "katecY": 567837.1,
          "latitude": 37.706742,
          "longitude": 126.7947751
        },
        {
          "id": "A0005391",
          "name": "KH에너지㈜직영 애니골주유소",
          "brand": "SK에너지",
          "brandCode": "SKE",
          "price": 1973,
          "address": "경기 고양시 일산동구 풍동 622-1",
          "roadAddress": "경기 고양시 일산동구 무궁화로 307",
          "katecX": 293795,
          "katecY": 564395,
          "latitude": 37.6757185,
          "longitude": 126.7937876
        },
        {
          "id": "A0005525",
          "name": "㈜보성중산주유소",
          "brand": "SK에너지",
          "brandCode": "SKE",
          "price": 1973,
          "address": "경기 고양시 일산동구 중산동 1710",
          "roadAddress": "경기 고양시 일산동구 고양대로 834 (중산동)",
          "katecX": 293256,
          "katecY": 564974,
          "latitude": 37.6808718,
          "longitude": 126.7875937
        },
        {
          "id": "A0005266",
          "name": "(주)원흥 원당동지점",
          "brand": "현대오일뱅크",
          "brandCode": "HDO",
          "price": 1973,
          "address": "경기 고양시 덕양구 원당동 179-1",
          "roadAddress": "경기 고양시 덕양구 호국로 1113",
          "katecX": 299700,
          "katecY": 564256,
          "latitude": 37.6751318,
          "longitude": 126.8607354
        },
        {
          "id": "A0005163",
          "name": "㈜너멍골",
          "brand": "S-OIL",
          "brandCode": "SOL",
          "price": 1973,
          "address": "경기 고양시 덕양구 신원동 437-4",
          "roadAddress": "경기 고양시 덕양구 호국로 1259",
          "katecX": 301060.6,
          "katecY": 564428.4,
          "latitude": 37.6768329,
          "longitude": 126.8761333
        }
      ]
    },
    {
      "regionCode": "02",
      "regionName": "경기",
      "fuelCode": "D047",
      "fuelName": "경유",
      "stations": [
        {
          "id": "A0033625",
          "name": "주식회사 시헌 STAY 365",
          "brand": "SK에너지",
          "brandCode": "SKE",
          "price": 1929,
          "address": "경기 용인시 처인구 남사읍 완장리 147-1",
          "roadAddress": "경기 용인시 처인구 남사읍 처인성로 973",
          "katecX": 327415.65415,
          "katecY": 508232.10477,
          "latitude": 37.1729716,
          "longitude": 127.1804128
        },
        {
          "id": "A0005003",
          "name": "(주)어하둥둥알뜰주유소",
          "brand": "RTO",
          "brandCode": "RTO",
          "price": 1947,
          "address": "경기 양주시 유양동 612-4",
          "roadAddress": "경기 양주시 부흥로 1300",
          "katecX": 313875.60453,
          "katecY": 576535.82059,
          "latitude": 37.7872053,
          "longitude": 127.0199536
        },
        {
          "id": "A0004808",
          "name": "서울이엔지㈜ 일월주유소",
          "brand": "현대오일뱅크",
          "brandCode": "HDO",
          "price": 1948,
          "address": "경기 양주시 백석읍 방성리 471-4",
          "roadAddress": "경기 양주시 백석읍 부흥로 1126",
          "katecX": 312834.00301,
          "katecY": 577764.99533,
          "latitude": 37.7981801,
          "longitude": 127.0079814
        },
        {
          "id": "A0004826",
          "name": "하나셀프주유소",
          "brand": "GS칼텍스",
          "brandCode": "GSC",
          "price": 1948,
          "address": "경기 양주시 백석읍 방성리 86-3",
          "roadAddress": "경기 양주시 백석읍 부흥로 1024",
          "katecX": 312246,
          "katecY": 578576,
          "latitude": 37.80543,
          "longitude": 127.0012071
        },
        {
          "id": "A0004627",
          "name": "석우리주유소",
          "brand": "S-OIL",
          "brandCode": "SOL",
          "price": 1949,
          "address": "경기 양주시 광적면 석우리 441-9",
          "roadAddress": "경기 양주시 광적면 광적로 192",
          "katecX": 310089,
          "katecY": 581873,
          "latitude": 37.8349221,
          "longitude": 126.9763051
        },
        {
          "id": "A0005030",
          "name": "(주)교현 알뜰주유소",
          "brand": "RTO",
          "brandCode": "RTO",
          "price": 1953,
          "address": "경기 양주시 장흥면 교현리 333-3",
          "roadAddress": "경기 양주시 장흥면 북한산로 863",
          "katecX": 309314,
          "katecY": 566778,
          "latitude": 37.698855,
          "longitude": 126.9693909
        },
        {
          "id": "A0017725",
          "name": "광적주유소",
          "brand": "S-OIL",
          "brandCode": "SOL",
          "price": 1953,
          "address": "경기 양주시 광적면 가납리 444-25",
          "roadAddress": "경기 양주시 광적면 부흥로 917",
          "katecX": 311466.46291,
          "katecY": 579265.73919,
          "latitude": 37.8115684,
          "longitude": 126.9922713
        },
        {
          "id": "A0004417",
          "name": "KH에너지㈜직영 대복주유소",
          "brand": "자가상표",
          "brandCode": "ETC",
          "price": 1953,
          "address": "경기 양주시 광사동 401",
          "roadAddress": "경기 양주시 부흥로 1807",
          "katecX": 318243,
          "katecY": 576398,
          "latitude": 37.7863656,
          "longitude": 127.0695478
        },
        {
          "id": "A0006122",
          "name": "㈜원흥.양주지점 제이앤에스",
          "brand": "현대오일뱅크",
          "brandCode": "HDO",
          "price": 1953,
          "address": "경기 양주시 산북동 198-3",
          "roadAddress": "경기 양주시 평화로 1107 (산북동)",
          "katecX": 316375.4981,
          "katecY": 576840.0958,
          "latitude": 37.7901792,
          "longitude": 127.0482971
        },
        {
          "id": "A0004819",
          "name": "㈜제이씨네트웍 양주제일백석점",
          "brand": "현대오일뱅크",
          "brandCode": "HDO",
          "price": 1960,
          "address": "경기 양주시 백석읍 방성리 51-16",
          "roadAddress": "경기 양주시 백석읍 부흥로 991",
          "katecX": 312009,
          "katecY": 578770,
          "latitude": 37.8071549,
          "longitude": 126.9984924
        },
        {
          "id": "A0003419",
          "name": "희망가득주유소",
          "brand": "현대오일뱅크",
          "brandCode": "HDO",
          "price": 1960,
          "address": "경기 안성시 삼죽면 미장리 457-4",
          "roadAddress": "경기 안성시 삼죽면 서동대로 6102",
          "katecX": 342987.56952,
          "katecY": 493290.6862,
          "latitude": 37.0394195,
          "longitude": 127.3568945
        },
        {
          "id": "A0002264",
          "name": "차사랑주유소",
          "brand": "RTO",
          "brandCode": "RTO",
          "price": 1960,
          "address": "경기 오산시 오산동 851-4",
          "roadAddress": "경기 오산시 경기대로 296 (오산동)",
          "katecX": 317941.8,
          "katecY": 505904.6,
          "latitude": 37.1512146,
          "longitude": 127.0739965
        },
        {
          "id": "A0006860",
          "name": "시흥주유소",
          "brand": "RTO",
          "brandCode": "RTO",
          "price": 1962,
          "address": "경기 시흥시 신천동 892-4",
          "roadAddress": "경기 시흥시 시흥대로 1049",
          "katecX": 293271.2446,
          "katecY": 537067.2078,
          "latitude": 37.4294686,
          "longitude": 126.7918324
        },
        {
          "id": "A0005606",
          "name": "(주)디오티디 고양야옹이주유소",
          "brand": "현대오일뱅크",
          "brandCode": "HDO",
          "price": 1963,
          "address": "경기 고양시 일산서구 덕이동 805",
          "roadAddress": "경기 고양시 일산서구 덕이로 188 (덕이동)",
          "katecX": 289112.30296,
          "katecY": 566566.09531,
          "latitude": 37.6947217,
          "longitude": 126.7403838
        },
        {
          "id": "A0005163",
          "name": "㈜너멍골",
          "brand": "S-OIL",
          "brandCode": "SOL",
          "price": 1963,
          "address": "경기 고양시 덕양구 신원동 437-4",
          "roadAddress": "경기 고양시 덕양구 호국로 1259",
          "katecX": 301060.6,
          "katecY": 564428.4,
          "latitude": 37.6768329,
          "longitude": 126.8761333
        },
        {
          "id": "A0005525",
          "name": "㈜보성중산주유소",
          "brand": "SK에너지",
          "brandCode": "SKE",
          "price": 1963,
          "address": "경기 고양시 일산동구 중산동 1710",
          "roadAddress": "경기 고양시 일산동구 고양대로 834 (중산동)",
          "katecX": 293256,
          "katecY": 564974,
          "latitude": 37.6808718,
          "longitude": 126.7875937
        },
        {
          "id": "A0005154",
          "name": "KH에너지㈜직영 가나주유소",
          "brand": "SK에너지",
          "brandCode": "SKE",
          "price": 1963,
          "address": "경기 고양시 덕양구 벽제동 159-9",
          "roadAddress": "경기 고양시 덕양구 호국로 1941 (벽제동)",
          "katecX": 304888,
          "katecY": 568911,
          "latitude": 37.7176217,
          "longitude": 126.9189293
        },
        {
          "id": "A0005613",
          "name": "태림주유소",
          "brand": "현대오일뱅크",
          "brandCode": "HDO",
          "price": 1963,
          "address": "경기 고양시 일산서구 가좌동 220-1",
          "roadAddress": "경기 고양시 일산서구 송산로 406",
          "katecX": 287648.298,
          "katecY": 565555.1289,
          "latitude": 37.6854362,
          "longitude": 126.7239429
        },
        {
          "id": "A0005326",
          "name": "KH에너지㈜직영 애니골2주유소",
          "brand": "SK에너지",
          "brandCode": "SKE",
          "price": 1963,
          "address": "경기 고양시 일산동구 풍동 627-2",
          "roadAddress": "경기 고양시 일산동구 무궁화로 304 (풍동)",
          "katecX": 293824,
          "katecY": 564330,
          "latitude": 37.6751363,
          "longitude": 126.7941258
        },
        {
          "id": "A0003177",
          "name": "㈜서정스타주유소",
          "brand": "S-OIL",
          "brandCode": "SOL",
          "price": 1963,
          "address": "경기 평택시 안중읍 용성리 65-1",
          "roadAddress": "경기 평택시 안중읍 서해로 1408",
          "katecX": 306390.00678,
          "katecY": 491251.63351,
          "latitude": 37.018105,
          "longitude": 126.9457992
        }
      ]
    },
    {
      "regionCode": "03",
      "regionName": "강원",
      "fuelCode": "B027",
      "fuelName": "휘발유",
      "stations": [
        {
          "id": "A0011396",
          "name": "회산주유소",
          "brand": "S-OIL",
          "brandCode": "SOL",
          "price": 1966,
          "address": "강원 강릉시 회산동 234-1",
          "roadAddress": "강원 강릉시 관솔길 27 (회산동)",
          "katecX": 476869.0913,
          "katecY": 571111.1021,
          "latitude": 37.7391922,
          "longitude": 128.8699272
        },
        {
          "id": "A0011488",
          "name": "솔향주유소",
          "brand": "RTO",
          "brandCode": "RTO",
          "price": 1968,
          "address": "강원 강릉시 홍제동 757-1",
          "roadAddress": "강원 강릉시 공제로437번길 1 (홍제동)",
          "katecX": 476659,
          "katecY": 571877,
          "latitude": 37.7461101,
          "longitude": 128.8676243
        },
        {
          "id": "A0010392",
          "name": "춘천주유소",
          "brand": "SK에너지",
          "brandCode": "SKE",
          "price": 1973,
          "address": "강원 춘천시 효자동 287-1",
          "roadAddress": "강원 춘천시  공지로 234-1 (효자동)",
          "katecX": 377115.7567,
          "katecY": 584606.7506,
          "latitude": 37.8637108,
          "longitude": 127.7376721
        },
        {
          "id": "A0033649",
          "name": "춘천농협주유소 엔타점",
          "brand": "농협알뜰",
          "brandCode": "NHO",
          "price": 1973,
          "address": "강원 춘천시 석사동 980",
          "roadAddress": "강원 춘천시 후석로 120",
          "katecX": 378016.80833,
          "katecY": 584557.98708,
          "latitude": 37.8632938,
          "longitude": 127.7479142
        },
        {
          "id": "A0009978",
          "name": "거두주유소",
          "brand": "GS칼텍스",
          "brandCode": "GSC",
          "price": 1973,
          "address": "강원 춘천시 동내면 거두리 910",
          "roadAddress": "강원도 춘천시 동내면 춘천순환로 59",
          "katecX": 378218.14178,
          "katecY": 583718.13754,
          "latitude": 37.8557315,
          "longitude": 127.7502279
        },
        {
          "id": "A0010431",
          "name": "㈜붕붕붕주유소",
          "brand": "GS칼텍스",
          "brandCode": "GSC",
          "price": 1973,
          "address": "강원 춘천시 석사동 430-1",
          "roadAddress": "강원 춘천시 공지로 156-3",
          "katecX": 377764.15575,
          "katecY": 584168.95196,
          "latitude": 37.8597823,
          "longitude": 127.7450548
        },
        {
          "id": "A0010481",
          "name": "㈜갤럭시(Galaxy)E＆S",
          "brand": "GS칼텍스",
          "brandCode": "GSC",
          "price": 1975,
          "address": "강원 춘천시 동내면 거두리 682-8",
          "roadAddress": "강원 춘천시 동내면 세실로 20",
          "katecX": 379108.27023,
          "katecY": 584110.51545,
          "latitude": 37.8592879,
          "longitude": 127.7603318
        },
        {
          "id": "A0010326",
          "name": "새춘천주유소",
          "brand": "RTO",
          "brandCode": "RTO",
          "price": 1975,
          "address": "강원 춘천시 동내면 거두리 667-1",
          "roadAddress": "강원 춘천시 동내면 세실로 38",
          "katecX": 379030.8987,
          "katecY": 584271.8049,
          "latitude": 37.8607393,
          "longitude": 127.7594478
        },
        {
          "id": "A0010364",
          "name": "IOZEN(이오젠)",
          "brand": "SK에너지",
          "brandCode": "SKE",
          "price": 1975,
          "address": "강원 춘천시 동내면 고은리 537-1",
          "roadAddress": "강원 춘천시 동내면 순환대로 758",
          "katecX": 380086.1,
          "katecY": 582846.8,
          "latitude": 37.8479236,
          "longitude": 127.7714795
        },
        {
          "id": "A0011577",
          "name": "KH에너지㈜직영 교동주유소",
          "brand": "SK에너지",
          "brandCode": "SKE",
          "price": 1979,
          "address": "강원 강릉시 교동 1893",
          "roadAddress": "강원 강릉시 하슬라로 159 (교동)",
          "katecX": 477267.9199,
          "katecY": 574009.603,
          "latitude": 37.7652725,
          "longitude": 128.8747592
        },
        {
          "id": "A0010994",
          "name": "동명주유소",
          "brand": "RTO",
          "brandCode": "RTO",
          "price": 1983,
          "address": "강원 원주시 태장1동 155",
          "roadAddress": "강원 원주시 치악로 2090 (태장동)",
          "katecX": 396880,
          "katecY": 529274,
          "latitude": 37.3654125,
          "longitude": 127.9625489
        },
        {
          "id": "A0000867",
          "name": "유원주유소",
          "brand": "GS칼텍스",
          "brandCode": "GSC",
          "price": 1983,
          "address": "강원 원주시 단계동 455-16",
          "roadAddress": "강원 원주시 봉화로 87 (단계동)",
          "katecX": 393843.4708,
          "katecY": 527818.0042,
          "latitude": 37.3522766,
          "longitude": 127.9282799
        },
        {
          "id": "A0011060",
          "name": "원유주유소",
          "brand": "GS칼텍스",
          "brandCode": "GSC",
          "price": 1983,
          "address": "강원 원주시 단계동 114-6",
          "roadAddress": "강원 원주시 원문로 149 (단계동)",
          "katecX": 394198.91485,
          "katecY": 528155.90609,
          "latitude": 37.3553238,
          "longitude": 127.9322893
        },
        {
          "id": "A0010337",
          "name": "광장셀프주유소",
          "brand": "SK에너지",
          "brandCode": "SKE",
          "price": 1984,
          "address": "강원 춘천시 효자동 653-1",
          "roadAddress": "강원 춘천시 효자로 150",
          "katecX": 376945.95091,
          "katecY": 585960.1595,
          "latitude": 37.8759009,
          "longitude": 127.7356986
        },
        {
          "id": "A0010507",
          "name": "㈜대경유업 퇴계로주유소",
          "brand": "현대오일뱅크",
          "brandCode": "HDO",
          "price": 1985,
          "address": "강원 춘천시 석사동 818-6",
          "roadAddress": "강원 춘천시 퇴계로 231",
          "katecX": 377692.6239,
          "katecY": 583748.2141,
          "latitude": 37.8559896,
          "longitude": 127.744255
        },
        {
          "id": "A0011446",
          "name": "㈜범일로 북강릉주유소",
          "brand": "SK에너지",
          "brandCode": "SKE",
          "price": 1985,
          "address": "강원 강릉시 연곡면 동덕리 259",
          "roadAddress": "강원 강릉시 연곡면 동해대로 4094",
          "katecX": 474361.5,
          "katecY": 583073.8,
          "latitude": 37.8471756,
          "longitude": 128.8427019
        },
        {
          "id": "A0011063",
          "name": "원주서일주유소",
          "brand": "S-OIL",
          "brandCode": "SOL",
          "price": 1986,
          "address": "강원 원주시 단계동 500-1",
          "roadAddress": "강원 원주시 원문로 192 (단계동)",
          "katecX": 393877.36996,
          "katecY": 528260.63533,
          "latitude": 37.3562654,
          "longitude": 127.9286587
        },
        {
          "id": "A0033146",
          "name": "대성주유소(주)대성에너지",
          "brand": "S-OIL",
          "brandCode": "SOL",
          "price": 1987,
          "address": "강원 원주시 우산동 59-1",
          "roadAddress": "강원 원주시 북원로 2607 (우산동)",
          "katecX": 395216.82196,
          "katecY": 530447.22606,
          "latitude": 37.375977,
          "longitude": 127.9437642
        },
        {
          "id": "A0011179",
          "name": "SK원주주유소",
          "brand": "SK에너지",
          "brandCode": "SKE",
          "price": 1987,
          "address": "강원 원주시 태장동 1353-1",
          "roadAddress": "강원 원주시 북원로 2732 (태장동)",
          "katecX": 395639.3091,
          "katecY": 531706.6963,
          "latitude": 37.3873283,
          "longitude": 127.9485269
        },
        {
          "id": "A0011004",
          "name": "(주)에스케이지 정상주유소",
          "brand": "SK에너지",
          "brandCode": "SKE",
          "price": 1987,
          "address": "강원 원주시 명륜동 635-16",
          "roadAddress": "강원 원주시 한지공원길 42 (명륜동)",
          "katecX": 395072,
          "katecY": 525418,
          "latitude": 37.3306576,
          "longitude": 127.9421638
        }
      ]
    },
    {
      "regionCode": "03",
      "regionName": "강원",
      "fuelCode": "D047",
      "fuelName": "경유",
      "stations": [
        {
          "id": "A0011396",
          "name": "회산주유소",
          "brand": "S-OIL",
          "brandCode": "SOL",
          "price": 1956,
          "address": "강원 강릉시 회산동 234-1",
          "roadAddress": "강원 강릉시 관솔길 27 (회산동)",
          "katecX": 476869.0913,
          "katecY": 571111.1021,
          "latitude": 37.7391922,
          "longitude": 128.8699272
        },
        {
          "id": "A0011488",
          "name": "솔향주유소",
          "brand": "RTO",
          "brandCode": "RTO",
          "price": 1958,
          "address": "강원 강릉시 홍제동 757-1",
          "roadAddress": "강원 강릉시 공제로437번길 1 (홍제동)",
          "katecX": 476659,
          "katecY": 571877,
          "latitude": 37.7461101,
          "longitude": 128.8676243
        },
        {
          "id": "A0009978",
          "name": "거두주유소",
          "brand": "GS칼텍스",
          "brandCode": "GSC",
          "price": 1963,
          "address": "강원 춘천시 동내면 거두리 910",
          "roadAddress": "강원도 춘천시 동내면 춘천순환로 59",
          "katecX": 378218.14178,
          "katecY": 583718.13754,
          "latitude": 37.8557315,
          "longitude": 127.7502279
        },
        {
          "id": "A0010431",
          "name": "㈜붕붕붕주유소",
          "brand": "GS칼텍스",
          "brandCode": "GSC",
          "price": 1963,
          "address": "강원 춘천시 석사동 430-1",
          "roadAddress": "강원 춘천시 공지로 156-3",
          "katecX": 377764.15575,
          "katecY": 584168.95196,
          "latitude": 37.8597823,
          "longitude": 127.7450548
        },
        {
          "id": "A0010392",
          "name": "춘천주유소",
          "brand": "SK에너지",
          "brandCode": "SKE",
          "price": 1963,
          "address": "강원 춘천시 효자동 287-1",
          "roadAddress": "강원 춘천시  공지로 234-1 (효자동)",
          "katecX": 377115.7567,
          "katecY": 584606.7506,
          "latitude": 37.8637108,
          "longitude": 127.7376721
        },
        {
          "id": "A0033649",
          "name": "춘천농협주유소 엔타점",
          "brand": "농협알뜰",
          "brandCode": "NHO",
          "price": 1963,
          "address": "강원 춘천시 석사동 980",
          "roadAddress": "강원 춘천시 후석로 120",
          "katecX": 378016.80833,
          "katecY": 584557.98708,
          "latitude": 37.8632938,
          "longitude": 127.7479142
        },
        {
          "id": "A0010326",
          "name": "새춘천주유소",
          "brand": "RTO",
          "brandCode": "RTO",
          "price": 1965,
          "address": "강원 춘천시 동내면 거두리 667-1",
          "roadAddress": "강원 춘천시 동내면 세실로 38",
          "katecX": 379030.8987,
          "katecY": 584271.8049,
          "latitude": 37.8607393,
          "longitude": 127.7594478
        },
        {
          "id": "A0010481",
          "name": "㈜갤럭시(Galaxy)E＆S",
          "brand": "GS칼텍스",
          "brandCode": "GSC",
          "price": 1965,
          "address": "강원 춘천시 동내면 거두리 682-8",
          "roadAddress": "강원 춘천시 동내면 세실로 20",
          "katecX": 379108.27023,
          "katecY": 584110.51545,
          "latitude": 37.8592879,
          "longitude": 127.7603318
        },
        {
          "id": "A0011553",
          "name": "북강릉농협주유소",
          "brand": "농협알뜰",
          "brandCode": "NHO",
          "price": 1970,
          "address": "강원 강릉시 주문진읍 주문리 1157-8",
          "roadAddress": "강원 강릉시 주문진읍 신영길 43",
          "katecX": 472000.22036,
          "katecY": 589543.3872,
          "latitude": 37.9056512,
          "longitude": 128.8165172
        },
        {
          "id": "A0011446",
          "name": "㈜범일로 북강릉주유소",
          "brand": "SK에너지",
          "brandCode": "SKE",
          "price": 1975,
          "address": "강원 강릉시 연곡면 동덕리 259",
          "roadAddress": "강원 강릉시 연곡면 동해대로 4094",
          "katecX": 474361.5,
          "katecY": 583073.8,
          "latitude": 37.8471756,
          "longitude": 128.8427019
        },
        {
          "id": "A0010507",
          "name": "㈜대경유업 퇴계로주유소",
          "brand": "현대오일뱅크",
          "brandCode": "HDO",
          "price": 1975,
          "address": "강원 춘천시 석사동 818-6",
          "roadAddress": "강원 춘천시 퇴계로 231",
          "katecX": 377692.6239,
          "katecY": 583748.2141,
          "latitude": 37.8559896,
          "longitude": 127.744255
        },
        {
          "id": "A0010686",
          "name": "보우㈜ 백마주유소",
          "brand": "현대오일뱅크",
          "brandCode": "HDO",
          "price": 1978,
          "address": "강원 동해시 송정동 1084-1",
          "roadAddress": "강원 동해시 대동로 261-28",
          "katecX": 499385.5909,
          "katecY": 544011.6822,
          "latitude": 37.4928937,
          "longitude": 129.1216884
        },
        {
          "id": "A0000867",
          "name": "유원주유소",
          "brand": "GS칼텍스",
          "brandCode": "GSC",
          "price": 1978,
          "address": "강원 원주시 단계동 455-16",
          "roadAddress": "강원 원주시 봉화로 87 (단계동)",
          "katecX": 393843.4708,
          "katecY": 527818.0042,
          "latitude": 37.3522766,
          "longitude": 127.9282799
        },
        {
          "id": "A0010994",
          "name": "동명주유소",
          "brand": "RTO",
          "brandCode": "RTO",
          "price": 1978,
          "address": "강원 원주시 태장1동 155",
          "roadAddress": "강원 원주시 치악로 2090 (태장동)",
          "katecX": 396880,
          "katecY": 529274,
          "latitude": 37.3654125,
          "longitude": 127.9625489
        },
        {
          "id": "A0011060",
          "name": "원유주유소",
          "brand": "GS칼텍스",
          "brandCode": "GSC",
          "price": 1978,
          "address": "강원 원주시 단계동 114-6",
          "roadAddress": "강원 원주시 원문로 149 (단계동)",
          "katecX": 394198.91485,
          "katecY": 528155.90609,
          "latitude": 37.3553238,
          "longitude": 127.9322893
        },
        {
          "id": "A0011577",
          "name": "KH에너지㈜직영 교동주유소",
          "brand": "SK에너지",
          "brandCode": "SKE",
          "price": 1979,
          "address": "강원 강릉시 교동 1893",
          "roadAddress": "강원 강릉시 하슬라로 159 (교동)",
          "katecX": 477267.9199,
          "katecY": 574009.603,
          "latitude": 37.7652725,
          "longitude": 128.8747592
        },
        {
          "id": "A0011223",
          "name": "(주)중앙에너지산업귀래지점 석산주유소",
          "brand": "SK에너지",
          "brandCode": "SKE",
          "price": 1979,
          "address": "강원 원주시 귀래면 귀래리 1395-4",
          "roadAddress": "강원 원주시 귀래면 고청길 70",
          "katecX": 388479.21555,
          "katecY": 514032.72127,
          "latitude": 37.2280033,
          "longitude": 127.8679469
        },
        {
          "id": "A0032992",
          "name": "동해농협클린주유소",
          "brand": "농협알뜰",
          "brandCode": "NHO",
          "price": 1980,
          "address": "강원 동해시 송정동 1128",
          "roadAddress": "강원 동해시 대동로 249",
          "katecX": 499498.71924,
          "katecY": 543907.2071,
          "latitude": 37.4919403,
          "longitude": 129.1229534
        },
        {
          "id": "A0011544",
          "name": "임계농협주유소",
          "brand": "농협알뜰",
          "brandCode": "NHO",
          "price": 1980,
          "address": "강원 정선군 임계면 송계리 792",
          "roadAddress": "강원 정선군 임계면 서동로 4570",
          "katecX": 475397.9,
          "katecY": 543918.1,
          "latitude": 37.4943145,
          "longitude": 128.8504416
        },
        {
          "id": "A0011171",
          "name": "문막(인천방향)주유소",
          "brand": "고속도로알뜰",
          "brandCode": "RTX",
          "price": 1981,
          "address": "강원 원주시 문막읍 포진리 926-1",
          "roadAddress": "강원도 원주시 문막읍 개나루길 13",
          "katecX": 384001.4485,
          "katecY": 521697.18839,
          "latitude": 37.297002,
          "longitude": 127.8173196
        }
      ]
    },
    {
      "regionCode": "04",
      "regionName": "충북",
      "fuelCode": "B027",
      "fuelName": "휘발유",
      "stations": [
        {
          "id": "A0013150",
          "name": "충주주유소",
          "brand": "SK에너지",
          "brandCode": "SKE",
          "price": 1949,
          "address": "충북 충주시 봉방동 337-20",
          "roadAddress": "충북 충주시 중원대로 3506 (봉방동)",
          "katecX": 392585.7234,
          "katecY": 485368.4286,
          "latitude": 36.9697393,
          "longitude": 127.9145146
        },
        {
          "id": "A0012726",
          "name": "달천주유소",
          "brand": "S-OIL",
          "brandCode": "SOL",
          "price": 1959,
          "address": "충북 충주시 용두동 108-1",
          "roadAddress": "충북 충주시 중원대로 3818",
          "katecX": 389715.9252,
          "katecY": 484520.7732,
          "latitude": 36.9620729,
          "longitude": 127.8822957
        },
        {
          "id": "A0012380",
          "name": "금곡셀프주유소",
          "brand": "현대오일뱅크",
          "brandCode": "HDO",
          "price": 1969,
          "address": "충북 진천군 광혜원면 금곡리 334",
          "roadAddress": "충북 진천군 광혜원면 생거진천로 2377",
          "katecX": 350589.92186,
          "katecY": 483911.30412,
          "latitude": 36.9553326,
          "longitude": 127.4429669
        },
        {
          "id": "A0013174",
          "name": "주식회사 구도일 북진천지점",
          "brand": "S-OIL",
          "brandCode": "SOL",
          "price": 1972,
          "address": "충북 진천군 광혜원면 금곡리 169-2",
          "roadAddress": "충북 진천군 광혜원면 생거진천로 2475",
          "katecX": 350379.92776,
          "katecY": 484882.49331,
          "latitude": 36.9640731,
          "longitude": 127.440545
        },
        {
          "id": "A0012353",
          "name": "드림주유소",
          "brand": "현대오일뱅크",
          "brandCode": "HDO",
          "price": 1974,
          "address": "충북 진천군 광혜원면 회죽리 8-11",
          "roadAddress": "충청북도 진천군 광혜원면 생거진천로 2650",
          "katecX": 349925.76286,
          "katecY": 486553.95666,
          "latitude": 36.9791109,
          "longitude": 127.4353336
        },
        {
          "id": "A0013336",
          "name": "청화개발주식회사 동호주유소",
          "brand": "SK에너지",
          "brandCode": "SKE",
          "price": 1975,
          "address": "충북 진천군 이월면 신월리 928-5",
          "roadAddress": "충북 진천군 이월면 생거진천로 1963",
          "katecX": 351035.14044,
          "katecY": 479858.8105,
          "latitude": 36.9188377,
          "longitude": 127.4482293
        },
        {
          "id": "A0033621",
          "name": "㈜신화에너지서울 박물관주유소",
          "brand": "SK에너지",
          "brandCode": "SKE",
          "price": 1975,
          "address": "충북 진천군 진천읍 장관리 357-9",
          "roadAddress": "충북 진천군 진천읍 생거진천로 1399",
          "katecX": 349598.72985,
          "katecY": 474555.80356,
          "latitude": 36.8709747,
          "longitude": 127.4324624
        },
        {
          "id": "A0009040",
          "name": "해찬주유소",
          "brand": "S-OIL",
          "brandCode": "SOL",
          "price": 1975,
          "address": "충북 증평군 증평읍 송산리 83",
          "roadAddress": "충북 증평군 증평읍 중부로 2475",
          "katecX": 363141.6,
          "katecY": 466225.9,
          "latitude": 36.796537,
          "longitude": 127.5847673
        },
        {
          "id": "A0002005",
          "name": "이포에너지㈜ 금강주유소",
          "brand": "현대오일뱅크",
          "brandCode": "HDO",
          "price": 1975,
          "address": "충북 청주시 서원구 모충동 120-1",
          "roadAddress": "충북 청주시 서원구 청남로 2145",
          "katecX": 354402,
          "katecY": 447038,
          "latitude": 36.6232395,
          "longitude": 127.4879862
        },
        {
          "id": "A0013732",
          "name": "장관주유소",
          "brand": "GS칼텍스",
          "brandCode": "GSC",
          "price": 1975,
          "address": "충북 진천군 진천읍 장관리 391-7",
          "roadAddress": "충북 진천군 진천읍 생거진천로 1459",
          "katecX": 349758.7,
          "katecY": 475240.9,
          "latitude": 36.8771569,
          "longitude": 127.4342111
        },
        {
          "id": "A0012072",
          "name": "증평self주유소",
          "brand": "현대오일뱅크",
          "brandCode": "HDO",
          "price": 1975,
          "address": "충북 증평군 연탄리 507-1",
          "roadAddress": "충북 증평군 증평읍 삼보로 7",
          "katecX": 361775.24852,
          "katecY": 465275.00385,
          "latitude": 36.7879134,
          "longitude": 127.5695048
        },
        {
          "id": "A0012384",
          "name": "동양주유소",
          "brand": "S-OIL",
          "brandCode": "SOL",
          "price": 1975,
          "address": "충북 진천군 이월면 사곡리 609-3",
          "roadAddress": "충북 진천군 이월면 생거진천로 1491",
          "katecX": 349898.82053,
          "katecY": 475470.2054,
          "latitude": 36.8792307,
          "longitude": 127.4357676
        },
        {
          "id": "A0012246",
          "name": "모충주유소",
          "brand": "현대오일뱅크",
          "brandCode": "HDO",
          "price": 1976,
          "address": "충북 청주시 서원구 모충동 448-1",
          "roadAddress": "충북 청주시 서원구 모충로 112 (모충동)",
          "katecX": 353295,
          "katecY": 447611,
          "latitude": 36.6283495,
          "longitude": 127.4755749
        },
        {
          "id": "A0012520",
          "name": "가경주유소",
          "brand": "현대오일뱅크",
          "brandCode": "HDO",
          "price": 1976,
          "address": "충북 청주시 서원구 개신동 689",
          "roadAddress": "충북 청주시 서원구 서부로 1355",
          "katecX": 350853.3887,
          "katecY": 446502.07575,
          "latitude": 36.6182328,
          "longitude": 127.448347
        },
        {
          "id": "A0013221",
          "name": "㈜한진 충주롯데마트주유소",
          "brand": "S-OIL",
          "brandCode": "SOL",
          "price": 1977,
          "address": "충북 충주시 칠금동 849",
          "roadAddress": "충북 충주시 충원대로 626(칠금동)",
          "katecX": 392566.40527,
          "katecY": 486786.93533,
          "latitude": 36.9825222,
          "longitude": 127.9142833
        },
        {
          "id": "A0012494",
          "name": "㈜신화에너지 오해피주유소",
          "brand": "SK에너지",
          "brandCode": "SKE",
          "price": 1978,
          "address": "충북 청주시 서원구 산남동 334-7",
          "roadAddress": "충북 청주시 서원구 구룡산로 217",
          "katecX": 352784,
          "katecY": 446207,
          "latitude": 36.6156716,
          "longitude": 127.4699481
        },
        {
          "id": "A0012341",
          "name": "선우셀프주유소",
          "brand": "S-OIL",
          "brandCode": "SOL",
          "price": 1978,
          "address": "충북 증평군 증평읍 연탄리 592-2",
          "roadAddress": "충북 증평군 증평읍 초평로 1742",
          "katecX": 361144,
          "katecY": 465825,
          "latitude": 36.792844,
          "longitude": 127.5624041
        },
        {
          "id": "A0016924",
          "name": "(유)그린 주유소",
          "brand": "RTO",
          "brandCode": "RTO",
          "price": 1978,
          "address": "충북 청주시 서원구 개신동 316-4",
          "roadAddress": "충북 청주시 서원구 서부로 1409 (개신동)",
          "katecX": 351380.9459,
          "katecY": 446648.4016,
          "latitude": 36.6195786,
          "longitude": 127.4542354
        },
        {
          "id": "A0012178",
          "name": "장성주유소",
          "brand": "RTO",
          "brandCode": "RTO",
          "price": 1979,
          "address": "충북 청주시 서원구 남이면 양촌리 9-3",
          "roadAddress": "충북 청주시 서원구 남이면 양촌4길 3",
          "katecX": 353239.9,
          "katecY": 443819.1,
          "latitude": 36.5941748,
          "longitude": 127.4751904
        },
        {
          "id": "A0012007",
          "name": "맹꽁이주유소",
          "brand": "RTO",
          "brandCode": "RTO",
          "price": 1979,
          "address": "충북 괴산군 문광면 송평리 116-3",
          "roadAddress": "충북 괴산군 문광면 괴산로 3314",
          "katecX": 379589.0029,
          "katecY": 464953.99554,
          "latitude": 36.7855754,
          "longitude": 127.7691035
        }
      ]
    },
    {
      "regionCode": "04",
      "regionName": "충북",
      "fuelCode": "D047",
      "fuelName": "경유",
      "stations": [
        {
          "id": "A0033621",
          "name": "㈜신화에너지서울 박물관주유소",
          "brand": "SK에너지",
          "brandCode": "SKE",
          "price": 1930,
          "address": "충북 진천군 진천읍 장관리 357-9",
          "roadAddress": "충북 진천군 진천읍 생거진천로 1399",
          "katecX": 349598.72985,
          "katecY": 474555.80356,
          "latitude": 36.8709747,
          "longitude": 127.4324624
        },
        {
          "id": "A0001245",
          "name": "고암주유소",
          "brand": "SK에너지",
          "brandCode": "SKE",
          "price": 1949,
          "address": "충북 제천시 고암동 264-5",
          "roadAddress": "충북 제천시 내토로 1027",
          "katecX": 421215,
          "katecY": 507133,
          "latitude": 37.1656652,
          "longitude": 128.2366578
        },
        {
          "id": "A0017261",
          "name": "문당주유소",
          "brand": "SK에너지",
          "brandCode": "SKE",
          "price": 1959,
          "address": "충북 괴산군 청안면 문당리 80-8",
          "roadAddress": "충북 괴산군 청안면 질마로 865",
          "katecX": 372454,
          "katecY": 460270,
          "latitude": 36.743182,
          "longitude": 127.6893337
        },
        {
          "id": "A0002005",
          "name": "이포에너지㈜ 금강주유소",
          "brand": "현대오일뱅크",
          "brandCode": "HDO",
          "price": 1965,
          "address": "충북 청주시 서원구 모충동 120-1",
          "roadAddress": "충북 청주시 서원구 청남로 2145",
          "katecX": 354402,
          "katecY": 447038,
          "latitude": 36.6232395,
          "longitude": 127.4879862
        },
        {
          "id": "A0012178",
          "name": "장성주유소",
          "brand": "RTO",
          "brandCode": "RTO",
          "price": 1968,
          "address": "충북 청주시 서원구 남이면 양촌리 9-3",
          "roadAddress": "충북 청주시 서원구 남이면 양촌4길 3",
          "katecX": 353239.9,
          "katecY": 443819.1,
          "latitude": 36.5941748,
          "longitude": 127.4751904
        },
        {
          "id": "A0032679",
          "name": "㈜신진에너지 남북주유소",
          "brand": "현대오일뱅크",
          "brandCode": "HDO",
          "price": 1968,
          "address": "충북 진천군 이월면 신월리 948-4",
          "roadAddress": "충북 진천군 이월면 생거진천로 2001",
          "katecX": 351073.85967,
          "katecY": 480185.22252,
          "latitude": 36.9217812,
          "longitude": 127.4486427
        },
        {
          "id": "A0006114",
          "name": "충북석유(주)성화주유소",
          "brand": "SK에너지",
          "brandCode": "SKE",
          "price": 1968,
          "address": "충북 청주시 서원구개신동 321-13",
          "roadAddress": "충청북도 청주시 서원구 서부로 1354",
          "katecX": 350887,
          "katecY": 446428,
          "latitude": 36.617567,
          "longitude": 127.4487275
        },
        {
          "id": "A0012388",
          "name": "코스모주유소",
          "brand": "S-OIL",
          "brandCode": "SOL",
          "price": 1969,
          "address": "충북 청주시 서원구 현도면 죽암리 312-8",
          "roadAddress": "충북 청주시 서원구 현도면 청남로 777",
          "katecX": 349277.72039,
          "katecY": 436012.56181,
          "latitude": 36.5236204,
          "longitude": 127.4314255
        },
        {
          "id": "A0012007",
          "name": "맹꽁이주유소",
          "brand": "RTO",
          "brandCode": "RTO",
          "price": 1969,
          "address": "충북 괴산군 문광면 송평리 116-3",
          "roadAddress": "충북 괴산군 문광면 괴산로 3314",
          "katecX": 379589.0029,
          "katecY": 464953.99554,
          "latitude": 36.7855754,
          "longitude": 127.7691035
        },
        {
          "id": "A0012494",
          "name": "㈜신화에너지 오해피주유소",
          "brand": "SK에너지",
          "brandCode": "SKE",
          "price": 1969,
          "address": "충북 청주시 서원구 산남동 334-7",
          "roadAddress": "충북 청주시 서원구 구룡산로 217",
          "katecX": 352784,
          "katecY": 446207,
          "latitude": 36.6156716,
          "longitude": 127.4699481
        },
        {
          "id": "A0012731",
          "name": "상평주유소",
          "brand": "자가상표",
          "brandCode": "ETC",
          "price": 1969,
          "address": "충북 음성군 감곡면 상평리 300-2",
          "roadAddress": "충북 음성군 감곡면 감노로 239",
          "katecX": 368262,
          "katecY": 496186.9,
          "latitude": 37.0667179,
          "longitude": 127.6408793
        },
        {
          "id": "A0017127",
          "name": "두꺼비주유소",
          "brand": "RTO",
          "brandCode": "RTO",
          "price": 1969,
          "address": "충북 괴산군 청안면 청용리 202",
          "roadAddress": "충북 괴산군 중부로 2974",
          "katecX": 367712.8,
          "katecY": 465855,
          "latitude": 36.7933623,
          "longitude": 127.6360054
        },
        {
          "id": "A0026263",
          "name": "대황주유소",
          "brand": "현대오일뱅크",
          "brandCode": "HDO",
          "price": 1969,
          "address": "충북 제천시 봉양읍 원박리 903",
          "roadAddress": "충북 제천시 봉양읍 북부로 913",
          "katecX": 406691.13669,
          "katecY": 504135.99441,
          "latitude": 37.1388718,
          "longitude": 128.0730946
        },
        {
          "id": "A0017311",
          "name": "너구리주유소",
          "brand": "RTO",
          "brandCode": "RTO",
          "price": 1969,
          "address": "충북 괴산군 사리면 방축리 236",
          "roadAddress": "충북 괴산군 사리면 중부로 321",
          "katecX": 369116.21437,
          "katecY": 467580.27242,
          "latitude": 36.8089571,
          "longitude": 127.6516602
        },
        {
          "id": "A0012001",
          "name": "거북이주유소",
          "brand": "RTO",
          "brandCode": "RTO",
          "price": 1969,
          "address": "충북 청주시 청원구 북이면 대율리 160-14",
          "roadAddress": "충북 청주시 청원구 북이면 팔결신대로 517",
          "katecX": 357397,
          "katecY": 459468.4,
          "latitude": 36.7353987,
          "longitude": 127.5207764
        },
        {
          "id": "A0016924",
          "name": "(유)그린 주유소",
          "brand": "RTO",
          "brandCode": "RTO",
          "price": 1969,
          "address": "충북 청주시 서원구 개신동 316-4",
          "roadAddress": "충북 청주시 서원구 서부로 1409 (개신동)",
          "katecX": 351380.9459,
          "katecY": 446648.4016,
          "latitude": 36.6195786,
          "longitude": 127.4542354
        },
        {
          "id": "A0017291",
          "name": "칠성알뜰주유소",
          "brand": "RTO",
          "brandCode": "RTO",
          "price": 1970,
          "address": "충북 괴산군 칠성면 사평리 8-1번지 외 3필지",
          "roadAddress": "충북 괴산군 칠성면 중부로 5609",
          "katecX": 389332.47862,
          "katecY": 464665.7522,
          "latitude": 36.7831396,
          "longitude": 127.8782738
        },
        {
          "id": "A0012500",
          "name": "행복에너지㈜ 행복에너지2주유소",
          "brand": "GS칼텍스",
          "brandCode": "GSC",
          "price": 1972,
          "address": "충북 청주시 서원구 미평동 6",
          "roadAddress": "충북 청주시 서원구 청남로 1937 (미평동)",
          "katecX": 353716,
          "katecY": 445145,
          "latitude": 36.6061469,
          "longitude": 127.4804311
        },
        {
          "id": "A0006299",
          "name": "청수주유소",
          "brand": "SK에너지",
          "brandCode": "SKE",
          "price": 1972,
          "address": "충북 괴산군 연풍면 적석리 290-6",
          "roadAddress": "충북 괴산군 연풍면 연풍로 1169",
          "katecX": 398147.6673,
          "katecY": 462598.621,
          "latitude": 36.7645707,
          "longitude": 127.9770423
        },
        {
          "id": "A0017130",
          "name": "(주)청주관문주유소",
          "brand": "RTO",
          "brandCode": "RTO",
          "price": 1972,
          "address": "충북 청주시 서원구 미평동 19-2",
          "roadAddress": "충북 청주시 서원구 청남로 1894",
          "katecX": 353571,
          "katecY": 444752,
          "latitude": 36.6025982,
          "longitude": 127.4788342
        }
      ]
    },
    {
      "regionCode": "05",
      "regionName": "충남",
      "fuelCode": "B027",
      "fuelName": "휘발유",
      "stations": [
        {
          "id": "A0016058",
          "name": "천안대로셀프",
          "brand": "S-OIL",
          "brandCode": "SOL",
          "price": 1939,
          "address": "충남 천안시 동남구 원성동 11-11",
          "roadAddress": "충남 천안시 동남구 천안대로 727",
          "katecX": 325646.44184,
          "katecY": 468322.85853,
          "latitude": 36.813224,
          "longitude": 127.1644351
        },
        {
          "id": "A0016224",
          "name": "(주)대성제2주유소",
          "brand": "GS칼텍스",
          "brandCode": "GSC",
          "price": 1947,
          "address": "충남 천안시 동남구 신부동 115-32",
          "roadAddress": "충남 천안시 동남구 가마골1길 10 (신부동)",
          "katecX": 325559.11593,
          "katecY": 469177.88704,
          "latitude": 36.8209217,
          "longitude": 127.1633726
        },
        {
          "id": "A0014748",
          "name": "㈜행운",
          "brand": "GS칼텍스",
          "brandCode": "GSC",
          "price": 1959,
          "address": "충남 논산시 연산면 송정리 343",
          "roadAddress": "충남 논산시 연산면 계백로 2500",
          "katecX": 330818,
          "katecY": 403648,
          "latitude": 36.2307992,
          "longitude": 127.2282034
        },
        {
          "id": "A0006842",
          "name": "대성제5주유소",
          "brand": "현대오일뱅크",
          "brandCode": "HDO",
          "price": 1967,
          "address": "충남 천안시 동남구 구성동 314-11",
          "roadAddress": "충남 천안시 동남구 청수로 135",
          "katecX": 325109.1346,
          "katecY": 466227.7043,
          "latitude": 36.7943022,
          "longitude": 127.1586201
        },
        {
          "id": "A0015265",
          "name": "우루사Self주유소",
          "brand": "SK에너지",
          "brandCode": "SKE",
          "price": 1968,
          "address": "충남 당진시 신평면 운정리 714-1",
          "roadAddress": "충남 당진시 신평면 서해로 7522",
          "katecX": 294295,
          "katecY": 476159,
          "latitude": 36.8808393,
          "longitude": 126.812015
        },
        {
          "id": "A0016149",
          "name": "KK㈜ 천안중앙2주유소",
          "brand": "SK에너지",
          "brandCode": "SKE",
          "price": 1969,
          "address": "충남 천안시 서북구 성정동 1099",
          "roadAddress": "충남 천안시 서북구 쌍용대로 215 (성정동)",
          "katecX": 323001,
          "katecY": 468726,
          "latitude": 36.8166446,
          "longitude": 127.1347472
        },
        {
          "id": "A0016038",
          "name": "왕대박셀프주유소",
          "brand": "현대오일뱅크",
          "brandCode": "HDO",
          "price": 1969,
          "address": "충남 천안시 서북구 성정동 714-4",
          "roadAddress": "충남 천안시 서북구 성정9길 23-29 (성정동)",
          "katecX": 323662.50388,
          "katecY": 468718.85006,
          "latitude": 36.8166339,
          "longitude": 127.1421616
        },
        {
          "id": "A0016904",
          "name": "진우11주유소",
          "brand": "GS칼텍스",
          "brandCode": "GSC",
          "price": 1969,
          "address": "충남 천안시 동남구 봉명동 444",
          "roadAddress": "충남 천안시 동남구 쌍용대로 175",
          "katecX": 322914.67855,
          "katecY": 468327.34911,
          "latitude": 36.8130454,
          "longitude": 127.1338202
        },
        {
          "id": "A0001991",
          "name": "비타민 스테이션 ㈜제이메시비타민지점",
          "brand": "현대오일뱅크",
          "brandCode": "HDO",
          "price": 1969,
          "address": "충남 천안시 성정동 703-7",
          "roadAddress": "충남 천안시 서북구  쌍용대로 220",
          "katecX": 323070.6,
          "katecY": 468751.3,
          "latitude": 36.8168783,
          "longitude": 127.1355246
        },
        {
          "id": "A0014719",
          "name": "(주)오케이에너지 수정주유소",
          "brand": "SK에너지",
          "brandCode": "SKE",
          "price": 1969,
          "address": "충남 논산시 연무읍 마전리 287-35",
          "roadAddress": "충남 논산시 연무읍 황화로 116",
          "katecX": 318494.94213,
          "katecY": 387432.19794,
          "latitude": 36.0837037,
          "longitude": 127.0928172
        },
        {
          "id": "A0014741",
          "name": "처음주유소",
          "brand": "현대오일뱅크",
          "brandCode": "HDO",
          "price": 1975,
          "address": "충남 논산시 연산면 청동리 178-137",
          "roadAddress": "충남 논산시 연산면 계백로 2091",
          "katecX": 328595.14943,
          "katecY": 401287.02587,
          "latitude": 36.2093603,
          "longitude": 127.2036935
        },
        {
          "id": "A0033709",
          "name": "(주)신평믿음오일",
          "brand": "SK에너지",
          "brandCode": "SKE",
          "price": 1976,
          "address": "충청남도 당진시 신평면 거산리 278-1",
          "roadAddress": "충청남도 당진시 신평면 중말길 29-16",
          "katecX": 288824.64224,
          "katecY": 476443.92938,
          "latitude": 36.8827772,
          "longitude": 126.750621
        },
        {
          "id": "A0014531",
          "name": "미래주유소",
          "brand": "RTO",
          "brandCode": "RTO",
          "price": 1977,
          "address": "충남 논산시 연산면 한전리 127-7",
          "roadAddress": "충남 논산시 연산면 계백로 1983",
          "katecX": 327545.00275,
          "katecY": 401184.99552,
          "latitude": 36.2083625,
          "longitude": 127.1920251
        },
        {
          "id": "A0015021",
          "name": "태안주유소",
          "brand": "RTO",
          "brandCode": "RTO",
          "price": 1977,
          "address": "충남 태안군 태안읍 남산리 680-1",
          "roadAddress": "충남 태안군 태안읍 안면대로 334",
          "katecX": 246902.00275,
          "katecY": 458977.99533,
          "latitude": 36.7195735,
          "longitude": 126.2840128
        },
        {
          "id": "A0014530",
          "name": "우리둘셀프주유소",
          "brand": "S-OIL",
          "brandCode": "SOL",
          "price": 1977,
          "address": "충남 논산시 부적면 외성리 344",
          "roadAddress": "충남 논산시 부적면 계백로 1645",
          "katecX": 324339,
          "katecY": 401621,
          "latitude": 36.2120457,
          "longitude": 127.156332
        },
        {
          "id": "A0016526",
          "name": "행운주유소",
          "brand": "GS칼텍스",
          "brandCode": "GSC",
          "price": 1978,
          "address": "충남 당진시 신평면 신당리 259-12",
          "roadAddress": "충남 당진시 신평면 서해로 7475",
          "katecX": 293776.49303,
          "katecY": 476104.00669,
          "latitude": 36.8802855,
          "longitude": 126.8062074
        },
        {
          "id": "A0008392",
          "name": "해바라기당진점",
          "brand": "현대오일뱅크",
          "brandCode": "HDO",
          "price": 1978,
          "address": "충남 당진시 송악읍 광명리 236-37",
          "roadAddress": "충남 당진시 송악읍 서해로 6622",
          "katecX": 285911,
          "katecY": 477749,
          "latitude": 36.8941872,
          "longitude": 126.7177465
        },
        {
          "id": "A0014749",
          "name": "에코셀프주유소",
          "brand": "현대오일뱅크",
          "brandCode": "HDO",
          "price": 1978,
          "address": "충남 논산시 연산면 임리 34",
          "roadAddress": "충남 논산시 연산면 계백로 1853",
          "katecX": 326383.4055,
          "katecY": 401645.29104,
          "latitude": 36.2124227,
          "longitude": 127.1790647
        },
        {
          "id": "A0033801",
          "name": "만수르기름창고㈜",
          "brand": "SK에너지",
          "brandCode": "SKE",
          "price": 1978,
          "address": "충남 아산시 음봉면 송촌리 54-3",
          "roadAddress": "충남 아산시 음봉면 음봉로 315",
          "katecX": 315114.62661,
          "katecY": 472016.52257,
          "latitude": 36.8456183,
          "longitude": 127.0459954
        },
        {
          "id": "A0033800",
          "name": "주식회사 만수르에너지",
          "brand": "S-OIL",
          "brandCode": "SOL",
          "price": 1978,
          "address": "충남 아산시 음봉면 송촌리 54-5",
          "roadAddress": "충남 아산시 음봉면 음봉로 319",
          "katecX": 315145.83875,
          "katecY": 472017.68747,
          "latitude": 36.8456316,
          "longitude": 127.0463452
        }
      ]
    },
    {
      "regionCode": "05",
      "regionName": "충남",
      "fuelCode": "D047",
      "fuelName": "경유",
      "stations": [
        {
          "id": "A0033295",
          "name": "무지개주유소",
          "brand": "자가상표",
          "brandCode": "ETC",
          "price": 1929,
          "address": "충남 서산시 음암면 도당리 28-12",
          "roadAddress": "충남 서산시 음암면 백제사신로 1180",
          "katecX": 269794.95942,
          "katecY": 469197.65964,
          "latitude": 36.8150607,
          "longitude": 126.5384478
        },
        {
          "id": "A0032939",
          "name": "탑셀프주유소",
          "brand": "현대오일뱅크",
          "brandCode": "HDO",
          "price": 1945,
          "address": "충남 홍성군 은하면 장척리 40-3",
          "roadAddress": "충남 홍성군 은하면 충서로 87-1",
          "katecX": 276056.51079,
          "katecY": 433298.73803,
          "latitude": 36.4924719,
          "longitude": 126.6144162
        },
        {
          "id": "A0015156",
          "name": "행복주유소",
          "brand": "GS칼텍스",
          "brandCode": "GSC",
          "price": 1953,
          "address": "충남 당진시 신평면 신흥리 59-9",
          "roadAddress": "충남 당진시 신평면 서해로 7410",
          "katecX": 293086.4647,
          "katecY": 475980.0975,
          "latitude": 36.8790911,
          "longitude": 126.7984859
        },
        {
          "id": "A0033419",
          "name": "㈜삼화이앤아이",
          "brand": "SK에너지",
          "brandCode": "SKE",
          "price": 1959,
          "address": "충남 당진시 석문면 삼화리 19",
          "roadAddress": "충남 당진시 석문면 북부산업로 2388",
          "katecX": 278230.52279,
          "katecY": 486704.15493,
          "latitude": 36.9739043,
          "longitude": 126.6301525
        },
        {
          "id": "A0014748",
          "name": "㈜행운",
          "brand": "GS칼텍스",
          "brandCode": "GSC",
          "price": 1959,
          "address": "충남 논산시 연산면 송정리 343",
          "roadAddress": "충남 논산시 연산면 계백로 2500",
          "katecX": 330818,
          "katecY": 403648,
          "latitude": 36.2307992,
          "longitude": 127.2282034
        },
        {
          "id": "A0014719",
          "name": "(주)오케이에너지 수정주유소",
          "brand": "SK에너지",
          "brandCode": "SKE",
          "price": 1959,
          "address": "충남 논산시 연무읍 마전리 287-35",
          "roadAddress": "충남 논산시 연무읍 황화로 116",
          "katecX": 318494.94213,
          "katecY": 387432.19794,
          "latitude": 36.0837037,
          "longitude": 127.0928172
        },
        {
          "id": "A0006910",
          "name": "박카스self주유소",
          "brand": "SK에너지",
          "brandCode": "SKE",
          "price": 1961,
          "address": "충남 당진시 신평면 부수리 344",
          "roadAddress": "충남 당진시 신평면 북부산업로 157",
          "katecX": 294033.75339,
          "katecY": 477785.29824,
          "latitude": 36.8954626,
          "longitude": 126.8088574
        },
        {
          "id": "A0015195",
          "name": "아성당진1주유소",
          "brand": "현대오일뱅크",
          "brandCode": "HDO",
          "price": 1963,
          "address": "충남 당진시 정미면 대운산리 691-2",
          "roadAddress": "충남 당진시 정미면 서해로 4909",
          "katecX": 273762,
          "katecY": 471671,
          "latitude": 36.8378814,
          "longitude": 126.5824869
        },
        {
          "id": "A0015265",
          "name": "우루사Self주유소",
          "brand": "SK에너지",
          "brandCode": "SKE",
          "price": 1963,
          "address": "충남 당진시 신평면 운정리 714-1",
          "roadAddress": "충남 당진시 신평면 서해로 7522",
          "katecX": 294295,
          "katecY": 476159,
          "latitude": 36.8808393,
          "longitude": 126.812015
        },
        {
          "id": "A0015262",
          "name": "(주)서정스타주유소",
          "brand": "S-OIL",
          "brandCode": "SOL",
          "price": 1963,
          "address": "충남 당진시 송악읍 한진리 193-2",
          "roadAddress": "충남 당진시 송악읍 북부산업로 1054",
          "katecX": 290288.1651,
          "katecY": 485613.06844,
          "latitude": 36.9655592,
          "longitude": 126.7657043
        },
        {
          "id": "A0032692",
          "name": "백두산주유소",
          "brand": "자가상표",
          "brandCode": "ETC",
          "price": 1965,
          "address": "충남 보령시 요암동 371-6",
          "roadAddress": "충남 보령시 대해로 498 (요암동)",
          "katecX": 270336.8,
          "katecY": 414653.8,
          "latitude": 36.3237298,
          "longitude": 126.5537117
        },
        {
          "id": "A0014531",
          "name": "미래주유소",
          "brand": "RTO",
          "brandCode": "RTO",
          "price": 1965,
          "address": "충남 논산시 연산면 한전리 127-7",
          "roadAddress": "충남 논산시 연산면 계백로 1983",
          "katecX": 327545.00275,
          "katecY": 401184.99552,
          "latitude": 36.2083625,
          "longitude": 127.1920251
        },
        {
          "id": "A0016287",
          "name": "유한회사 우진에너지",
          "brand": "RTO",
          "brandCode": "RTO",
          "price": 1965,
          "address": "충남 보령시 남곡동 288-1",
          "roadAddress": "충남 보령시 대해로 294",
          "katecX": 271783.2675,
          "katecY": 415934.0462,
          "latitude": 36.3354584,
          "longitude": 126.5696059
        },
        {
          "id": "A0015021",
          "name": "태안주유소",
          "brand": "RTO",
          "brandCode": "RTO",
          "price": 1967,
          "address": "충남 태안군 태안읍 남산리 680-1",
          "roadAddress": "충남 태안군 태안읍 안면대로 334",
          "katecX": 246902.00275,
          "katecY": 458977.99533,
          "latitude": 36.7195735,
          "longitude": 126.2840128
        },
        {
          "id": "A0016452",
          "name": "계백주유소",
          "brand": "RTO",
          "brandCode": "RTO",
          "price": 1967,
          "address": "충남 논산시 부적면 마구평리 6-92",
          "roadAddress": "충남 논산시 부적면 계백로 1428",
          "katecX": 322571.90275,
          "katecY": 401838.79551,
          "latitude": 36.2138683,
          "longitude": 127.1366594
        },
        {
          "id": "A0006229",
          "name": "㈜이안스타에너지 예산지점",
          "brand": "S-OIL",
          "brandCode": "SOL",
          "price": 1969,
          "address": "충남 예산군 예산읍 간양리 297-10",
          "roadAddress": "충남 예산군 예산읍 충서로 1600",
          "katecX": 298144.9813,
          "katecY": 460116.7029,
          "latitude": 36.7367205,
          "longitude": 126.8573452
        },
        {
          "id": "A0014807",
          "name": "강경농협주유소",
          "brand": "농협알뜰",
          "brandCode": "NHO",
          "price": 1969,
          "address": "충남 논산시 강경읍 채산리 534-3",
          "roadAddress": "충남 논산시 강경읍 계백로 57",
          "katecX": 311062.7,
          "katecY": 395066.9,
          "latitude": 36.1518516,
          "longitude": 127.0094401
        },
        {
          "id": "A0006842",
          "name": "대성제5주유소",
          "brand": "현대오일뱅크",
          "brandCode": "HDO",
          "price": 1969,
          "address": "충남 천안시 동남구 구성동 314-11",
          "roadAddress": "충남 천안시 동남구 청수로 135",
          "katecX": 325109.1346,
          "katecY": 466227.7043,
          "latitude": 36.7943022,
          "longitude": 127.1586201
        },
        {
          "id": "A0033628",
          "name": "문정주유소",
          "brand": "GS칼텍스",
          "brandCode": "GSC",
          "price": 1969,
          "address": "충남 서산시 음암면 도당리 115-15",
          "roadAddress": "충남 서산시 음암면 간대산길 66",
          "katecX": 268553.65683,
          "katecY": 469832.80942,
          "latitude": 36.8206109,
          "longitude": 126.5244296
        },
        {
          "id": "A0014435",
          "name": "동현주유소",
          "brand": "RTO",
          "brandCode": "RTO",
          "price": 1969,
          "address": "충남 공주시 장기면 동현리 562-2",
          "roadAddress": "충남 공주시 장기면 차령로 1851",
          "katecX": 325479.966,
          "katecY": 431195.1176,
          "latitude": 36.478646,
          "longitude": 127.1661836
        }
      ]
    },
    {
      "regionCode": "06",
      "regionName": "전북",
      "fuelCode": "B027",
      "fuelName": "휘발유",
      "stations": [
        {
          "id": "A0018663",
          "name": "(유)우주에너지주유소/충전소",
          "brand": "현대오일뱅크",
          "brandCode": "HDO",
          "price": 1956,
          "address": "전북 김제시 금구면 용지리10-3",
          "roadAddress": "전북 김제시 금구면 선비로 905",
          "katecX": 311156,
          "katecY": 354105,
          "latitude": 35.7827184,
          "longitude": 127.0150723
        },
        {
          "id": "A0018685",
          "name": "진봉농업협동조합주유소",
          "brand": "현대오일뱅크",
          "brandCode": "HDO",
          "price": 1959,
          "address": "전북 김제시 진봉면 고사리 4-14",
          "roadAddress": "전북 김제시 지평선로 1787",
          "katecX": 288997.75349,
          "katecY": 362603.42927,
          "latitude": 35.8570435,
          "longitude": 126.768833
        },
        {
          "id": "A0019115",
          "name": "광활농협주유소",
          "brand": "농협알뜰",
          "brandCode": "NHO",
          "price": 1959,
          "address": "전북 김제시 광활면 옥포리 668-10",
          "roadAddress": "전북 김제시 광활면 광활로 470",
          "katecX": 286320.9,
          "katecY": 359877.5,
          "latitude": 35.8321724,
          "longitude": 126.7395908
        },
        {
          "id": "A0018147",
          "name": "보물단지주유소",
          "brand": "RTO",
          "brandCode": "RTO",
          "price": 1959,
          "address": "전북 완주군 봉동읍 구만리 220-1",
          "roadAddress": "전북 완주군 봉동읍 완주로 533",
          "katecX": 324400.44513,
          "katecY": 368311.70674,
          "latitude": 35.9118653,
          "longitude": 127.1602112
        },
        {
          "id": "A0022666",
          "name": "역전셀프주유소",
          "brand": "RTO",
          "brandCode": "RTO",
          "price": 1965,
          "address": "전북 전주시 덕진구 우아동3가 570-1",
          "roadAddress": "전북 전주시 덕진구  동부대로 748 (우아동3가)",
          "katecX": 324126.0677,
          "katecY": 362030.47794,
          "latitude": 35.8552355,
          "longitude": 127.1577711
        },
        {
          "id": "A0018612",
          "name": "수교주유소",
          "brand": "RTO",
          "brandCode": "RTO",
          "price": 1965,
          "address": "전북 김제시 성덕면 대석리 218-35",
          "roadAddress": "전북 김제시 성덕면 해학로 380",
          "katecX": 292208.76834,
          "katecY": 356425.22304,
          "latitude": 35.8017281,
          "longitude": 126.8052123
        },
        {
          "id": "A0017471",
          "name": "동군산셀프주유소",
          "brand": "RTO",
          "brandCode": "RTO",
          "price": 1965,
          "address": "전북 군산시 대야면 복교리 463-8",
          "roadAddress": "전북 군산시 대야면 만경로 1767",
          "katecX": 294300.5162,
          "katecY": 370721.871,
          "latitude": 35.9307892,
          "longitude": 126.826453
        },
        {
          "id": "A0017955",
          "name": "행복주유소",
          "brand": "RTO",
          "brandCode": "RTO",
          "price": 1965,
          "address": "전북 전주시 덕진구 우아동3가 258-5",
          "roadAddress": "전북 전주시 덕진구 동부대로 641 (우아동3가)",
          "katecX": 324557.2,
          "katecY": 361028.8,
          "latitude": 35.8462414,
          "longitude": 127.1626389
        },
        {
          "id": "A0018988",
          "name": "고산주유소",
          "brand": "자가상표",
          "brandCode": "ETC",
          "price": 1965,
          "address": "전북 고창군 신림면 무림리559",
          "roadAddress": "전북 고창군 신림면 고인돌대로 2430",
          "katecX": 282360.8374,
          "katecY": 322571.9705,
          "latitude": 35.4955335,
          "longitude": 126.7012262
        },
        {
          "id": "A0002859",
          "name": "사랑을 담는",
          "brand": "현대오일뱅크",
          "brandCode": "HDO",
          "price": 1968,
          "address": "전북 군산시 소룡동 676-2",
          "roadAddress": "전북 군산시  해망로 580 (소룡동)",
          "katecX": 281102,
          "katecY": 376536,
          "latitude": 35.9816604,
          "longitude": 126.6793482
        },
        {
          "id": "A0018848",
          "name": "상리2주유소",
          "brand": "SK에너지",
          "brandCode": "SKE",
          "price": 1968,
          "address": "전북 전주시 덕진구 인후동2가 4-173",
          "roadAddress": "전북 전주시 덕진구 심방죽로 63 (인후동2가)",
          "katecX": 323545.8,
          "katecY": 360505.1,
          "latitude": 35.8414431,
          "longitude": 127.1514937
        },
        {
          "id": "A0017640",
          "name": "(유)월명주유소",
          "brand": "RTO",
          "brandCode": "RTO",
          "price": 1968,
          "address": "전북 군산시 소룡동 1047-7",
          "roadAddress": "전북 군산시 해망로 517",
          "katecX": 281693.5196,
          "katecY": 376698.5478,
          "latitude": 35.9831971,
          "longitude": 126.6858818
        },
        {
          "id": "A0004291",
          "name": "중앙로주유소",
          "brand": "RTO",
          "brandCode": "RTO",
          "price": 1968,
          "address": "전북 군산시 중앙로1가 7-3",
          "roadAddress": "전북 군산시 중앙로 188 (중앙로1가)",
          "katecX": 283914,
          "katecY": 377198,
          "latitude": 35.9879648,
          "longitude": 126.7104263
        },