{
  "mode": "opinet",
  "source": "한국석유공사 오피넷 Open API",
  "generatedAt": "2026-06-28T19:18:15.965Z",
  "notice": "한국석유공사 오피넷 Open API 기준 데이터입니다. 실제 판매 가격과 차이가 있을 수 있습니다.",
  "datasets": [
    {
      "regionCode": "ALL",
      "regionName": "전국",
      "fuelCode": "B027",
      "fuelName": "휘발유",
      "stations": [
        {
          "id": "A0022034",
          "name": "해바라기주유소",
          "brand": "HDO",
          "brandCode": "HDO",
          "price": 1694,
          "address": "전남 순천시 별량면 금치리 1353-1",
          "roadAddress": "전남 순천시 별량면 녹색로 1",
          "katecX": 343472.81361,
          "katecY": 249932.95536,
          "latitude": 34.8461475,
          "longitude": 127.37973,
          "coordinateSource": "katec-converted"
        },
        {
          "id": "A0022453",
          "name": "남선산업(주) 대신주유소",
          "brand": "S-OIL",
          "brandCode": "SOL",
          "price": 1790,
          "address": "전남 여수시 평여동 612-8",
          "roadAddress": "전남 여수시 여수산단로 300",
          "katecX": 370031.5129,
          "katecY": 245660.9346,
          "latitude": 34.8087705,
          "longitude": 127.6702911,
          "coordinateSource": "katec-converted"
        },
        {
          "id": "A0023133",
          "name": "삼원주유소",
          "brand": "SK에너지",
          "brandCode": "SKE",
          "price": 1797,
          "address": "대구 동구 지저동 667-4",
          "roadAddress": "대구 동구 공항로 241",
          "katecX": 457977.6595,
          "katecY": 366528.10649,
          "latitude": 35.8970202,
          "longitude": 128.6400595,
          "coordinateSource": "katec-converted"
        },
        {
          "id": "A0022913",
          "name": "㈜송라오일뱅크 공항점",
          "brand": "HDO",
          "brandCode": "HDO",
          "price": 1797,
          "address": "대구 동구 지저동 678-6",
          "roadAddress": "대구 동구 공항로 259",
          "katecX": 458057.64177,
          "katecY": 366396.46328,
          "latitude": 35.8958291,
          "longitude": 128.6409358,
          "coordinateSource": "katec-converted"
        },
        {
          "id": "A0022955",
          "name": "팔공산IC주유소",
          "brand": "S-OIL",
          "brandCode": "SOL",
          "price": 1797,
          "address": "대구 동구 지저동 662-19",
          "roadAddress": "대구 동구 공항로 247",
          "katecX": 458007.5,
          "katecY": 366465.4,
          "latitude": 35.8964533,
          "longitude": 128.6403854,
          "coordinateSource": "katec-converted"
        },
        {
          "id": "A0020608",
          "name": "평동천우주유소",
          "brand": "SK에너지",
          "brandCode": "SKE",
          "price": 1809,
          "address": "광주 광산구 송촌동 227-1",
          "roadAddress": "광주 광산구 동곡로 655 (송촌동)",
          "katecX": 288653.04921,
          "katecY": 283049.69517,
          "latitude": 35.140082,
          "longitude": 126.7759427,
          "coordinateSource": "katec-converted"
        },
        {
          "id": "A0020678",
          "name": "(주)효광 운수대통주유소",
          "brand": "SK에너지",
          "brandCode": "SKE",
          "price": 1809,
          "address": "광주 광산구 운수동 253-2",
          "roadAddress": "광주 광산구 동곡로 846 (운수동)",
          "katecX": 289150,
          "katecY": 284898,
          "latitude": 35.1567946,
          "longitude": 126.7811467,
          "coordinateSource": "katec-converted"
        },
        {
          "id": "A0020705",
          "name": "(주)평동제일주유소",
          "brand": "RTO",
          "brandCode": "RTO",
          "price": 1809,
          "address": "광주 광산구 장록동 527-4",
          "roadAddress": "광주 광산구 동곡로 552 (장록동)",
          "katecX": 288668.8689,
          "katecY": 282013.4589,
          "latitude": 35.1307448,
          "longitude": 126.7762561,
          "coordinateSource": "katec-converted"
        },
        {
          "id": "A0029758",
          "name": "한결(산청)",
          "brand": "S-OIL",
          "brandCode": "SOL",
          "price": 1815,
          "address": "경남 산청군 산청읍 125-1",
          "roadAddress": "경남 산청군 산청읍 친환경로2665번길 19-14",
          "katecX": 392531.959,
          "katecY": 307930.2324,
          "latitude": 35.370514,
          "longitude": 127.9156422,
          "coordinateSource": "katec-converted"
        },
        {
          "id": "A0027207",
          "name": "SK에너지(주)국영",
          "brand": "SK에너지",
          "brandCode": "SKE",
          "price": 1819,
          "address": "부산 사하구 장림동 328-28",
          "roadAddress": "부산 사하구 장림번영로 7 (장림동)",
          "katecX": 488365.4481,
          "katecY": 276343.3678,
          "latitude": 35.0819562,
          "longitude": 128.9668571,
          "coordinateSource": "katec-converted"
        },
        {
          "id": "A0018227",
          "name": "SK에너지(주) 서곡주유소",
          "brand": "SK에너지",
          "brandCode": "SKE",
          "price": 1819,
          "address": "전북 전주시 완산구 효자동3가 848-2",
          "roadAddress": "전북 전주시 완산구 온고을로 186",
          "katecX": 319207.5841,
          "katecY": 360149.3634,
          "latitude": 35.8378884,
          "longitude": 127.1035123,
          "coordinateSource": "katec-converted"
        },
        {
          "id": "A0010364",
          "name": "IOZEN(이오젠)",
          "brand": "SK에너지",
          "brandCode": "SKE",
          "price": 1819,
          "address": "강원 춘천시 동내면 고은리 537-1",
          "roadAddress": "강원 춘천시 동내면 순환대로 758",
          "katecX": 380086.1,
          "katecY": 582846.8,
          "latitude": 37.8479236,
          "longitude": 127.7714795,
          "coordinateSource": "katec-converted"
        },
        {
          "id": "A0020372",
          "name": "(주)대원 강변주유소",
          "brand": "S-OIL",
          "brandCode": "SOL",
          "price": 1825,
          "address": "광주 서구 치평동 887-6",
          "roadAddress": "광주 서구 천변좌하로 142 (치평동)",
          "katecX": 294061,
          "katecY": 284316,
          "latitude": 35.1520795,
          "longitude": 126.8351144,
          "coordinateSource": "katec-converted"
        },
        {
          "id": "A0020586",
          "name": "반디석유시청점",
          "brand": "HDO",
          "brandCode": "HDO",
          "price": 1825,
          "address": "광주 서구 치평동 887-1",
          "roadAddress": "광주 서구 천변좌하로 160 (치평동)",
          "katecX": 294158,
          "katecY": 284470,
          "latitude": 35.1534776,
          "longitude": 126.836159,
          "coordinateSource": "katec-converted"
        },
        {
          "id": "A0008916",
          "name": "SK에너지㈜직영 기쁨셀프주유소",
          "brand": "SK에너지",
          "brandCode": "SKE",
          "price": 1825,
          "address": "경기 용인시 기흥구 보정동 547-4",
          "roadAddress": "경기 용인시 기흥구 용구대로2469번길 130 (보정동)",
          "katecX": 320939.99553,
          "katecY": 524415.15079,
          "latitude": 37.3182562,
          "longitude": 127.1057776,
          "coordinateSource": "katec-converted"
        },
        {
          "id": "A0008224",
          "name": "지지대셀프주유소",
          "brand": "SK에너지",
          "brandCode": "SKE",
          "price": 1827,
          "address": "경기 의왕시 왕곡동 468-8",
          "roadAddress": "경기 의왕시 경수대로 112 (왕곡동)",
          "katecX": 309836.00293,
          "katecY": 526679.99537,
          "latitude": 37.3376488,
          "longitude": 126.9802378,
          "coordinateSource": "katec-converted"
        },
        {
          "id": "A0004471",
          "name": "형제주유소",
          "brand": "HDO",
          "brandCode": "HDO",
          "price": 1828,
          "address": "강원 철원군 동송읍 이평리 240-1",
          "roadAddress": "강원 철원군 동송읍 금학로 14",
          "katecX": 332596.6808,
          "katecY": 621309.6827,
          "latitude": 38.1921611,
          "longitude": 127.2282677,
          "coordinateSource": "katec-converted"
        },
        {
          "id": "A0033442",
          "name": "동탄그린주유소",
          "brand": "GS칼텍스",
          "brandCode": "GSC",
          "price": 1829,
          "address": "경기 화성시 동탄구 방교동 797-1",
          "roadAddress": "경기 화성시 동탄구 동탄산단5길 10-44",
          "katecX": 318886.52585,
          "katecY": 508221.9038,
          "latitude": 37.1721766,
          "longitude": 127.0843788,
          "coordinateSource": "katec-converted"
        },
        {
          "id": "A0023043",
          "name": "팔공산IC제2주유소",
          "brand": "S-OIL",
          "brandCode": "SOL",
          "price": 1829,
          "address": "대구 동구 지저동 684-7",
          "roadAddress": "대구 동구 공항로 254 (지저동)",
          "katecX": 457980.1,
          "katecY": 366422.8,
          "latitude": 35.896071,
          "longitude": 128.6400789,
          "coordinateSource": "katec-converted"
        },
        {
          "id": "A0002494",
          "name": "이케이에너지㈜ 광차주유소",
          "brand": "HDO",
          "brandCode": "HDO",
          "price": 1829,
          "address": "경기 화성시 만세구 팔탄면 율암리 98-59",
          "roadAddress": "경기 화성시 만세구 팔탄면 서해로 1266",
          "katecX": 301451,
          "katecY": 508681,
          "latitude": 37.1746334,
          "longitude": 126.8880116,
          "coordinateSource": "katec-converted"
        }
      ]
    },
    {
      "regionCode": "ALL",
      "regionName": "전국",
      "fuelCode": "D047",
      "fuelName": "경유",
      "stations": [
        {
          "id": "A0022913",
          "name": "㈜송라오일뱅크 공항점",
          "brand": "HDO",
          "brandCode": "HDO",
          "price": 1785,
          "address": "대구 동구 지저동 678-6",
          "roadAddress": "대구 동구 공항로 259",
          "katecX": 458057.64177,
          "katecY": 366396.46328,
          "latitude": 35.8958291,
          "longitude": 128.6409358,
          "coordinateSource": "katec-converted"
        },
        {
          "id": "A0023133",
          "name": "삼원주유소",
          "brand": "SK에너지",
          "brandCode": "SKE",
          "price": 1785,
          "address": "대구 동구 지저동 667-4",
          "roadAddress": "대구 동구 공항로 241",
          "katecX": 457977.6595,
          "katecY": 366528.10649,
          "latitude": 35.8970202,
          "longitude": 128.6400595,
          "coordinateSource": "katec-converted"
        },
        {
          "id": "A0001301",
          "name": "한국주유소",
          "brand": "SK에너지",
          "brandCode": "SKE",
          "price": 1789,
          "address": "인천 중구 신흥동3가 31-21",
          "roadAddress": "인천 중구 축항대로 275",
          "katecX": 278649.085,
          "katecY": 539443.8445,
          "latitude": 37.4490744,
          "longitude": 126.6262647,
          "coordinateSource": "katec-converted"
        },
        {
          "id": "A0004907",
          "name": "SK에너지(주) 엔크린셀프주유소",
          "brand": "SK에너지",
          "brandCode": "SKE",
          "price": 1789,
          "address": "경기 의정부시 의정부동 609-2",
          "roadAddress": "경기 의정부시 경의로 20 (의정부동)",
          "katecX": 315363.0717,
          "katecY": 570450.33,
          "latitude": 37.7325194,
          "longitude": 127.0375498,
          "coordinateSource": "katec-converted"
        },
        {
          "id": "A0008063",
          "name": "SK에너지(주) 봉수대로주유소",
          "brand": "SK에너지",
          "brandCode": "SKE",
          "price": 1789,
          "address": "인천 서구 석남동 224-11",
          "roadAddress": "인천 서구 봉수대로 336 (석남동)",
          "katecX": 281927,
          "katecY": 545703,
          "latitude": 37.5058842,
          "longitude": 126.6622975,
          "coordinateSource": "katec-converted"
        },
        {
          "id": "A0001520",
          "name": "동성주유소 ㈜태평석유 직영",
          "brand": "S-OIL",
          "brandCode": "SOL",
          "price": 1789,
          "address": "인천 중구 신흥동3가 34",
          "roadAddress": "인천 중구 축항대로 299",
          "katecX": 278862,
          "katecY": 539337,
          "latitude": 37.4481398,
          "longitude": 126.628688,
          "coordinateSource": "katec-converted"
        },
        {
          "id": "A0001271",
          "name": "백년탑주유소",
          "brand": "S-OIL",
          "brandCode": "SOL",
          "price": 1789,
          "address": "인천 중구 항동7가 57-12",
          "roadAddress": "인천 중구 축항대로 245",
          "katecX": 278386.3,
          "katecY": 539581.5,
          "latitude": 37.4502799,
          "longitude": 126.6232728,
          "coordinateSource": "katec-converted"
        },
        {
          "id": "A0001684",
          "name": "SK에너지㈜직영 남항주유소",
          "brand": "SK에너지",
          "brandCode": "SKE",
          "price": 1789,
          "address": "인천 중구 항동7가 30-2",
          "roadAddress": "인천 중구 축항대로 173",
          "katecX": 277742.4,
          "katecY": 539920.3,
          "latitude": 37.4532469,
          "longitude": 126.615941,
          "coordinateSource": "katec-converted"
        },
        {
          "id": "A0033295",
          "name": "무지개주유소",
          "brand": "자가상표",
          "brandCode": "ETC",
          "price": 1789,
          "address": "충남 서산시 음암면 도당리 28-12",
          "roadAddress": "충남 서산시 음암면 백제사신로 1180",
          "katecX": 269794.95942,
          "katecY": 469197.65964,
          "latitude": 36.8150607,
          "longitude": 126.5384478,
          "coordinateSource": "katec-converted"
        },
        {
          "id": "A0020881",
          "name": "(주)현대셀프주유소",
          "brand": "HDO",
          "brandCode": "HDO",
          "price": 1795,
          "address": "전남 목포시 용해동 65",
          "roadAddress": "전남 목포시 백년대로 202-1",
          "katecX": 254854.37913,
          "katecY": 245705.63411,
          "latitude": 34.7992547,
          "longitude": 126.4116672,
          "coordinateSource": "katec-converted"
        },
        {
          "id": "A0020824",
          "name": "갓바위주유소",
          "brand": "SK에너지",
          "brandCode": "SKE",
          "price": 1795,
          "address": "전남 목포시 용해동 159",
          "roadAddress": "전남 목포시 백년대로 190",
          "katecX": 254715,
          "katecY": 245642,
          "latitude": 34.7986613,
          "longitude": 126.4101556,
          "coordinateSource": "katec-converted"
        },
        {
          "id": "A0020880",
          "name": "창조주유소",
          "brand": "GS칼텍스",
          "brandCode": "GSC",
          "price": 1795,
          "address": "전남 목포시 용해동 158",
          "roadAddress": "전남 목포시 백년대로 197(용해동)",
          "katecX": 254751.4341,
          "katecY": 245726.15449,
          "latitude": 34.7994249,
          "longitude": 126.410539,
          "coordinateSource": "katec-converted"
        },
        {
          "id": "A0020711",
          "name": "가득주유소",
          "brand": "S-OIL",
          "brandCode": "SOL",
          "price": 1795,
          "address": "전남 목포시 상동 925-5",
          "roadAddress": "전남 목포시 백년대로 233",
          "katecX": 255103.6591,
          "katecY": 245916.9582,
          "latitude": 34.8011945,
          "longitude": 126.414354,
          "coordinateSource": "katec-converted"
        },
        {
          "id": "A0032699",
          "name": "(유)대성주유소",
          "brand": "RTO",
          "brandCode": "RTO",
          "price": 1795,
          "address": "전남 목포시 대성동 127-114",
          "roadAddress": "전남 목포시 청호로 57",
          "katecX": 252142,
          "katecY": 245645,
          "latitude": 34.7983179,
          "longitude": 126.3820469,
          "coordinateSource": "katec-converted"
        },
        {
          "id": "A0008916",
          "name": "SK에너지㈜직영 기쁨셀프주유소",
          "brand": "SK에너지",
          "brandCode": "SKE",
          "price": 1795,
          "address": "경기 용인시 기흥구 보정동 547-4",
          "roadAddress": "경기 용인시 기흥구 용구대로2469번길 130 (보정동)",
          "katecX": 320939.99553,
          "katecY": 524415.15079,
          "latitude": 37.3182562,
          "longitude": 127.1057776,
          "coordinateSource": "katec-converted"
        },
        {
          "id": "A0020751",
          "name": "조은주유소",
          "brand": "GS칼텍스",
          "brandCode": "GSC",
          "price": 1795,
          "address": "전남 목포시 산정동 1391-1",
          "roadAddress": "전남 목포시 삼학로183번길 1 (산정동)",
          "katecX": 254078.7,
          "katecY": 244517.3,
          "latitude": 34.7884352,
          "longitude": 126.4033998,
          "coordinateSource": "katec-converted"
        },
        {
          "id": "A0020830",
          "name": "광장주유소",
          "brand": "GS칼텍스",
          "brandCode": "GSC",
          "price": 1795,
          "address": "전남 목포시 상동 928-1",
          "roadAddress": "전남 목포시 백년대로 234 (상동)",
          "katecX": 255130,
          "katecY": 245858,
          "latitude": 34.800667,
          "longitude": 126.4146519,
          "coordinateSource": "katec-converted"
        },
        {
          "id": "A0020820",
          "name": "도청주유소",
          "brand": "RTO",
          "brandCode": "RTO",
          "price": 1795,
          "address": "전남 목포시 옥암동 817-2",
          "roadAddress": "전남 목포시 녹색로 139",
          "katecX": 256518,
          "katecY": 247378,
          "latitude": 34.8145611,
          "longitude": 126.4295556,
          "coordinateSource": "katec-converted"
        },
        {
          "id": "A0008750",
          "name": "SK에너지(주) 대흥셀프주유소",
          "brand": "SK에너지",
          "brandCode": "SKE",
          "price": 1795,
          "address": "경기 용인시 기흥구 보정동 474-2",
          "roadAddress": "경기 용인시 기흥구 신수로 570 (보정동)",
          "katecX": 320685,
          "katecY": 524679,
          "latitude": 37.3206117,
          "longitude": 127.1028727,
          "coordinateSource": "katec-converted"
        },
        {
          "id": "A0020962",
          "name": "더드림주유소",
          "brand": "GS칼텍스",
          "brandCode": "GSC",
          "price": 1795,
          "address": "전남 목포시 석현동 555-1",
          "roadAddress": "전남 목포시 영산로 660",
          "katecX": 255963.51799,
          "katecY": 248451.37559,
          "latitude": 34.8241554,
          "longitude": 126.4233127,
          "coordinateSource": "katec-converted"
        }
      ]
    },
    {
      "regionCode": "ALL",
      "regionName": "전국",
      "fuelCode": "K015",
      "fuelName": "LPG",
      "stations": [
        {
          "id": "A0012372",
          "name": "청주LPG충전소",
          "brand": "E1",
          "brandCode": "E1G",
          "price": 969,
          "address": "충북 청주시 흥덕구 지동동 431-2",
          "roadAddress": "충북 청주시 흥덕구 직지대로 231",
          "katecX": 348237.25868,
          "katecY": 449736.7916,
          "latitude": 36.6472441,
          "longitude": 127.4188818,
          "coordinateSource": "katec-converted"
        },
        {
          "id": "A0033408",
          "name": "(주)삼융만남의충전소",
          "brand": "GS칼텍스",
          "brandCode": "GSC",
          "price": 983,
          "address": "충남 천안시 서북구 직산읍 군서리 293-21",
          "roadAddress": "충남 천안시 서북구 직산읍 군삼길 105",
          "katecX": 325026.56778,
          "katecY": 477256.21834,
          "latitude": 36.8936721,
          "longitude": 127.1566044,
          "coordinateSource": "katec-converted"
        },
        {
          "id": "A0015698",
          "name": "번영충전소",
          "brand": "HDO",
          "brandCode": "HDO",
          "price": 984,
          "address": "충남 천안시 서북구 성성동 343-11",
          "roadAddress": "충남 천안시 서북구 2공단1로 10 (성성동)",
          "katecX": 321864,
          "katecY": 471978,
          "latitude": 36.8458544,
          "longitude": 127.1216695,
          "coordinateSource": "katec-converted"
        },
        {
          "id": "A0033504",
          "name": "행복에너지충전소",
          "brand": "SK가스",
          "brandCode": "SKG",
          "price": 989,
          "address": "충북 청주시 흥덕구 외북동 312",
          "roadAddress": "충북 청주시 흥덕구 엘지로 5",
          "katecX": 349697.44137,
          "katecY": 450983.43363,
          "latitude": 36.658557,
          "longitude": 127.4351296,
          "coordinateSource": "katec-converted"
        },
        {
          "id": "A0007594",
          "name": "SK행복충전 조암충전소",
          "brand": "SK가스",
          "brandCode": "SKG",
          "price": 990,
          "address": "경기 화성시 만세구 우정읍 호곡리 89-1",
          "roadAddress": "경기 화성시 만세구 우정읍 호곡길 84",
          "katecX": 292305,
          "katecY": 502668,
          "latitude": 37.119449,
          "longitude": 126.7859044,
          "coordinateSource": "katec-converted"
        },
        {
          "id": "A0016516",
          "name": "신탄진충전소",
          "brand": "SK에너지",
          "brandCode": "SKE",
          "price": 992,
          "address": "대전 대덕구 상서동 349-12",
          "roadAddress": "대전 대덕구 신탄진로 520",
          "katecX": 348227.67743,
          "katecY": 425101.14895,
          "latitude": 36.425231,
          "longitude": 127.4204337,
          "coordinateSource": "katec-converted"
        },
        {
          "id": "A0013658",
          "name": "행복에너지 충전소",
          "brand": "SK에너지",
          "brandCode": "SKE",
          "price": 992,
          "address": "대전 대덕구 연축동 294-2",
          "roadAddress": "대전 대덕구 신탄진로 71",
          "katecX": 348391,
          "katecY": 420900,
          "latitude": 36.3873788,
          "longitude": 127.4225352,
          "coordinateSource": "katec-converted"
        },
        {
          "id": "A0016481",
          "name": "시온가스충전소",
          "brand": "자가상표",
          "brandCode": "ETC",
          "price": 992,
          "address": "대전 대덕구 신탄진동 294-5",
          "roadAddress": "대전 대덕구 신탄진로 737 (신탄진동)",
          "katecX": 349001.18753,
          "katecY": 427082.851,
          "latitude": 36.4431316,
          "longitude": 127.4289287,
          "coordinateSource": "katec-converted"
        },
        {
          "id": "A0016728",
          "name": "대덕밸리LPG충전소",
          "brand": "HDO",
          "brandCode": "HDO",
          "price": 992,
          "address": "대전 대덕구 평촌동 226-5",
          "roadAddress": "대전 대덕구 신탄진로 650",
          "katecX": 348726,
          "katecY": 426309,
          "latitude": 36.436143,
          "longitude": 127.4259106,
          "coordinateSource": "katec-converted"
        },
        {
          "id": "A0003403",
          "name": "성원이앤에스(주)안성지점",
          "brand": "GS칼텍스",
          "brandCode": "GSC",
          "price": 994,
          "address": "경기 안성시 대덕면 모산리 359-13",
          "roadAddress": "경기 안성시 대덕면 안성대로 1284",
          "katecX": 332379.39956,
          "katecY": 492485.30988,
          "latitude": 37.0314562,
          "longitude": 127.2377274,
          "coordinateSource": "katec-converted"
        },
        {
          "id": "A0003035",
          "name": "평화lpg충전소",
          "brand": "SK에너지",
          "brandCode": "SKE",
          "price": 995,
          "address": "경기 안성시 공도읍 승두리 593-6",
          "roadAddress": "경기 안성시 공도읍 서동대로 4068",
          "katecX": 325389.85097,
          "katecY": 488787.01039,
          "latitude": 36.9976017,
          "longitude": 127.1595394,
          "coordinateSource": "katec-converted"
        },
        {
          "id": "A0003238",
          "name": "(유)유성홀딩스 공도충전소",
          "brand": "SK가스",
          "brandCode": "SKG",
          "price": 995,
          "address": "경기 안성시 공도읍 만정리 290-7",
          "roadAddress": "경기 안성시 공도읍 서동대로 4287-12",
          "katecX": 327160.00289,
          "katecY": 489628.99543,
          "latitude": 37.0053277,
          "longitude": 127.1793436,
          "coordinateSource": "katec-converted"
        },
        {
          "id": "A0010546",
          "name": "녹박재충전소",
          "brand": "자가상표",
          "brandCode": "ETC",
          "price": 996,
          "address": "경기 안성시 죽산면 장릉리 660-4",
          "roadAddress": "경기 안성시 죽산면 서동대로 6516",
          "katecX": 345135.5,
          "katecY": 496570.1,
          "latitude": 37.0690986,
          "longitude": 127.3807985,
          "coordinateSource": "katec-converted"
        },
        {
          "id": "A0033217",
          "name": "비봉충전소 ㈜대원에너지",
          "brand": "HDO",
          "brandCode": "HDO",
          "price": 996,
          "address": "경기 안성시 죽산면 장능리 580",
          "roadAddress": "경기 안성시 죽산면 서동대로 6617",
          "katecX": 346078.32881,
          "katecY": 496938.35038,
          "latitude": 37.0724718,
          "longitude": 127.3913741,
          "coordinateSource": "katec-converted"
        },
        {
          "id": "A0015652",
          "name": "태양주유소/충전소",
          "brand": "GS칼텍스",
          "brandCode": "GSC",
          "price": 997,
          "address": "충남 천안시 서북구 업성동 484-7",
          "roadAddress": "충남 천안시 서북구 번영로 613",
          "katecX": 322472.53243,
          "katecY": 472805.10875,
          "latitude": 36.8533575,
          "longitude": 127.1284075,
          "coordinateSource": "katec-converted"
        },
        {
          "id": "A0018234",
          "name": "오케이완주충전소",
          "brand": "HDO",
          "brandCode": "HDO",
          "price": 997,
          "address": "전북 완주군 상관면 용암리 305-1",
          "roadAddress": "전북 완주군 상관면 춘향로 4082",
          "katecX": 330979,
          "katecY": 346647,
          "latitude": 35.7170976,
          "longitude": 127.2349673,
          "coordinateSource": "katec-converted"
        },
        {
          "id": "A0012083",
          "name": "주식회사 삼보에너지",
          "brand": "GS칼텍스",
          "brandCode": "GSC",
          "price": 998,
          "address": "충북 청주시 서원구미평동  229-1",
          "roadAddress": "충북 청주시 서원구 산미로 41",
          "katecX": 352630.88799,
          "katecY": 444684.18745,
          "latitude": 36.6019407,
          "longitude": 127.4683307,
          "coordinateSource": "katec-converted"
        },
        {
          "id": "A0033393",
          "name": "(주)조은에너지 편백",
          "brand": "SK가스",
          "brandCode": "SKG",
          "price": 999,
          "address": "전북 완주군 상관면 죽림리 267-1",
          "roadAddress": "전북 완주군 상관면 춘향로 4449",
          "katecX": 329732.6648,
          "katecY": 350026.58834,
          "latitude": 35.7474684,
          "longitude": 127.2208968,
          "coordinateSource": "katec-converted"
        },
        {
          "id": "A0014504",
          "name": "대광LPG충전소",
          "brand": "SK에너지",
          "brandCode": "SKE",
          "price": 999,
          "address": "전북 전주시 완산구 색장동 857-5",
          "roadAddress": "전북 전주시 완산구 춘향로 4881",
          "katecX": 327786,
          "katecY": 353366,
          "latitude": 35.7774239,
          "longitude": 127.1990734,
          "coordinateSource": "katec-converted"
        },
        {
          "id": "A0018102",
          "name": "전주유성LPG충전소",
          "brand": "E1",
          "brandCode": "E1G",
          "price": 999,
          "address": "전북 전주시 완산구 색장동 576",
          "roadAddress": "전북 전주시 완산구  춘향로 4981",
          "katecX": 327310,
          "katecY": 354437,
          "latitude": 35.7870412,
          "longitude": 127.1937115,
          "coordinateSource": "katec-converted"
        }
      ]
    },
    {
      "regionCode": "01",
      "regionName": "서울",
      "fuelCode": "B027",
      "fuelName": "휘발유",
      "stations": [
        {
          "id": "A0009640",
          "name": "(주)자연에너지 번동주유소",
          "brand": "HDO",
          "brandCode": "HDO",
          "price": 1840,
          "address": "서울 강북구 번동 410-95",
          "roadAddress": "서울 강북구 한천로 963 (번동)",
          "katecX": 314838,
          "katecY": 559686,
          "latitude": 37.6354919,
          "longitude": 127.0328536,
          "coordinateSource": "katec-converted"
        },
        {
          "id": "A0000549",
          "name": "이케이에너지(주) 강서주유소",
          "brand": "HDO",
          "brandCode": "HDO",
          "price": 1840,
          "address": "서울 강서구 화곡동 983-1",
          "roadAddress": "서울 강서구 화곡로 273 (화곡동)",
          "katecX": 298318.039,
          "katecY": 550276.2648,
          "latitude": 37.5490384,
          "longitude": 126.8470181,
          "coordinateSource": "katec-converted"
        },
        {
          "id": "A0000011",
          "name": "이케이에너지(주) 무산주유소",
          "brand": "HDO",
          "brandCode": "HDO",
          "price": 1840,
          "address": "서울 양천구 신정3동 1294-6",
          "roadAddress": "서울 양천구 신정로 236",
          "katecX": 298323.406,
          "katecY": 546013.55295,
          "latitude": 37.5106363,
          "longitude": 126.8476698,
          "coordinateSource": "katec-converted"
        },
        {
          "id": "A0009232",
          "name": "(주)자연에너지 국민주유소",
          "brand": "HDO",
          "brandCode": "HDO",
          "price": 1840,
          "address": "서울 동대문구 답십리동 3-39",
          "roadAddress": "서울 동대문구 답십리로 223 (답십리동)",
          "katecX": 317607,
          "katecY": 552712,
          "latitude": 37.5729128,
          "longitude": 127.0650101,
          "coordinateSource": "katec-converted"
        },
        {
          "id": "A0009293",
          "name": "㈜성동에너지",
          "brand": "HDO",
          "brandCode": "HDO",
          "price": 1840,
          "address": "서울 성동구 용답동 229-5",
          "roadAddress": "서울 성동구 천호대로 392",
          "katecX": 317359.9675,
          "katecY": 551436.8144,
          "latitude": 37.5614018,
          "longitude": 127.0623579,
          "coordinateSource": "katec-converted"
        },
        {
          "id": "A0009641",
          "name": "(주)석산에너지",
          "brand": "HDO",
          "brandCode": "HDO",
          "price": 1840,
          "address": "서울 강북구 수유동 472-211",
          "roadAddress": "서울 강북구 삼양로 316 (수유동)",
          "katecX": 313510.1896,
          "katecY": 559272.5183,
          "latitude": 37.6316425,
          "longitude": 127.0178602,
          "coordinateSource": "katec-converted"
        },
        {
          "id": "A0009682",
          "name": "이케이에너지 주식회사",
          "brand": "HDO",
          "brandCode": "HDO",
          "price": 1840,
          "address": "서울 도봉구 도봉동 298-2",
          "roadAddress": "서울 도봉구 도봉로 941 (도봉동)",
          "katecX": 315996.4144,
          "katecY": 565545.23458,
          "latitude": 37.6883866,
          "longitude": 127.0453013,
          "coordinateSource": "katec-converted"
        },
        {
          "id": "A0006667",
          "name": "㈜자연에너지 고척주유소",
          "brand": "HDO",
          "brandCode": "HDO",
          "price": 1840,
          "address": "서울 구로구 고척동 167-32",
          "roadAddress": "서울 구로구 고척로 199 (고척동)",
          "katecX": 298992.6826,
          "katecY": 545393.869,
          "latitude": 37.5051272,
          "longitude": 126.8553241,
          "coordinateSource": "katec-converted"
        },
        {
          "id": "A0001257",
          "name": "이케이에너지㈜ 강산주유소",
          "brand": "GS칼텍스",
          "brandCode": "GSC",
          "price": 1840,
          "address": "서울 성북구 보문동7가 137",
          "roadAddress": "서울 성북구 보문로 27 (보문동7가)",
          "katecX": 313874.79321,
          "katecY": 553300.33345,
          "latitude": 37.5778712,
          "longitude": 127.0226947,
          "coordinateSource": "katec-converted"
        },
        {
          "id": "A0009421",
          "name": "(주)자연에너지 중원주유소",
          "brand": "HDO",
          "brandCode": "HDO",
          "price": 1840,
          "address": "서울 광진구 중곡동 235-2",
          "roadAddress": "서울 광진구 동일로 398 (중곡동)",
          "katecX": 318704.3461,
          "katecY": 551889.0392,
          "latitude": 37.5655961,
          "longitude": 127.0775229,
          "coordinateSource": "katec-converted"
        },
        {
          "id": "A0000854",
          "name": "(주)서울에너지 궁동주유소",
          "brand": "HDO",
          "brandCode": "HDO",
          "price": 1840,
          "address": "서울 구로구 궁동 283-2",
          "roadAddress": "서울 구로구 오리로 1299 (궁동)",
          "katecX": 296660.57753,
          "katecY": 544561.95333,
          "latitude": 37.497374,
          "longitude": 126.8290688,
          "coordinateSource": "katec-converted"
        },
        {
          "id": "A0000189",
          "name": "(주)서울에너지 시민주유소",
          "brand": "HDO",
          "brandCode": "HDO",
          "price": 1840,
          "address": "서울 강북구 수유동 440-36",
          "roadAddress": "서울 강북구 인수봉로 185 (수유동)",
          "katecX": 313067,
          "katecY": 559776,
          "latitude": 37.6361366,
          "longitude": 127.0127796,
          "coordinateSource": "katec-converted"
        },
        {
          "id": "A0009676",
          "name": "(주)자연에너지 햇살주유소",
          "brand": "HDO",
          "brandCode": "HDO",
          "price": 1840,
          "address": "서울 도봉구 방학동 691-3",
          "roadAddress": "서울 도봉구 방학로 142 (방학동)",
          "katecX": 315183.00299,
          "katecY": 562726.99535,
          "latitude": 37.6629212,
          "longitude": 127.0364082,
          "coordinateSource": "katec-converted"
        },
        {
          "id": "A0009916",
          "name": "대신석유(주)대우주유소",
          "brand": "SK에너지",
          "brandCode": "SKE",
          "price": 1847,
          "address": "서울 서초구 양재동 216",
          "roadAddress": "서울 서초구 양재대로 173 (양재동)",
          "katecX": 315069.06196,
          "katecY": 540497.58276,
          "latitude": 37.4626356,
          "longitude": 127.0376964,
          "coordinateSource": "katec-converted"
        },
        {
          "id": "A0001146",
          "name": "SK에너지(주) 박미주유소",
          "brand": "SK에너지",
          "brandCode": "SKE",
          "price": 1849,
          "address": "서울 금천구 시흥동 980",
          "roadAddress": "서울 금천구 시흥대로 39-7 (시흥동)",
          "katecX": 303084.8522,
          "katecY": 537816.7868,
          "latitude": 37.437303,
          "longitude": 126.9025992,
          "coordinateSource": "katec-converted"
        },
        {
          "id": "A0001022",
          "name": "SK에너지㈜ 신평",
          "brand": "SK에너지",
          "brandCode": "SKE",
          "price": 1854,
          "address": "서울 양천구 신정동 209-6",
          "roadAddress": "서울 양천구 목동남로 62",
          "katecX": 299970.9505,
          "katecY": 545862.9872,
          "latitude": 37.5094602,
          "longitude": 126.8663229,
          "coordinateSource": "katec-converted"
        },
        {
          "id": "A0000519",
          "name": "화곡역주유소",
          "brand": "RTO",
          "brandCode": "RTO",
          "price": 1854,
          "address": "서울 강서구 화곡동 1076-14",
          "roadAddress": "서울 강서구 강서로 154 (화곡동)",
          "katecX": 297830.02778,
          "katecY": 549333.51356,
          "latitude": 37.5404911,
          "longitude": 126.8416277,
          "coordinateSource": "katec-converted"
        },
        {
          "id": "A0033328",
          "name": "KH에너지㈜직영 KH외발산주유소",
          "brand": "SK에너지",
          "brandCode": "SKE",
          "price": 1855,
          "address": "서울 강서구 외발산동 379",
          "roadAddress": "서울 강서구 방화대로 30",
          "katecX": 295638.67967,
          "katecY": 549652.25429,
          "latitude": 37.5431168,
          "longitude": 126.8167901,
          "coordinateSource": "katec-converted"
        },
        {
          "id": "A0001024",
          "name": "SK에너지(주) 경인주유소",
          "brand": "SK에너지",
          "brandCode": "SKE",
          "price": 1859,
          "address": "서울 양천구 신정동 872-5",
          "roadAddress": "서울 양천구 국회대로 170 (신정동)",
          "katecX": 298878.7968,
          "katecY": 547944.8592,
          "latitude": 37.5280966,
          "longitude": 126.8536847,
          "coordinateSource": "katec-converted"
        },
        {
          "id": "A0032866",
          "name": "경동석유산업㈜ 강서오곡SELF주유소",
          "brand": "SK에너지",
          "brandCode": "SKE",
          "price": 1859,
          "address": "서울 강서구 오곡동 594-1",
          "roadAddress": "서울 강서구 벌말로 254 (오곡동)",
          "katecX": 291371.26835,
          "katecY": 550919.91578,
          "latitude": 37.5540431,
          "longitude": 126.7683212,
          "coordinateSource": "katec-converted"
        }
      ]
    },
    {
      "regionCode": "01",
      "regionName": "서울",
      "fuelCode": "D047",
      "fuelName": "경유",
      "stations": [
        {
          "id": "A0001146",
          "name": "SK에너지(주) 박미주유소",
          "brand": "SK에너지",
          "brandCode": "SKE",
          "price": 1797,
          "address": "서울 금천구 시흥동 980",
          "roadAddress": "서울 금천구 시흥대로 39-7 (시흥동)",
          "katecX": 303084.8522,
          "katecY": 537816.7868,
          "latitude": 37.437303,
          "longitude": 126.9025992,
          "coordinateSource": "katec-converted"
        },
        {
          "id": "A0001022",
          "name": "SK에너지㈜ 신평",
          "brand": "SK에너지",
          "brandCode": "SKE",
          "price": 1804,
          "address": "서울 양천구 신정동 209-6",
          "roadAddress": "서울 양천구 목동남로 62",
          "katecX": 299970.9505,
          "katecY": 545862.9872,
          "latitude": 37.5094602,
          "longitude": 126.8663229,
          "coordinateSource": "katec-converted"
        },
        {
          "id": "A0000519",
          "name": "화곡역주유소",
          "brand": "RTO",
          "brandCode": "RTO",
          "price": 1808,
          "address": "서울 강서구 화곡동 1076-14",
          "roadAddress": "서울 강서구 강서로 154 (화곡동)",
          "katecX": 297830.02778,
          "katecY": 549333.51356,
          "latitude": 37.5404911,
          "longitude": 126.8416277,
          "coordinateSource": "katec-converted"
        },
        {
          "id": "A0000431",
          "name": "SK에너지(주) 신길동주유소",
          "brand": "SK에너지",
          "brandCode": "SKE",
          "price": 1808,
          "address": "서울 영등포구 신길동 50-8",
          "roadAddress": "서울 영등포구 영등포로 348 (신길동)",
          "katecX": 304467.4051,
          "katecY": 546469.8666,
          "latitude": 37.5154048,
          "longitude": 126.9170956,
          "coordinateSource": "katec-converted"
        },
        {
          "id": "A0000549",
          "name": "이케이에너지(주) 강서주유소",
          "brand": "HDO",
          "brandCode": "HDO",
          "price": 1808,
          "address": "서울 강서구 화곡동 983-1",
          "roadAddress": "서울 강서구 화곡로 273 (화곡동)",
          "katecX": 298318.039,
          "katecY": 550276.2648,
          "latitude": 37.5490384,
          "longitude": 126.8470181,
          "coordinateSource": "katec-converted"
        },
        {
          "id": "A0006667",
          "name": "㈜자연에너지 고척주유소",
          "brand": "HDO",
          "brandCode": "HDO",
          "price": 1808,
          "address": "서울 구로구 고척동 167-32",
          "roadAddress": "서울 구로구 고척로 199 (고척동)",
          "katecX": 298992.6826,
          "katecY": 545393.869,
          "latitude": 37.5051272,
          "longitude": 126.8553241,
          "coordinateSource": "katec-converted"
        },
        {
          "id": "A0000854",
          "name": "(주)서울에너지 궁동주유소",
          "brand": "HDO",
          "brandCode": "HDO",
          "price": 1808,
          "address": "서울 구로구 궁동 283-2",
          "roadAddress": "서울 구로구 오리로 1299 (궁동)",
          "katecX": 296660.57753,
          "katecY": 544561.95333,
          "latitude": 37.497374,
          "longitude": 126.8290688,
          "coordinateSource": "katec-converted"
        },
        {
          "id": "A0000011",
          "name": "이케이에너지(주) 무산주유소",
          "brand": "HDO",
          "brandCode": "HDO",
          "price": 1808,
          "address": "서울 양천구 신정3동 1294-6",
          "roadAddress": "서울 양천구 신정로 236",
          "katecX": 298323.406,
          "katecY": 546013.55295,
          "latitude": 37.5106363,
          "longitude": 126.8476698,
          "coordinateSource": "katec-converted"
        },
        {
          "id": "A0001024",
          "name": "SK에너지(주) 경인주유소",
          "brand": "SK에너지",
          "brandCode": "SKE",
          "price": 1809,
          "address": "서울 양천구 신정동 872-5",
          "roadAddress": "서울 양천구 국회대로 170 (신정동)",
          "katecX": 298878.7968,
          "katecY": 547944.8592,
          "latitude": 37.5280966,
          "longitude": 126.8536847,
          "coordinateSource": "katec-converted"
        },
        {
          "id": "A0001144",
          "name": "SK에너지(주)직영 신봉천주유소",
          "brand": "SK에너지",
          "brandCode": "SKE",
          "price": 1816,
          "address": "서울 관악구 낙성대동 1663-11",
          "roadAddress": "서울 관악구 남부순환로 1880 (봉천동)",
          "katecX": 308077.68423,
          "katecY": 542361.34829,
          "latitude": 37.4787571,
          "longitude": 126.9584433,
          "coordinateSource": "katec-converted"
        },
        {
          "id": "A0009293",
          "name": "㈜성동에너지",
          "brand": "HDO",
          "brandCode": "HDO",
          "price": 1819,
          "address": "서울 성동구 용답동 229-5",
          "roadAddress": "서울 성동구 천호대로 392",
          "katecX": 317359.9675,
          "katecY": 551436.8144,
          "latitude": 37.5614018,
          "longitude": 127.0623579,
          "coordinateSource": "katec-converted"
        },
        {
          "id": "A0009421",
          "name": "(주)자연에너지 중원주유소",
          "brand": "HDO",
          "brandCode": "HDO",
          "price": 1819,
          "address": "서울 광진구 중곡동 235-2",
          "roadAddress": "서울 광진구 동일로 398 (중곡동)",
          "katecX": 318704.3461,
          "katecY": 551889.0392,
          "latitude": 37.5655961,
          "longitude": 127.0775229,
          "coordinateSource": "katec-converted"
        },
        {
          "id": "A0000189",
          "name": "(주)서울에너지 시민주유소",
          "brand": "HDO",
          "brandCode": "HDO",
          "price": 1819,
          "address": "서울 강북구 수유동 440-36",
          "roadAddress": "서울 강북구 인수봉로 185 (수유동)",
          "katecX": 313067,
          "katecY": 559776,
          "latitude": 37.6361366,
          "longitude": 127.0127796,
          "coordinateSource": "katec-converted"
        },
        {
          "id": "A0009640",
          "name": "(주)자연에너지 번동주유소",
          "brand": "HDO",
          "brandCode": "HDO",
          "price": 1819,
          "address": "서울 강북구 번동 410-95",
          "roadAddress": "서울 강북구 한천로 963 (번동)",
          "katecX": 314838,
          "katecY": 559686,
          "latitude": 37.6354919,
          "longitude": 127.0328536,
          "coordinateSource": "katec-converted"
        },
        {
          "id": "A0009676",
          "name": "(주)자연에너지 햇살주유소",
          "brand": "HDO",
          "brandCode": "HDO",
          "price": 1819,
          "address": "서울 도봉구 방학동 691-3",
          "roadAddress": "서울 도봉구 방학로 142 (방학동)",
          "katecX": 315183.00299,
          "katecY": 562726.99535,
          "latitude": 37.6629212,
          "longitude": 127.0364082,
          "coordinateSource": "katec-converted"
        },
        {
          "id": "A0001257",
          "name": "이케이에너지㈜ 강산주유소",
          "brand": "GS칼텍스",
          "brandCode": "GSC",
          "price": 1819,
          "address": "서울 성북구 보문동7가 137",
          "roadAddress": "서울 성북구 보문로 27 (보문동7가)",
          "katecX": 313874.79321,
          "katecY": 553300.33345,
          "latitude": 37.5778712,
          "longitude": 127.0226947,
          "coordinateSource": "katec-converted"
        },
        {
          "id": "A0000129",
          "name": "SK에너지(주) 양지주유소",
          "brand": "SK에너지",
          "brandCode": "SKE",
          "price": 1819,
          "address": "서울 마포구 도화동 174-1",
          "roadAddress": "서울 마포구 마포대로 69 (도화동)",
          "katecX": 307294,
          "katecY": 549386,
          "latitude": 37.5419659,
          "longitude": 126.9486966,
          "coordinateSource": "katec-converted"
        },
        {
          "id": "A0009682",
          "name": "이케이에너지 주식회사",
          "brand": "HDO",
          "brandCode": "HDO",
          "price": 1819,
          "address": "서울 도봉구 도봉동 298-2",
          "roadAddress": "서울 도봉구 도봉로 941 (도봉동)",
          "katecX": 315996.4144,
          "katecY": 565545.23458,
          "latitude": 37.6883866,
          "longitude": 127.0453013,
          "coordinateSource": "katec-converted"
        },
        {
          "id": "A0009232",
          "name": "(주)자연에너지 국민주유소",
          "brand": "HDO",
          "brandCode": "HDO",
          "price": 1819,
          "address": "서울 동대문구 답십리동 3-39",
          "roadAddress": "서울 동대문구 답십리로 223 (답십리동)",
          "katecX": 317607,
          "katecY": 552712,
          "latitude": 37.5729128,
          "longitude": 127.0650101,
          "coordinateSource": "katec-converted"
        },
        {
          "id": "A0009641",
          "name": "(주)석산에너지",
          "brand": "HDO",
          "brandCode": "HDO",
          "price": 1819,
          "address": "서울 강북구 수유동 472-211",
          "roadAddress": "서울 강북구 삼양로 316 (수유동)",
          "katecX": 313510.1896,
          "katecY": 559272.5183,
          "latitude": 37.6316425,
          "longitude": 127.0178602,
          "coordinateSource": "katec-converted"
        }
      ]
    },
    {
      "regionCode": "01",
      "regionName": "서울",
      "fuelCode": "K015",
      "fuelName": "LPG",
      "stations": [
        {
          "id": "A0032953",
          "name": "한경에너지",
          "brand": "SK에너지",
          "brandCode": "SKE",
          "price": 1087,
          "address": "서울 강서구 개화동 215-6",
          "roadAddress": "서울 강서구 개화동로 255",
          "katecX": 294104.61392,
          "katecY": 554571.18999,
          "latitude": 37.5872551,
          "longitude": 126.7987223,
          "coordinateSource": "katec-converted"
        },
        {
          "id": "A0000481",
          "name": "강서충전소",
          "brand": "SK가스",
          "brandCode": "SKG",
          "price": 1116,
          "address": "서울 강서구 오곡동 593-2",
          "roadAddress": "서울 강서구 벌말로 266",
          "katecX": 291406.00294,
          "katecY": 551023.99532,
          "latitude": 37.5549848,
          "longitude": 126.7686988,
          "coordinateSource": "katec-converted"
        },
        {
          "id": "A0000559",
          "name": "오곡동충전소",
          "brand": "E1",
          "brandCode": "E1G",
          "price": 1116,
          "address": "서울 강서구 오곡동 699-14",
          "roadAddress": "서울 강서구 벌말로 271 (오곡동)",
          "katecX": 291362.00588,
          "katecY": 551107.99064,
          "latitude": 37.5557363,
          "longitude": 126.7681885,
          "coordinateSource": "katec-converted"
        },
        {
          "id": "A0033750",
          "name": "강남세곡충전소 셀프세차장㈜",
          "brand": "SK에너지",
          "brandCode": "SKE",
          "price": 1152,
          "address": "서울 강남구 세곡동 34-3",
          "roadAddress": "서울 강남구 헌릉로 717",
          "katecX": 322120.86079,
          "katecY": 540867.46644,
          "latitude": 37.4665904,
          "longitude": 127.1173629,
          "coordinateSource": "katec-converted"
        },
        {
          "id": "A0000291",
          "name": "양평동충전소",
          "brand": "SK가스",
          "brandCode": "SKG",
          "price": 1155,
          "address": "서울 영등포구 양평동3가 59",
          "roadAddress": "서울 영등포구 선유로 157",
          "katecX": 302183.00295,
          "katecY": 547885.99534,
          "latitude": 37.5279232,
          "longitude": 126.8910698,
          "coordinateSource": "katec-converted"
        },
        {
          "id": "A0011826",
          "name": "㈜에이치앤디이 만남의광장주유소",
          "brand": "GS칼텍스",
          "brandCode": "GSC",
          "price": 1157,
          "address": "서울 서초구 원지동 10-16",
          "roadAddress": "서울 서초구 양재대로12길 73-71",
          "katecX": 315535.76499,
          "katecY": 540150.38545,
          "latitude": 37.4595503,
          "longitude": 127.0430113,
          "coordinateSource": "katec-converted"
        },
        {
          "id": "A0010145",
          "name": "(주)평안에너지 상계충전소",
          "brand": "E1",
          "brandCode": "E1G",
          "price": 1165,
          "address": "서울 노원구 중계동 515-5",
          "roadAddress": "서울 노원구 동일로210길 86 (중계동)",
          "katecX": 317868,
          "katecY": 561177,
          "latitude": 37.6492014,
          "longitude": 127.0670122,
          "coordinateSource": "katec-converted"
        },
        {
          "id": "A0009683",
          "name": "한영가스충전소",
          "brand": "GS칼텍스",
          "brandCode": "GSC",
          "price": 1165,
          "address": "서울 도봉구 쌍문동 715-1",
          "roadAddress": "서울 도봉구 도봉로 627",
          "katecX": 315616.83397,
          "katecY": 562454.54833,
          "latitude": 37.6605067,
          "longitude": 127.0413564,
          "coordinateSource": "katec-converted"
        },
        {
          "id": "A0012841",
          "name": "(주)평안에너지 도봉충전소",
          "brand": "E1",
          "brandCode": "E1G",
          "price": 1165,
          "address": "서울 도봉구 도봉동 376",
          "roadAddress": "서울 도봉구 도봉로 983 (도봉동)",
          "katecX": 315939.24421,
          "katecY": 565987.46091,
          "latitude": 37.6923655,
          "longitude": 127.0446021,
          "coordinateSource": "katec-converted"
        },
        {
          "id": "A0010082",
          "name": "태능가스(주)",
          "brand": "S-OIL",
          "brandCode": "SOL",
          "price": 1165,
          "address": "서울 노원구 공릉동 690-11",
          "roadAddress": "서울 노원구 화랑로 405 (공릉동)",
          "katecX": 318316,
          "katecY": 557588,
          "latitude": 37.6169065,
          "longitude": 127.0724905,
          "coordinateSource": "katec-converted"
        },
        {
          "id": "A0010132",
          "name": "복지공릉충전소 ㈜서울개인택시복지법인",
          "brand": "E1",
          "brandCode": "E1G",
          "price": 1166,
          "address": "서울 노원구 공릉동 26-69",
          "roadAddress": "서울 노원구 화랑로 826",
          "katecX": 321612,
          "katecY": 559996,
          "latitude": 37.638889,
          "longitude": 127.1095629,
          "coordinateSource": "katec-converted"
        },
        {
          "id": "A0009627",
          "name": "SK행복충전 서울와사공업충전소",
          "brand": "SK가스",
          "brandCode": "SKG",
          "price": 1167,
          "address": "서울 강북구 번동 446-31",
          "roadAddress": "서울 강북구 도봉로 318 (번동)",
          "katecX": 314101.6,
          "katecY": 559768.7,
          "latitude": 37.6361683,
          "longitude": 127.0245014,
          "coordinateSource": "katec-converted"
        },
        {
          "id": "A0009625",
          "name": "국제가스공업(주)",
          "brand": "SK에너지",
          "brandCode": "SKE",
          "price": 1167,
          "address": "서울 강북구 수유동 48-83",
          "roadAddress": "서울 강북구 덕릉로 70",
          "katecX": 313864,
          "katecY": 559556,
          "latitude": 37.6342297,
          "longitude": 127.0218347,
          "coordinateSource": "katec-converted"
        },
        {
          "id": "A0009630",
          "name": "SK행복충전 청학에너지충전소",
          "brand": "SK가스",
          "brandCode": "SKG",
          "price": 1167,
          "address": "서울 강북구 번3동 267",
          "roadAddress": "서울 강북구 한천로 833 (번동)",
          "katecX": 315808.2,
          "katecY": 558866.3,
          "latitude": 37.6281965,
          "longitude": 127.0439395,
          "coordinateSource": "katec-converted"
        },
        {
          "id": "A0009491",
          "name": "SK행복충전 장위가스충전소",
          "brand": "SK가스",
          "brandCode": "SKG",
          "price": 1167,
          "address": "서울 성북구 장위3동44-3",
          "roadAddress": "서울 성북구 화랑로 291 (장위동)",
          "katecX": 317260,
          "katecY": 557194,
          "latitude": 37.6132622,
          "longitude": 127.0605748,
          "coordinateSource": "katec-converted"
        },
        {
          "id": "A0001874",
          "name": "복지강북충전소 ㈜서울개인택시복지법인",
          "brand": "GS칼텍스",
          "brandCode": "GSC",
          "price": 1167,
          "address": "서울 도봉구 창동 643-2",
          "roadAddress": "서울특별시 도봉구 도봉로 430 (창동)",
          "katecX": 314819,
          "katecY": 560656,
          "latitude": 37.6442292,
          "longitude": 127.0325251,
          "coordinateSource": "katec-converted"
        },
        {
          "id": "A0010129",
          "name": "SK행복충전 노일가스충전소",
          "brand": "SK가스",
          "brandCode": "SKG",
          "price": 1167,
          "address": "서울 노원구 상계동 1034-1",
          "roadAddress": "서울 노원구 동일로 1601 (상계동)",
          "katecX": 316881.3,
          "katecY": 563646,
          "latitude": 37.6713565,
          "longitude": 127.0555502,
          "coordinateSource": "katec-converted"
        },
        {
          "id": "A0009153",
          "name": "수도에너지(주)동서울충전소",
          "brand": "S-OIL",
          "brandCode": "SOL",
          "price": 1168,
          "address": "서울 동대문구 휘경동 267-10",
          "roadAddress": "서울 동대문구 망우로 57 (휘경동)",
          "katecX": 317130.8,
          "katecY": 554559.6,
          "latitude": 37.589516,
          "longitude": 127.0594104,
          "coordinateSource": "katec-converted"
        },
        {
          "id": "A0001000",
          "name": "수도에너지(주)충전소",
          "brand": "S-OIL",
          "brandCode": "SOL",
          "price": 1168,
          "address": "서울 양천구 신정동 813-17",
          "roadAddress": "서울 양천구 신정로 146 (신정동)",
          "katecX": 297557.2,
          "katecY": 545618,
          "latitude": 37.506988,
          "longitude": 126.8390598,
          "coordinateSource": "katec-converted"
        },
        {
          "id": "A0033308",
          "name": "KH에너지㈜직영 활주로충전소",
          "brand": "SK가스",
          "brandCode": "SKG",
          "price": 1168,
          "address": "서울 강서구 외발산동 384-2",
          "roadAddress": "서울 강서구 방화대로 26 (외발산동)",
          "katecX": 295643.64917,
          "katecY": 549650.24818,
          "latitude": 37.5430993,
          "longitude": 126.8168466,
          "coordinateSource": "katec-converted"
        }
      ]
    },
    {
      "regionCode": "02",
      "regionName": "경기",
      "fuelCode": "B027",
      "fuelName": "휘발유",
      "stations": [
        {
          "id": "A0008916",
          "name": "SK에너지㈜직영 기쁨셀프주유소",
          "brand": "SK에너지",
          "brandCode": "SKE",
          "price": 1825,
          "address": "경기 용인시 기흥구 보정동 547-4",
          "roadAddress": "경기 용인시 기흥구 용구대로2469번길 130 (보정동)",
          "katecX": 320939.99553,
          "katecY": 524415.15079,
          "latitude": 37.3182562,
          "longitude": 127.1057776,
          "coordinateSource": "katec-converted"
        },
        {
          "id": "A0008224",
          "name": "지지대셀프주유소",
          "brand": "SK에너지",
          "brandCode": "SKE",
          "price": 1827,
          "address": "경기 의왕시 왕곡동 468-8",
          "roadAddress": "경기 의왕시 경수대로 112 (왕곡동)",
          "katecX": 309836.00293,
          "katecY": 526679.99537,
          "latitude": 37.3376488,
          "longitude": 126.9802378,
          "coordinateSource": "katec-converted"
        },
        {
          "id": "A0033442",
          "name": "동탄그린주유소",
          "brand": "GS칼텍스",
          "brandCode": "GSC",
          "price": 1829,
          "address": "경기 화성시 동탄구 방교동 797-1",
          "roadAddress": "경기 화성시 동탄구 동탄산단5길 10-44",
          "katecX": 318886.52585,
          "katecY": 508221.9038,
          "latitude": 37.1721766,
          "longitude": 127.0843788,
          "coordinateSource": "katec-converted"
        },
        {
          "id": "A0008993",
          "name": "이케이에너지㈜ 화성주유소",
          "brand": "HDO",
          "brandCode": "HDO",
          "price": 1829,
          "address": "경기 화성시 만세구 남양읍 남양리 371-11",
          "roadAddress": "경기 화성시 만세구 남양읍 화성로 995",
          "katecX": 293394,
          "katecY": 511951,
          "latitude": 37.2032078,
          "longitude": 126.7968314,
          "coordinateSource": "katec-converted"
        },
        {
          "id": "A0002494",
          "name": "이케이에너지㈜ 광차주유소",
          "brand": "HDO",
          "brandCode": "HDO",
          "price": 1829,
          "address": "경기 화성시 만세구 팔탄면 율암리 98-59",
          "roadAddress": "경기 화성시 만세구 팔탄면 서해로 1266",
          "katecX": 301451,
          "katecY": 508681,
          "latitude": 37.1746334,
          "longitude": 126.8880116,
          "coordinateSource": "katec-converted"
        },
        {
          "id": "A0003314",
          "name": "한국도로공사 안성(부산방향)주유소/충전소",
          "brand": "고속도로알뜰",
          "brandCode": "RTX",
          "price": 1833,
          "address": "경기 안성시 원곡면 반제리 642-5",
          "roadAddress": "경기 안성시 원곡면 경부고속도로 365",
          "katecX": 324159.04569,
          "katecY": 490475.38647,
          "latitude": 37.0127162,
          "longitude": 127.1455424,
          "coordinateSource": "katec-converted"
        },
        {
          "id": "A0009185",
          "name": "무지내주유소",
          "brand": "RTO",
          "brandCode": "RTO",
          "price": 1834,
          "address": "경기 시흥시 무지내동 277-1",
          "roadAddress": "경기 시흥시  금오로 144 (무지내동)",
          "katecX": 297552,
          "katecY": 535584,
          "latitude": 37.4165906,
          "longitude": 126.8403979,
          "coordinateSource": "katec-converted"
        },
        {
          "id": "A0008438",
          "name": "KH에너지㈜직영 시흥주유소",
          "brand": "SK에너지",
          "brandCode": "SKE",
          "price": 1834,
          "address": "경기 시흥시 신천동 712-2",
          "roadAddress": "경기 시흥시 수인로 3380 (신천동)",
          "katecX": 292543.3906,
          "katecY": 538396.0738,
          "latitude": 37.4413559,
          "longitude": 126.7834162,
          "coordinateSource": "katec-converted"
        },
        {
          "id": "A0005266",
          "name": "(주)원흥 원당동지점",
          "brand": "HDO",
          "brandCode": "HDO",
          "price": 1844,
          "address": "경기 고양시 덕양구 원당동 179-1",
          "roadAddress": "경기 고양시 덕양구 호국로 1113",
          "katecX": 299700,
          "katecY": 564256,
          "latitude": 37.6751318,
          "longitude": 126.8607354,
          "coordinateSource": "katec-converted"
        },
        {
          "id": "A0005555",
          "name": "(주)원흥 고양동지점",
          "brand": "HDO",
          "brandCode": "HDO",
          "price": 1844,
          "address": "경기 고양시 덕양구 고양동 590",
          "roadAddress": "경기 고양시 덕양구 호국로 1789",
          "katecX": 303780.00298,
          "katecY": 568143.99533,
          "latitude": 37.710596,
          "longitude": 126.9064652,
          "coordinateSource": "katec-converted"
        },
        {
          "id": "A0006122",
          "name": "㈜원흥.양주지점 제이앤에스",
          "brand": "HDO",
          "brandCode": "HDO",
          "price": 1844,
          "address": "경기 양주시 산북동 198-3",
          "roadAddress": "경기 양주시 평화로 1107 (산북동)",
          "katecX": 316375.4981,
          "katecY": 576840.0958,
          "latitude": 37.7901792,
          "longitude": 127.0482971,
          "coordinateSource": "katec-converted"
        },
        {
          "id": "A0005571",
          "name": "(주)원흥 풍동지점",
          "brand": "HDO",
          "brandCode": "HDO",
          "price": 1844,
          "address": "경기 고양시 일산동구 풍동619-2",
          "roadAddress": "경기 고양시 일산동구 무궁화로 299 (풍동)",
          "katecX": 293736.87552,
          "katecY": 564350.87533,
          "latitude": 37.6753142,
          "longitude": 126.7931353,
          "coordinateSource": "katec-converted"
        },
        {
          "id": "A0005436",
          "name": "덕양제7주유소",
          "brand": "RTO",
          "brandCode": "RTO",
          "price": 1844,
          "address": "경기 고양시 일산동구 풍동 655-1",
          "roadAddress": "경기 고양시 일산동구 무궁화로 250 (풍동)",
          "katecX": 293291.3,
          "katecY": 564140.4,
          "latitude": 37.6733664,
          "longitude": 126.788116,
          "coordinateSource": "katec-converted"
        },
        {
          "id": "A0005149",
          "name": "신덕이로주유소",
          "brand": "SK에너지",
          "brandCode": "SKE",
          "price": 1844,
          "address": "경기 고양시 일산서구 덕이동 475",
          "roadAddress": "경기 고양시 일산서구 덕이로 36 (덕이동)",
          "katecX": 290432.6707,
          "katecY": 565986.3874,
          "latitude": 37.6896584,
          "longitude": 126.7554397,
          "coordinateSource": "katec-converted"
        },
        {
          "id": "A0004617",
          "name": "회천주유소",
          "brand": "S-OIL",
          "brandCode": "SOL",
          "price": 1844,
          "address": "경기 양주시 덕계동 505-1",
          "roadAddress": "경기 양주시 평화로 1505 (덕계동)",
          "katecX": 316612.1145,
          "katecY": 580632.7664,
          "latitude": 37.8243695,
          "longitude": 127.0505459,
          "coordinateSource": "katec-converted"
        },
        {
          "id": "A0005566",
          "name": "㈜아동파크 고봉산주유소",
          "brand": "SK에너지",
          "brandCode": "SKE",
          "price": 1844,
          "address": "경기 고양시 일산동구 성석동 1305-9",
          "roadAddress": "경기 고양시 일산동구 고봉로 464",
          "katecX": 292760.00297,
          "katecY": 567052.99531,
          "latitude": 37.6995425,
          "longitude": 126.7816653,
          "coordinateSource": "katec-converted"
        },
        {
          "id": "A0005272",
          "name": "안곡주유소",
          "brand": "HDO",
          "brandCode": "HDO",
          "price": 1844,
          "address": "경기 고양시 일산동구 중산동 산83-5",
          "roadAddress": "경기 고양시 일산동구 고양대로 831",
          "katecX": 293286.7961,
          "katecY": 565014.8523,
          "latitude": 37.6812434,
          "longitude": 126.7879368,
          "coordinateSource": "katec-converted"
        },
        {
          "id": "A0005463",
          "name": "(주)원흥 원흥동지점",
          "brand": "HDO",
          "brandCode": "HDO",
          "price": 1844,
          "address": "경기 고양시 덕양구 원흥동 367",
          "roadAddress": "경기 고양시 덕양구 서오릉로 712 (원흥동)",
          "katecX": 300064.6586,
          "katecY": 560361.0942,
          "latitude": 37.6400831,
          "longitude": 126.8654026,
          "coordinateSource": "katec-converted"
        },
        {
          "id": "A0005302",
          "name": "호수공원주유소",
          "brand": "SK에너지",
          "brandCode": "SKE",
          "price": 1844,
          "address": "경기 고양시 일산동구 장항동 525",
          "roadAddress": "경기 고양시 일산동구 백마로 108 (장항동)",
          "katecX": 291240,
          "katecY": 561336,
          "latitude": 37.6478618,
          "longitude": 126.7652859,
          "coordinateSource": "katec-converted"
        },
        {
          "id": "A0000644",
          "name": "덕양제1주유소",
          "brand": "SK에너지",
          "brandCode": "SKE",
          "price": 1844,
          "address": "경기 고양시 덕양구 성사동 277",
          "roadAddress": "경기 고양시 덕양구 서오릉로 832 (성사동)",
          "katecX": 299159.21643,
          "katecY": 561079.96081,
          "latitude": 37.6464602,
          "longitude": 126.8550456,
          "coordinateSource": "katec-converted"
        }
      ]
    },
    {
      "regionCode": "02",
      "regionName": "경기",
      "fuelCode": "D047",
      "fuelName": "경유",
      "stations": [
        {
          "id": "A0004907",
          "name": "SK에너지(주) 엔크린셀프주유소",
          "brand": "SK에너지",
          "brandCode": "SKE",
          "price": 1789,
          "address": "경기 의정부시 의정부동 609-2",
          "roadAddress": "경기 의정부시 경의로 20 (의정부동)",
          "katecX": 315363.0717,
          "katecY": 570450.33,
          "latitude": 37.7325194,
          "longitude": 127.0375498,
          "coordinateSource": "katec-converted"
        },
        {
          "id": "A0008750",
          "name": "SK에너지(주) 대흥셀프주유소",
          "brand": "SK에너지",
          "brandCode": "SKE",
          "price": 1795,
          "address": "경기 용인시 기흥구 보정동 474-2",
          "roadAddress": "경기 용인시 기흥구 신수로 570 (보정동)",
          "katecX": 320685,
          "katecY": 524679,
          "latitude": 37.3206117,
          "longitude": 127.1028727,
          "coordinateSource": "katec-converted"
        },
        {
          "id": "A0008916",
          "name": "SK에너지㈜직영 기쁨셀프주유소",
          "brand": "SK에너지",
          "brandCode": "SKE",
          "price": 1795,
          "address": "경기 용인시 기흥구 보정동 547-4",
          "roadAddress": "경기 용인시 기흥구 용구대로2469번길 130 (보정동)",
          "katecX": 320939.99553,
          "katecY": 524415.15079,
          "latitude": 37.3182562,
          "longitude": 127.1057776,
          "coordinateSource": "katec-converted"
        },
        {
          "id": "A0002576",
          "name": "SK에너지(주)운암뜰주유소",
          "brand": "SK에너지",
          "brandCode": "SKE",
          "price": 1797,
          "address": "경기 오산시 오산동 835-2",
          "roadAddress": "경기 오산시 경기대로 317 (오산동)",
          "katecX": 317891,
          "katecY": 506075,
          "latitude": 37.1527455,
          "longitude": 127.0734059,
          "coordinateSource": "katec-converted"
        },
        {
          "id": "A0003404",
          "name": "SK에너지(주) 삼성주유소",
          "brand": "SK에너지",
          "brandCode": "SKE",
          "price": 1797,
          "address": "경기 평택시 청북면 토진리 214-16",
          "roadAddress": "경기 평택시 청북면 청원로 158",
          "katecX": 306902.8924,
          "katecY": 493591.8081,
          "latitude": 37.0392411,
          "longitude": 126.9512723,
          "coordinateSource": "katec-converted"
        },
        {
          "id": "A0005511",
          "name": "SK에너지(주) 백마주유소",
          "brand": "SK에너지",
          "brandCode": "SKE",
          "price": 1799,
          "address": "경기 고양시 일산동구 백석동 1236",
          "roadAddress": "경기 고양시 일산동구 중앙로 990 (백석동)",
          "katecX": 293632,
          "katecY": 560422,
          "latitude": 37.6399084,
          "longitude": 126.79252,
          "coordinateSource": "katec-converted"
        },
        {
          "id": "A0007076",
          "name": "SK에너지(주)도시공간주유소",
          "brand": "SK에너지",
          "brandCode": "SKE",
          "price": 1799,
          "address": "경기 시흥시 정왕동 1885-9",
          "roadAddress": "경기 시흥시  정왕신길로49번길 53 (정왕동)",
          "katecX": 287659.4612,
          "katecY": 529676.8637,
          "latitude": 37.3622257,
          "longitude": 126.7295626,
          "coordinateSource": "katec-converted"
        },
        {
          "id": "A0007075",
          "name": "SK에너지(주)파워디젤주유소",
          "brand": "SK에너지",
          "brandCode": "SKE",
          "price": 1799,
          "address": "경기 시흥시 정왕동 1852-6",
          "roadAddress": "경기 시흥시 옥구공원로 75 (정왕동)",
          "katecX": 287004.8323,
          "katecY": 528400.0629,
          "latitude": 37.3506436,
          "longitude": 126.7223692,
          "coordinateSource": "katec-converted"
        },
        {
          "id": "A0033553",
          "name": "SK에너지㈜ 고산셀프주유소",
          "brand": "SK에너지",
          "brandCode": "SKE",
          "price": 1804,
          "address": "경기 의정부시 민락동 922-1",
          "roadAddress": "경기 의정부시 문충로 332",
          "katecX": 322501.77293,
          "katecY": 572085.87155,
          "latitude": 37.747888,
          "longitude": 127.1183549,
          "coordinateSource": "katec-converted"
        },
        {
          "id": "A0008224",
          "name": "지지대셀프주유소",
          "brand": "SK에너지",
          "brandCode": "SKE",
          "price": 1807,
          "address": "경기 의왕시 왕곡동 468-8",
          "roadAddress": "경기 의왕시 경수대로 112 (왕곡동)",
          "katecX": 309836.00293,
          "katecY": 526679.99537,
          "latitude": 37.3376488,
          "longitude": 126.9802378,
          "coordinateSource": "katec-converted"
        },
        {
          "id": "A0033662",
          "name": "동탄세마주유소",
          "brand": "SK에너지",
          "brandCode": "SKE",
          "price": 1808,
          "address": "경기 오산시 외삼미동 126-10",
          "roadAddress": "경기 오산시 외삼미로 162-12, 외 1필지",
          "katecX": 317031.80918,
          "katecY": 511208.20638,
          "latitude": 37.1989203,
          "longitude": 127.0631635,
          "coordinateSource": "katec-converted"
        },
        {
          "id": "A0008418",
          "name": "SK에너지(주) 시화산업주유소",
          "brand": "SK에너지",
          "brandCode": "SKE",
          "price": 1809,
          "address": "경기 시흥시 정왕동 1365-4",
          "roadAddress": "경기 시흥시 공단1대로 195",
          "katecX": 287164,
          "katecY": 527096,
          "latitude": 37.3389149,
          "longitude": 126.7243641,
          "coordinateSource": "katec-converted"
        },
        {
          "id": "A0033189",
          "name": "SK에너지(주) 서동탄셀프주유소",
          "brand": "SK에너지",
          "brandCode": "SKE",
          "price": 1809,
          "address": "경기 오산시 외삼미동 317",
          "roadAddress": "경기 오산시 문시로 127 (외삼미동)",
          "katecX": 316767.99772,
          "katecY": 510187.69028,
          "latitude": 37.1897018,
          "longitude": 127.0603061,
          "coordinateSource": "katec-converted"
        },
        {
          "id": "A0004201",
          "name": "SK에너지(주) 뉴마장주유소",
          "brand": "SK에너지",
          "brandCode": "SKE",
          "price": 1809,
          "address": "경기 이천시 마장면 표교리 489-2",
          "roadAddress": "경기 이천시 서이천로 393",
          "katecX": 346459,
          "katecY": 517669,
          "latitude": 37.2592944,
          "longitude": 127.3941658,
          "coordinateSource": "katec-converted"
        },
        {
          "id": "A0002617",
          "name": "SK에너지(주)솔빛나루주유소",
          "brand": "SK에너지",
          "brandCode": "SKE",
          "price": 1809,
          "address": "경기 화성시 동탄구 반송동 241",
          "roadAddress": "경기 화성시 동탄구 10용사로 650 (반송동)",
          "katecX": 318572,
          "katecY": 509710,
          "latitude": 37.1855572,
          "longitude": 127.080675,
          "coordinateSource": "katec-converted"
        },
        {
          "id": "A0008993",
          "name": "이케이에너지㈜ 화성주유소",
          "brand": "HDO",
          "brandCode": "HDO",
          "price": 1809,
          "address": "경기 화성시 만세구 남양읍 남양리 371-11",
          "roadAddress": "경기 화성시 만세구 남양읍 화성로 995",
          "katecX": 293394,
          "katecY": 511951,
          "latitude": 37.2032078,
          "longitude": 126.7968314,
          "coordinateSource": "katec-converted"
        },
        {
          "id": "A0002494",
          "name": "이케이에너지㈜ 광차주유소",
          "brand": "HDO",
          "brandCode": "HDO",
          "price": 1809,
          "address": "경기 화성시 만세구 팔탄면 율암리 98-59",
          "roadAddress": "경기 화성시 만세구 팔탄면 서해로 1266",
          "katecX": 301451,
          "katecY": 508681,
          "latitude": 37.1746334,
          "longitude": 126.8880116,
          "coordinateSource": "katec-converted"
        },
        {
          "id": "A0007082",
          "name": "SK에너지(주) 시흥2공단주유소",
          "brand": "SK에너지",
          "brandCode": "SKE",
          "price": 1809,
          "address": "경기 시흥시 정왕동 1359-9",
          "roadAddress": "경기 시흥시 경제로 117",
          "katecX": 285891.8485,
          "katecY": 526741.0839,
          "latitude": 37.3355619,
          "longitude": 126.7100652,
          "coordinateSource": "katec-converted"
        },
        {
          "id": "A0033197",
          "name": "SK에너지(주)북오산Self주유소",
          "brand": "SK에너지",
          "brandCode": "SKE",
          "price": 1809,
          "address": "경기 오산시 외삼미동 327-45",
          "roadAddress": "경기 오산시 문시로 120",
          "katecX": 316750.88941,
          "katecY": 510120.24946,
          "latitude": 37.1890926,
          "longitude": 127.0601209,
          "coordinateSource": "katec-converted"
        },
        {
          "id": "A0007080",
          "name": "SK에너지(주)시화공단주유소",
          "brand": "SK에너지",
          "brandCode": "SKE",
          "price": 1809,
          "address": "경기 안산시 단원구 성곡동 710-11",
          "roadAddress": "경기 안산시 단원구 번영로 109 (성곡동)",
          "katecX": 288164.4919,
          "katecY": 524928.4385,
          "latitude": 37.3195088,
          "longitude": 126.7359798,
          "coordinateSource": "katec-converted"
        }
      ]
    },
    {
      "regionCode": "02",
      "regionName": "경기",
      "fuelCode": "K015",
      "fuelName": "LPG",
      "stations": [
        {
          "id": "A0007594",
          "name": "SK행복충전 조암충전소",
          "brand": "SK가스",
          "brandCode": "SKG",
          "price": 990,
          "address": "경기 화성시 만세구 우정읍 호곡리 89-1",
          "roadAddress": "경기 화성시 만세구 우정읍 호곡길 84",
          "katecX": 292305,
          "katecY": 502668,
          "latitude": 37.119449,
          "longitude": 126.7859044,
          "coordinateSource": "katec-converted"
        },
        {
          "id": "A0003403",
          "name": "성원이앤에스(주)안성지점",
          "brand": "GS칼텍스",
          "brandCode": "GSC",
          "price": 994,
          "address": "경기 안성시 대덕면 모산리 359-13",
          "roadAddress": "경기 안성시 대덕면 안성대로 1284",
          "katecX": 332379.39956,
          "katecY": 492485.30988,
          "latitude": 37.0314562,
          "longitude": 127.2377274,
          "coordinateSource": "katec-converted"
        },
        {
          "id": "A0003238",
          "name": "(유)유성홀딩스 공도충전소",
          "brand": "SK가스",
          "brandCode": "SKG",
          "price": 995,
          "address": "경기 안성시 공도읍 만정리 290-7",
          "roadAddress": "경기 안성시 공도읍 서동대로 4287-12",
          "katecX": 327160.00289,
          "katecY": 489628.99543,
          "latitude": 37.0053277,
          "longitude": 127.1793436,
          "coordinateSource": "katec-converted"
        },
        {
          "id": "A0003035",
          "name": "평화lpg충전소",
          "brand": "SK에너지",
          "brandCode": "SKE",
          "price": 995,
          "address": "경기 안성시 공도읍 승두리 593-6",
          "roadAddress": "경기 안성시 공도읍 서동대로 4068",
          "katecX": 325389.85097,
          "katecY": 488787.01039,
          "latitude": 36.9976017,
          "longitude": 127.1595394,
          "coordinateSource": "katec-converted"
        },
        {
          "id": "A0033217",
          "name": "비봉충전소 ㈜대원에너지",
          "brand": "HDO",
          "brandCode": "HDO",
          "price": 996,
          "address": "경기 안성시 죽산면 장능리 580",
          "roadAddress": "경기 안성시 죽산면 서동대로 6617",
          "katecX": 346078.32881,
          "katecY": 496938.35038,
          "latitude": 37.0724718,
          "longitude": 127.3913741,
          "coordinateSource": "katec-converted"
        },
        {
          "id": "A0010546",
          "name": "녹박재충전소",
          "brand": "자가상표",
          "brandCode": "ETC",
          "price": 996,
          "address": "경기 안성시 죽산면 장릉리 660-4",
          "roadAddress": "경기 안성시 죽산면 서동대로 6516",
          "katecX": 345135.5,
          "katecY": 496570.1,
          "latitude": 37.0690986,
          "longitude": 127.3807985,
          "coordinateSource": "katec-converted"
        },
        {
          "id": "A0005301",
          "name": "일산충전소",
          "brand": "SK에너지",
          "brandCode": "SKE",
          "price": 1004,
          "address": "경기 고양시 일산동구 식사동 832-20",
          "roadAddress": "경기 고양시 일산동구 무궁화로 362(식사동)",
          "katecX": 294298,
          "katecY": 564556,
          "latitude": 37.677227,
          "longitude": 126.7994653,
          "coordinateSource": "katec-converted"
        },
        {
          "id": "A0005446",
          "name": "신우에너지(주)",
          "brand": "SK가스",
          "brandCode": "SKG",
          "price": 1004,
          "address": "경기 고양시 일산동구 성석동 1305-5",
          "roadAddress": "경기 고양시 일산동구 고봉로 470",
          "katecX": 292745.65477,
          "katecY": 567163.06735,
          "latitude": 37.7005324,
          "longitude": 126.7814864,
          "coordinateSource": "katec-converted"
        },
        {
          "id": "A0003147",
          "name": "안성에너지",
          "brand": "E1",
          "brandCode": "E1G",
          "price": 1008,
          "address": "경기 안성시 대덕면 모산리 396-3",
          "roadAddress": "경기 안성시 대덕면 만세로 77-1",
          "katecX": 332313,
          "katecY": 491866,
          "latitude": 37.025871,
          "longitude": 127.237037,
          "coordinateSource": "katec-converted"
        },
        {
          "id": "A0008954",
          "name": "희망충전소",
          "brand": "HDO",
          "brandCode": "HDO",
          "price": 1009,
          "address": "경기 화성시 효행구 비봉면 삼화리 4-1",
          "roadAddress": "경기 화성시 효행구 비봉면 비봉로 487",
          "katecX": 298204.0029,
          "katecY": 518021.99536,
          "latitude": 37.2584419,
          "longitude": 126.8501769,
          "coordinateSource": "katec-converted"
        },
        {
          "id": "A0007669",
          "name": "안성맞춤LPG충전소",
          "brand": "SK에너지",
          "brandCode": "SKE",
          "price": 1010,
          "address": "경기 안성시 당왕동 269-3",
          "roadAddress": "경기 안성시 당왕동안성맞춤대로 1253",
          "katecX": 334798.33866,
          "katecY": 491646.81144,
          "latitude": 37.0240722,
          "longitude": 127.264987,
          "coordinateSource": "katec-converted"
        },
        {
          "id": "A0006835",
          "name": "(주)옥산에너지 안성제일충전소",
          "brand": "S-OIL",
          "brandCode": "SOL",
          "price": 1011,
          "address": "경기 안성시 대덕면 소현리 297-1",
          "roadAddress": "경기 안성시 대덕면 서동대로 5059",
          "katecX": 334300,
          "katecY": 491588,
          "latitude": 37.0235074,
          "longitude": 127.2593918,
          "coordinateSource": "katec-converted"
        },
        {
          "id": "A0002387",
          "name": "다인산업(주) 화성충전소",
          "brand": "SK에너지",
          "brandCode": "SKE",
          "price": 1013,
          "address": "경기 화성시 효행구 비봉면 삼화리 773-1",
          "roadAddress": "경기 화성시 효행구 비봉면 비봉로 366",
          "katecX": 298067,
          "katecY": 516845,
          "latitude": 37.2478229,
          "longitude": 126.8487941,
          "coordinateSource": "katec-converted"
        },
        {
          "id": "A0002693",
          "name": "한일크린에너지(주)",
          "brand": "HDO",
          "brandCode": "HDO",
          "price": 1019,
          "address": "경기 안성시 계동5,6",
          "roadAddress": "경기 안성시 안성맞춤대로 872",
          "katecX": 335215,
          "katecY": 488099,
          "latitude": 36.9921323,
          "longitude": 127.2699753,
          "coordinateSource": "katec-converted"
        },
        {
          "id": "A0002759",
          "name": "이화LPG충전소",
          "brand": "HDO",
          "brandCode": "HDO",
          "price": 1019,
          "address": "경기 안성시 보개면 상삼리 211",
          "roadAddress": "경기 안성시 보개면 서동대로 5894",
          "katecX": 341476.3,
          "katecY": 492034.8,
          "latitude": 37.0280094,
          "longitude": 127.340005,
          "coordinateSource": "katec-converted"
        },
        {
          "id": "A0005464",
          "name": "SK행복충전 원일에너지충전소",
          "brand": "SK가스",
          "brandCode": "SKG",
          "price": 1020,
          "address": "경기 고양시 일산동구 문봉동 195-4",
          "roadAddress": "경기 고양시 일산동구 문원길 37",
          "katecX": 296092,
          "katecY": 568175,
          "latitude": 37.7100345,
          "longitude": 126.8192822,
          "coordinateSource": "katec-converted"
        },
        {
          "id": "A0005523",
          "name": "㈜엘아이지휴세코 희망주유소/충전소",
          "brand": "HDO",
          "brandCode": "HDO",
          "price": 1024,
          "address": "경기 고양시 일산서구 덕이동 304-4",
          "roadAddress": "경기 고양시 일산서구 경의로 910",
          "katecX": 290794.7,
          "katecY": 566958.3,
          "latitude": 37.6984571,
          "longitude": 126.7593978,
          "coordinateSource": "katec-converted"
        },
        {
          "id": "A0005483",
          "name": "SK행복충전 신우에너지 신일산충전소",
          "brand": "SK가스",
          "brandCode": "SKG",
          "price": 1024,
          "address": "경기 고양시 일산서구 대화동 59",
          "roadAddress": "경기 고양시 일산서구 경의로 789 (대화동)",
          "katecX": 290610,
          "katecY": 565808,
          "latitude": 37.6880726,
          "longitude": 126.7574768,
          "coordinateSource": "katec-converted"
        },
        {
          "id": "A0033170",
          "name": "야목충전소",
          "brand": "HDO",
          "brandCode": "HDO",
          "price": 1024,
          "address": "경기 화성시 효행구 매송면 야목리 801",
          "roadAddress": "경기 화성시 효행구 매송면 매송로 279",
          "katecX": 301382.68901,
          "katecY": 518176.82344,
          "latitude": 37.2601794,
          "longitude": 126.8859851,
          "coordinateSource": "katec-converted"
        },
        {
          "id": "A0008184",
          "name": "SK행복충전 케이씨에너지충전소",
          "brand": "SK가스",
          "brandCode": "SKG",
          "price": 1028,
          "address": "경기 과천시 갈현동 302-1",
          "roadAddress": "경기 과천시 과천대로 20",
          "katecX": 309789.4,
          "katecY": 534051.9,
          "latitude": 37.4040622,
          "longitude": 126.978812,
          "coordinateSource": "katec-converted"
        }
      ]
    },
    {
      "regionCode": "03",
      "regionName": "강원",
      "fuelCode": "B027",
      "fuelName": "휘발유",
      "stations": [
        {
          "id": "A0010364",
          "name": "IOZEN(이오젠)",
          "brand": "SK에너지",
          "brandCode": "SKE",
          "price": 1819,
          "address": "강원 춘천시 동내면 고은리 537-1",
          "roadAddress": "강원 춘천시 동내면 순환대로 758",
          "katecX": 380086.1,
          "katecY": 582846.8,
          "latitude": 37.8479236,
          "longitude": 127.7714795,
          "coordinateSource": "katec-converted"
        },
        {
          "id": "A0004471",
          "name": "형제주유소",
          "brand": "HDO",
          "brandCode": "HDO",
          "price": 1828,
          "address": "강원 철원군 동송읍 이평리 240-1",
          "roadAddress": "강원 철원군 동송읍 금학로 14",
          "katecX": 332596.6808,
          "katecY": 621309.6827,
          "latitude": 38.1921611,
          "longitude": 127.2282677,
          "coordinateSource": "katec-converted"
        },
        {
          "id": "A0011577",
          "name": "KH에너지㈜직영 교동주유소",
          "brand": "SK에너지",
          "brandCode": "SKE",
          "price": 1830,
          "address": "강원 강릉시 교동 1893",
          "roadAddress": "강원 강릉시 하슬라로 159 (교동)",
          "katecX": 477267.9199,
          "katecY": 574009.603,
          "latitude": 37.7652725,
          "longitude": 128.8747592,
          "coordinateSource": "katec-converted"
        },
        {
          "id": "A0011188",
          "name": "씨앤에스에너지(주) 횡성(하)주유소/충전소",
          "brand": "고속도로알뜰",
          "brandCode": "RTX",
          "price": 1848,
          "address": "강원 횡성군 안흥면 소사리 1537-1",
          "roadAddress": "강원 횡성군 안흥면 영동고속도로 154-1",
          "katecX": 412225,
          "katecY": 540145,
          "latitude": 37.4632984,
          "longitude": 128.1359662,
          "coordinateSource": "katec-converted"
        },
        {
          "id": "A0011657",
          "name": "SK에너지(주) 척산주유소",
          "brand": "SK에너지",
          "brandCode": "SKE",
          "price": 1858,
          "address": "강원 속초시 노학동 298-2",
          "roadAddress": "강원 속초시 온천로 161 (노학동)",
          "katecX": 449192.83,
          "katecY": 621089.4805,
          "latitude": 38.1913811,
          "longitude": 128.559332,
          "coordinateSource": "katec-converted"
        },
        {
          "id": "A0011571",
          "name": "SK에너지(주)강릉주유소",
          "brand": "SK에너지",
          "brandCode": "SKE",
          "price": 1859,
          "address": "강원 강릉시 포남동 1288",
          "roadAddress": "강원 강릉시 강릉대로 432 (포남동)",
          "katecX": 480495.9181,
          "katecY": 574774.2207,
          "latitude": 37.7718835,
          "longitude": 128.9114777,
          "coordinateSource": "katec-converted"
        },
        {
          "id": "A0011760",
          "name": "SK에너지(주) 커피향셀프주유소",
          "brand": "SK에너지",
          "brandCode": "SKE",
          "price": 1860,
          "address": "강원 양양군 강현면 정암리 156-3",
          "roadAddress": "강원 양양군 강현면 동해대로 3343",
          "katecX": 454267.2172,
          "katecY": 615060.9145,
          "latitude": 38.1367777,
          "longitude": 128.6168003,
          "coordinateSource": "katec-converted"
        },
        {
          "id": "A0011572",
          "name": "SK에너지㈜ 월드컵주유소",
          "brand": "SK에너지",
          "brandCode": "SKE",
          "price": 1865,
          "address": "강원 강릉시 포남동 1141-3",
          "roadAddress": "강원 강릉시 경강로 2224",
          "katecX": 480089.82358,
          "katecY": 573752.9145,
          "latitude": 37.7627178,
          "longitude": 128.9067563,
          "coordinateSource": "katec-converted"
        },
        {
          "id": "A0011570",
          "name": "SK에너지㈜ 주문진주유소",
          "brand": "SK에너지",
          "brandCode": "SKE",
          "price": 1865,
          "address": "강원 강릉시 주문진읍 교항리 368-8",
          "roadAddress": "강원 강릉시 주문진읍 신리천로 95",
          "katecX": 472408.8157,
          "katecY": 586910.2467,
          "latitude": 37.8818961,
          "longitude": 128.8208997,
          "coordinateSource": "katec-converted"
        },
        {
          "id": "A0011047",
          "name": "SK에너지(주) 혁신주유소",
          "brand": "SK에너지",
          "brandCode": "SKE",
          "price": 1865,
          "address": "강원 원주시 봉산동 862",
          "roadAddress": "강원 원주시 행구로 121",
          "katecX": 397511.9573,
          "katecY": 526697.2505,
          "latitude": 37.3421953,
          "longitude": 127.9696928,
          "coordinateSource": "katec-converted"
        },
        {
          "id": "A0011415",
          "name": "대동강주유소",
          "brand": "SK에너지",
          "brandCode": "SKE",
          "price": 1865,
          "address": "강원 강릉시 내곡동 165",
          "roadAddress": "강원 강릉시 남부로 67 (내곡동)",
          "katecX": 478431.8009,
          "katecY": 571292.2845,
          "latitude": 37.7406924,
          "longitude": 128.8876754,
          "coordinateSource": "katec-converted"
        },
        {
          "id": "A0010821",
          "name": "진다리주유소",
          "brand": "SK에너지",
          "brandCode": "SKE",
          "price": 1880,
          "address": "강원 인제군 기린면 현리 609-1",
          "roadAddress": "강원 인제군 기린면 내린천로 4172",
          "katecX": 428552.7755,
          "katecY": 596193.5012,
          "latitude": 37.9679593,
          "longitude": 128.3227231,
          "coordinateSource": "katec-converted"
        },
        {
          "id": "A0009978",
          "name": "거두주유소",
          "brand": "GS칼텍스",
          "brandCode": "GSC",
          "price": 1889,
          "address": "강원 춘천시 동내면 거두리 910",
          "roadAddress": "강원도 춘천시 동내면 춘천순환로 59",
          "katecX": 378218.14178,
          "katecY": 583718.13754,
          "latitude": 37.8557315,
          "longitude": 127.7502279,
          "coordinateSource": "katec-converted"
        },
        {
          "id": "A0010431",
          "name": "㈜붕붕붕주유소",
          "brand": "GS칼텍스",
          "brandCode": "GSC",
          "price": 1889,
          "address": "강원 춘천시 석사동 430-1",
          "roadAddress": "강원 춘천시 공지로 156-3",
          "katecX": 377764.15575,
          "katecY": 584168.95196,
          "latitude": 37.8597823,
          "longitude": 127.7450548,
          "coordinateSource": "katec-converted"
        },
        {
          "id": "A0010365",
          "name": "SK행복한Self주유소",
          "brand": "SK에너지",
          "brandCode": "SKE",
          "price": 1889,
          "address": "강원 춘천시 후평동 717-18",
          "roadAddress": "강원 춘천시 후석로 453 (후평동)",
          "katecX": 377478,
          "katecY": 587444,
          "latitude": 37.889284,
          "longitude": 127.7416998,
          "coordinateSource": "katec-converted"
        },
        {
          "id": "A0010337",
          "name": "광장셀프주유소",
          "brand": "SK에너지",
          "brandCode": "SKE",
          "price": 1889,
          "address": "강원 춘천시 효자동 653-1",
          "roadAddress": "강원 춘천시 효자로 150",
          "katecX": 376945.95091,
          "katecY": 585960.1595,
          "latitude": 37.8759009,
          "longitude": 127.7356986,
          "coordinateSource": "katec-converted"
        },
        {
          "id": "A0010293",
          "name": "영서에너지㈜ 에이스주유소",
          "brand": "GS칼텍스",
          "brandCode": "GSC",
          "price": 1890,
          "address": "강원 춘천시 효자동 666-2",
          "roadAddress": "강원 춘천시 효자로 94 (효자동)",
          "katecX": 376685.5657,
          "katecY": 585443.334,
          "latitude": 37.8712376,
          "longitude": 127.7327557,
          "coordinateSource": "katec-converted"
        },
        {
          "id": "A0011455",
          "name": "대영주유소",
          "brand": "S-OIL",
          "brandCode": "SOL",
          "price": 1890,
          "address": "강원 강릉시 포남동 1234-2",
          "roadAddress": "강원 강릉시 가작로 308 (포남동)",
          "katecX": 480313,
          "katecY": 574644,
          "latitude": 37.7707264,
          "longitude": 128.9093873,
          "coordinateSource": "katec-converted"
        },
        {
          "id": "A0010392",
          "name": "춘천주유소",
          "brand": "SK에너지",
          "brandCode": "SKE",
          "price": 1890,
          "address": "강원 춘천시 효자동 287-1",
          "roadAddress": "강원 춘천시  공지로 234-1 (효자동)",
          "katecX": 377115.7567,
          "katecY": 584606.7506,
          "latitude": 37.8637108,
          "longitude": 127.7376721,
          "coordinateSource": "katec-converted"
        },
        {
          "id": "A0011179",
          "name": "SK원주주유소",
          "brand": "SK에너지",
          "brandCode": "SKE",
          "price": 1894,
          "address": "강원 원주시 태장동 1353-1",
          "roadAddress": "강원 원주시 북원로 2732 (태장동)",
          "katecX": 395639.3091,
          "katecY": 531706.6963,
          "latitude": 37.3873283,
          "longitude": 127.9485269,
          "coordinateSource": "katec-converted"
        }
      ]
    },
    {
      "regionCode": "03",
      "regionName": "강원",
      "fuelCode": "D047",
      "fuelName": "경유",
      "stations": [
        {
          "id": "A0011570",
          "name": "SK에너지㈜ 주문진주유소",
          "brand": "SK에너지",
          "brandCode": "SKE",
          "price": 1799,
          "address": "강원 강릉시 주문진읍 교항리 368-8",
          "roadAddress": "강원 강릉시 주문진읍 신리천로 95",
          "katecX": 472408.8157,
          "katecY": 586910.2467,
          "latitude": 37.8818961,
          "longitude": 128.8208997,
          "coordinateSource": "katec-converted"
        },
        {
          "id": "A0011572",
          "name": "SK에너지㈜ 월드컵주유소",
          "brand": "SK에너지",
          "brandCode": "SKE",
          "price": 1799,
          "address": "강원 강릉시 포남동 1141-3",
          "roadAddress": "강원 강릉시 경강로 2224",
          "katecX": 480089.82358,
          "katecY": 573752.9145,
          "latitude": 37.7627178,
          "longitude": 128.9067563,
          "coordinateSource": "katec-converted"
        },
        {
          "id": "A0011760",
          "name": "SK에너지(주) 커피향셀프주유소",
          "brand": "SK에너지",
          "brandCode": "SKE",
          "price": 1800,
          "address": "강원 양양군 강현면 정암리 156-3",
          "roadAddress": "강원 양양군 강현면 동해대로 3343",
          "katecX": 454267.2172,
          "katecY": 615060.9145,
          "latitude": 38.1367777,
          "longitude": 128.6168003,
          "coordinateSource": "katec-converted"
        },
        {
          "id": "A0011571",
          "name": "SK에너지(주)강릉주유소",
          "brand": "SK에너지",
          "brandCode": "SKE",
          "price": 1805,
          "address": "강원 강릉시 포남동 1288",
          "roadAddress": "강원 강릉시 강릉대로 432 (포남동)",
          "katecX": 480495.9181,
          "katecY": 574774.2207,
          "latitude": 37.7718835,
          "longitude": 128.9114777,
          "coordinateSource": "katec-converted"
        },
        {
          "id": "A0011657",
          "name": "SK에너지(주) 척산주유소",
          "brand": "SK에너지",
          "brandCode": "SKE",
          "price": 1809,
          "address": "강원 속초시 노학동 298-2",
          "roadAddress": "강원 속초시 온천로 161 (노학동)",
          "katecX": 449192.83,
          "katecY": 621089.4805,
          "latitude": 38.1913811,
          "longitude": 128.559332,
          "coordinateSource": "katec-converted"
        },
        {
          "id": "A0011047",
          "name": "SK에너지(주) 혁신주유소",
          "brand": "SK에너지",
          "brandCode": "SKE",
          "price": 1814,
          "address": "강원 원주시 봉산동 862",
          "roadAddress": "강원 원주시 행구로 121",
          "katecX": 397511.9573,
          "katecY": 526697.2505,
          "latitude": 37.3421953,
          "longitude": 127.9696928,
          "coordinateSource": "katec-converted"
        },
        {
          "id": "A0033584",
          "name": "(주)강릉햇살 유천주유소",
          "brand": "HDO",
          "brandCode": "HDO",
          "price": 1820,
          "address": "강원도 강릉시 유천동 776-5",
          "roadAddress": "강원도 강릉시 사임당로 178(유천동)",
          "katecX": 476514.3959,
          "katecY": 573502.17965,
          "latitude": 37.7607641,
          "longitude": 128.8661543,
          "coordinateSource": "katec-converted"
        },
        {
          "id": "A0011577",
          "name": "KH에너지㈜직영 교동주유소",
          "brand": "SK에너지",
          "brandCode": "SKE",
          "price": 1820,
          "address": "강원 강릉시 교동 1893",
          "roadAddress": "강원 강릉시 하슬라로 159 (교동)",
          "katecX": 477267.9199,
          "katecY": 574009.603,
          "latitude": 37.7652725,
          "longitude": 128.8747592,
          "coordinateSource": "katec-converted"
        },
        {
          "id": "A0010364",
          "name": "IOZEN(이오젠)",
          "brand": "SK에너지",
          "brandCode": "SKE",
          "price": 1843,
          "address": "강원 춘천시 동내면 고은리 537-1",
          "roadAddress": "강원 춘천시 동내면 순환대로 758",
          "katecX": 380086.1,
          "katecY": 582846.8,
          "latitude": 37.8479236,
          "longitude": 127.7714795,
          "coordinateSource": "katec-converted"
        },
        {
          "id": "A0011415",
          "name": "대동강주유소",
          "brand": "SK에너지",
          "brandCode": "SKE",
          "price": 1849,
          "address": "강원 강릉시 내곡동 165",
          "roadAddress": "강원 강릉시 남부로 67 (내곡동)",
          "katecX": 478431.8009,
          "katecY": 571292.2845,
          "latitude": 37.7406924,
          "longitude": 128.8876754,
          "coordinateSource": "katec-converted"
        },
        {
          "id": "A0010430",
          "name": "㈜장학에너지",
          "brand": "GS칼텍스",
          "brandCode": "GSC",
          "price": 1869,
          "address": "강원 춘천시 동면 장학리 791-168",
          "roadAddress": "강원 춘천시 동면 공단로 107",
          "katecX": 378074.61284,
          "katecY": 588168.3429,
          "latitude": 37.8958251,
          "longitude": 127.7484605,
          "coordinateSource": "katec-converted"
        },
        {
          "id": "A0010821",
          "name": "진다리주유소",
          "brand": "SK에너지",
          "brandCode": "SKE",
          "price": 1870,
          "address": "강원 인제군 기린면 현리 609-1",
          "roadAddress": "강원 인제군 기린면 내린천로 4172",
          "katecX": 428552.7755,
          "katecY": 596193.5012,
          "latitude": 37.9679593,
          "longitude": 128.3227231,
          "coordinateSource": "katec-converted"
        },
        {
          "id": "A0010431",
          "name": "㈜붕붕붕주유소",
          "brand": "GS칼텍스",
          "brandCode": "GSC",
          "price": 1879,
          "address": "강원 춘천시 석사동 430-1",
          "roadAddress": "강원 춘천시 공지로 156-3",
          "katecX": 377764.15575,
          "katecY": 584168.95196,
          "latitude": 37.8597823,
          "longitude": 127.7450548,
          "coordinateSource": "katec-converted"
        },
        {
          "id": "A0010337",
          "name": "광장셀프주유소",
          "brand": "SK에너지",
          "brandCode": "SKE",
          "price": 1879,
          "address": "강원 춘천시 효자동 653-1",
          "roadAddress": "강원 춘천시 효자로 150",
          "katecX": 376945.95091,
          "katecY": 585960.1595,
          "latitude": 37.8759009,
          "longitude": 127.7356986,
          "coordinateSource": "katec-converted"
        },
        {
          "id": "A0009978",
          "name": "거두주유소",
          "brand": "GS칼텍스",
          "brandCode": "GSC",
          "price": 1879,
          "address": "강원 춘천시 동내면 거두리 910",
          "roadAddress": "강원도 춘천시 동내면 춘천순환로 59",
          "katecX": 378218.14178,
          "katecY": 583718.13754,
          "latitude": 37.8557315,
          "longitude": 127.7502279,
          "coordinateSource": "katec-converted"
        },
        {
          "id": "A0010365",
          "name": "SK행복한Self주유소",
          "brand": "SK에너지",
          "brandCode": "SKE",
          "price": 1879,
          "address": "강원 춘천시 후평동 717-18",
          "roadAddress": "강원 춘천시 후석로 453 (후평동)",
          "katecX": 377478,
          "katecY": 587444,
          "latitude": 37.889284,
          "longitude": 127.7416998,
          "coordinateSource": "katec-converted"
        },
        {
          "id": "A0010638",
          "name": "명성주유소",
          "brand": "GS칼텍스",
          "brandCode": "GSC",
          "price": 1880,
          "address": "강원 삼척시 근덕면 광태리 192-3",
          "roadAddress": "강원 삼척시 근덕면 삼척로 3393",
          "katecX": 509231.7797,
          "katecY": 529160.8972,
          "latitude": 37.3579955,
          "longitude": 129.230821,
          "coordinateSource": "katec-converted"
        },
        {
          "id": "A0010392",
          "name": "춘천주유소",
          "brand": "SK에너지",
          "brandCode": "SKE",
          "price": 1880,
          "address": "강원 춘천시 효자동 287-1",
          "roadAddress": "강원 춘천시  공지로 234-1 (효자동)",
          "katecX": 377115.7567,
          "katecY": 584606.7506,
          "latitude": 37.8637108,
          "longitude": 127.7376721,
          "coordinateSource": "katec-converted"
        },
        {
          "id": "A0010288",
          "name": "퇴계주유소",
          "brand": "GS칼텍스",
          "brandCode": "GSC",
          "price": 1887,
          "address": "강원 춘천시 퇴계동 1162-1",
          "roadAddress": "강원 춘천시 퇴계로 25",
          "katecX": 375975,
          "katecY": 584841,
          "latitude": 37.8657918,
          "longitude": 127.7246993,
          "coordinateSource": "katec-converted"
        },
        {
          "id": "A0010416",
          "name": "구도일주유소 춘천",
          "brand": "S-OIL",
          "brandCode": "SOL",
          "price": 1887,
          "address": "강원 춘천시 퇴계동 11토지구획정리지구 1 B 7L",
          "roadAddress": "강원 춘천시 춘천로 40(퇴계동)",
          "katecX": 375848.49975,
          "katecY": 585099.74189,
          "latitude": 37.8681198,
          "longitude": 127.7232529,
          "coordinateSource": "katec-converted"
        }
      ]
    },
    {
      "regionCode": "03",
      "regionName": "강원",
      "fuelCode": "K015",
      "fuelName": "LPG",
      "stations": [
        {
          "id": "A0033299",
          "name": "주식회사 세종에너지",
          "brand": "SK에너지",
          "brandCode": "SKE",
          "price": 1028,
          "address": "강원 원주시 지정면 보통리 251-1",
          "roadAddress": "강원 원주시 지정면 보통로 380",
          "katecX": 389105.38812,
          "katecY": 526457.26779,
          "latitude": 37.3399704,
          "longitude": 127.8748181,
          "coordinateSource": "katec-converted"
        },
        {
          "id": "A0011118",
          "name": "원주정우LPG충전소",
          "brand": "E1",
          "brandCode": "E1G",
          "price": 1040,
          "address": "강원 원주시 태장동 2617-23",
          "roadAddress": "강원 원주시 북원로 2826",
          "katecX": 395897.2,
          "katecY": 532560.4,
          "latitude": 37.3950222,
          "longitude": 127.9514343,
          "coordinateSource": "katec-converted"
        },
        {
          "id": "A0033450",
          "name": "원주농협충전소",
          "brand": "농협알뜰",
          "brandCode": "NHO",
          "price": 1040,
          "address": "강원 원주시 가현동 369-8",
          "roadAddress": "강원 원주시 호저로 230",
          "katecX": 394621.19475,
          "katecY": 532645.4184,
          "latitude": 37.3957815,
          "longitude": 127.9370223,
          "coordinateSource": "katec-converted"
        },
        {
          "id": "A0011142",
          "name": "대성산업㈜ 원주충전소",
          "brand": "GS칼텍스",
          "brandCode": "GSC",
          "price": 1040,
          "address": "강원 원주시 단계동 199",
          "roadAddress": "강원 원주시 북원로 2302",
          "katecX": 394372.36484,
          "katecY": 527662.84074,
          "latitude": 37.3508819,
          "longitude": 127.9342511,
          "coordinateSource": "katec-converted"
        },