{
  "mode": "opinet",
  "source": "한국석유공사 오피넷 Open API",
  "generatedAt": "2026-06-26T19:45:26.266Z",
  "notice": "한국석유공사 오피넷 Open API 기준 데이터입니다. 실제 판매 가격과 차이가 있을 수 있습니다.",
  "datasets": [
    {
      "regionCode": "ALL",
      "regionName": "전국",
      "fuelCode": "B027",
      "fuelName": "휘발유",
      "stations": [
        {
          "id": "A0020230",
          "name": "부성주유소",
          "brand": "HDO",
          "brandCode": "HDO",
          "price": 1679,
          "address": "전남 화순군 화순읍 연양리 346",
          "roadAddress": "전남 화순군 화순읍 학포로 2632",
          "katecX": 305649.3029,
          "katecY": 272255.7142,
          "latitude": 35.044536,
          "longitude": 126.9636572,
          "coordinateSource": "katec-converted"
        },
        {
          "id": "A0021368",
          "name": "다향주유소",
          "brand": "GS칼텍스",
          "brandCode": "GSC",
          "price": 1708,
          "address": "전남 보성군 회천면 전일리 213",
          "roadAddress": "전남 보성군 회천면 남부관광로 2018",
          "katecX": 314276.8037,
          "katecY": 230232.6862,
          "latitude": 34.6665268,
          "longitude": 127.0625184,
          "coordinateSource": "katec-converted"
        },
        {
          "id": "A0005277",
          "name": "대신석유(주)대자주유소",
          "brand": "SK에너지",
          "brandCode": "SKE",
          "price": 1837,
          "address": "경기 고양시 덕양구 대자동 271-8",
          "roadAddress": "경기 고양시 덕양구  통일로 499",
          "katecX": 302043.8781,
          "katecY": 564561.1446,
          "latitude": 37.6781344,
          "longitude": 126.8872605,
          "coordinateSource": "katec-converted"
        },
        {
          "id": "A0001977",
          "name": "대신석유(주)당리주유소",
          "brand": "SK에너지",
          "brandCode": "SKE",
          "price": 1847,
          "address": "경기 군포시 당동 978-6",
          "roadAddress": "경기 군포시 용호1로1번길 16 (당동)",
          "katecX": 306090.062,
          "katecY": 527199.1318,
          "latitude": 37.3419541,
          "longitude": 126.937904,
          "coordinateSource": "katec-converted"
        },
        {
          "id": "A0006829",
          "name": "삼성주유소",
          "brand": "SK에너지",
          "brandCode": "SKE",
          "price": 1847,
          "address": "경기 광명시 하안동 338-1 (338-2)",
          "roadAddress": "경기 광명시 범안로 925, (338-2) (하안동)",
          "katecX": 300033,
          "katecY": 539920,
          "latitude": 37.455926,
          "longitude": 126.8678328,
          "coordinateSource": "katec-converted"
        },
        {
          "id": "A0003503",
          "name": "중부주유소",
          "brand": "HDO",
          "brandCode": "HDO",
          "price": 1849,
          "address": "경기 하남시 천현동 515-2",
          "roadAddress": "경기 하남시 하남대로 557",
          "katecX": 331343.8946,
          "katecY": 547067.6878,
          "latitude": 37.5231872,
          "longitude": 127.2210379,
          "coordinateSource": "katec-converted"
        },
        {
          "id": "A0005511",
          "name": "SK에너지(주) 백마주유소",
          "brand": "SK에너지",
          "brandCode": "SKE",
          "price": 1849,
          "address": "경기 고양시 일산동구 백석동 1236",
          "roadAddress": "경기 고양시 일산동구 중앙로 990 (백석동)",
          "katecX": 293632,
          "katecY": 560422,
          "latitude": 37.6399084,
          "longitude": 126.79252,
          "coordinateSource": "katec-converted"
        },
        {
          "id": "A0000249",
          "name": "SK에너지㈜ 유공셀프주유소",
          "brand": "SK에너지",
          "brandCode": "SKE",
          "price": 1858,
          "address": "대전 유성구 구암동 629-6",
          "roadAddress": "대전 유성구 유성대로 614 (구암동)",
          "katecX": 339798.3627,
          "katecY": 416693.6464,
          "latitude": 36.34897,
          "longitude": 127.3270884,
          "coordinateSource": "katec-converted"
        },
        {
          "id": "A0001271",
          "name": "백년탑주유소",
          "brand": "S-OIL",
          "brandCode": "SOL",
          "price": 1864,
          "address": "인천 중구 항동7가 57-12",
          "roadAddress": "인천 중구 축항대로 245",
          "katecX": 278386.3,
          "katecY": 539581.5,
          "latitude": 37.4502799,
          "longitude": 126.6232728,
          "coordinateSource": "katec-converted"
        },
        {
          "id": "A0001520",
          "name": "동성주유소 ㈜태평석유 직영",
          "brand": "S-OIL",
          "brandCode": "SOL",
          "price": 1864,
          "address": "인천 중구 신흥동3가 34",
          "roadAddress": "인천 중구 축항대로 299",
          "katecX": 278862,
          "katecY": 539337,
          "latitude": 37.4481398,
          "longitude": 126.628688,
          "coordinateSource": "katec-converted"
        },
        {
          "id": "A0014718",
          "name": "(주)수성직영슈퍼맨주유소",
          "brand": "S-OIL",
          "brandCode": "SOL",
          "price": 1869,
          "address": "충남 부여군 부여읍 군수리 158-1",
          "roadAddress": "충남 부여군 부여읍 성왕로 58",
          "katecX": 301838.51586,
          "katecY": 408494.03004,
          "latitude": 36.2719539,
          "longitude": 126.9052629,
          "coordinateSource": "katec-converted"
        },
        {
          "id": "A0001524",
          "name": "SK행복가득주유소",
          "brand": "SK에너지",
          "brandCode": "SKE",
          "price": 1869,
          "address": "인천 미추홀구 학익동 587-174",
          "roadAddress": "인천 미추홀구 노적산로 1",
          "katecX": 280778,
          "katecY": 538747,
          "latitude": 37.4430741,
          "longitude": 126.6504323,
          "coordinateSource": "katec-converted"
        },
        {
          "id": "A0033000",
          "name": "구도일주유소 김포",
          "brand": "S-OIL",
          "brandCode": "SOL",
          "price": 1874,
          "address": "경기 김포시 마산동 618-6",
          "roadAddress": "경기 김포시 김포한강4로 393 (마산동)",
          "katecX": 280161.698,
          "katecY": 561647.17352,
          "latitude": 37.6492843,
          "longitude": 126.6397254,
          "coordinateSource": "katec-converted"
        },
        {
          "id": "A0008847",
          "name": "(주)남경프라임",
          "brand": "SK에너지",
          "brandCode": "SKE",
          "price": 1874,
          "address": "경기 용인시 기흥구 마북동 169-2",
          "roadAddress": "경기 용인시 기흥구 마북로 130 (마북동)",
          "katecX": 322359.66804,
          "katecY": 522590.46644,
          "latitude": 37.3019356,
          "longitude": 127.1219845,
          "coordinateSource": "katec-converted"
        },
        {
          "id": "A0033818",
          "name": "㈜남경프라임 평택점",
          "brand": "SK에너지",
          "brandCode": "SKE",
          "price": 1876,
          "address": "경기 평택시 비전동 15-2",
          "roadAddress": "경기 평택시 비전4로 188 (비전동)",
          "katecX": 320468.00788,
          "katecY": 490379.91332,
          "latitude": 37.0115501,
          "longitude": 127.10408,
          "coordinateSource": "katec-converted"
        },
        {
          "id": "A0002449",
          "name": "기쁨가득주유소",
          "brand": "SK에너지",
          "brandCode": "SKE",
          "price": 1879,
          "address": "경기 오산시 갈곶동 254",
          "roadAddress": "경기 오산시 경기대로 56",
          "katecX": 317726,
          "katecY": 503516,
          "latitude": 37.1296738,
          "longitude": 127.0718304,
          "coordinateSource": "katec-converted"
        },
        {
          "id": "A0033207",
          "name": "(주)남경석유 길벗주유소",
          "brand": "SK에너지",
          "brandCode": "SKE",
          "price": 1879,
          "address": "경기 화성시 효행구 봉담읍 상리 464-8",
          "roadAddress": "경기 화성시 효행구 봉담읍 삼천병마로 1133",
          "katecX": 306422.60268,
          "katecY": 512360.2008,
          "latitude": 37.2082943,
          "longitude": 126.9435265,
          "coordinateSource": "katec-converted"
        },
        {
          "id": "A0000346",
          "name": "㈜이아이디 네오시티주유소 지점",
          "brand": "S-OIL",
          "brandCode": "SOL",
          "price": 1884,
          "address": "서울 영등포구 신길1동 70-1",
          "roadAddress": "서울 영등포구 영등포로 399 (신길동)",
          "katecX": 304958.24891,
          "katecY": 546238.04797,
          "latitude": 37.5133671,
          "longitude": 126.9226771,
          "coordinateSource": "katec-converted"
        },
        {
          "id": "A0002511",
          "name": "경진셀프주유소",
          "brand": "SK에너지",
          "brandCode": "SKE",
          "price": 1888,
          "address": "경기 수원시 장안구 파장동 585-4",
          "roadAddress": "경기 수원시 장안구 경수대로 1059",
          "katecX": 311212.00293,
          "katecY": 523376.99537,
          "latitude": 37.3080225,
          "longitude": 126.9961602,
          "coordinateSource": "katec-converted"
        },
        {
          "id": "A0000443",
          "name": "성락주유소",
          "brand": "S-OIL",
          "brandCode": "SOL",
          "price": 1889,
          "address": "서울 영등포구 신길5동 355-545",
          "roadAddress": "서울 영등포구 가마산로 414 (신길동)",
          "katecX": 303199,
          "katecY": 545191,
          "latitude": 37.5037509,
          "longitude": 126.9029183,
          "coordinateSource": "katec-converted"
        }
      ]
    },
    {
      "regionCode": "ALL",
      "regionName": "전국",
      "fuelCode": "D047",
      "fuelName": "경유",
      "stations": [
        {
          "id": "A0005277",
          "name": "대신석유(주)대자주유소",
          "brand": "SK에너지",
          "brandCode": "SKE",
          "price": 1797,
          "address": "경기 고양시 덕양구 대자동 271-8",
          "roadAddress": "경기 고양시 덕양구  통일로 499",
          "katecX": 302043.8781,
          "katecY": 564561.1446,
          "latitude": 37.6781344,
          "longitude": 126.8872605,
          "coordinateSource": "katec-converted"
        },
        {
          "id": "A0001271",
          "name": "백년탑주유소",
          "brand": "S-OIL",
          "brandCode": "SOL",
          "price": 1834,
          "address": "인천 중구 항동7가 57-12",
          "roadAddress": "인천 중구 축항대로 245",
          "katecX": 278386.3,
          "katecY": 539581.5,
          "latitude": 37.4502799,
          "longitude": 126.6232728,
          "coordinateSource": "katec-converted"
        },
        {
          "id": "A0001520",
          "name": "동성주유소 ㈜태평석유 직영",
          "brand": "S-OIL",
          "brandCode": "SOL",
          "price": 1834,
          "address": "인천 중구 신흥동3가 34",
          "roadAddress": "인천 중구 축항대로 299",
          "katecX": 278862,
          "katecY": 539337,
          "latitude": 37.4481398,
          "longitude": 126.628688,
          "coordinateSource": "katec-converted"
        },
        {
          "id": "A0003503",
          "name": "중부주유소",
          "brand": "HDO",
          "brandCode": "HDO",
          "price": 1845,
          "address": "경기 하남시 천현동 515-2",
          "roadAddress": "경기 하남시 하남대로 557",
          "katecX": 331343.8946,
          "katecY": 547067.6878,
          "latitude": 37.5231872,
          "longitude": 127.2210379,
          "coordinateSource": "katec-converted"
        },
        {
          "id": "A0001977",
          "name": "대신석유(주)당리주유소",
          "brand": "SK에너지",
          "brandCode": "SKE",
          "price": 1847,
          "address": "경기 군포시 당동 978-6",
          "roadAddress": "경기 군포시 용호1로1번길 16 (당동)",
          "katecX": 306090.062,
          "katecY": 527199.1318,
          "latitude": 37.3419541,
          "longitude": 126.937904,
          "coordinateSource": "katec-converted"
        },
        {
          "id": "A0005511",
          "name": "SK에너지(주) 백마주유소",
          "brand": "SK에너지",
          "brandCode": "SKE",
          "price": 1849,
          "address": "경기 고양시 일산동구 백석동 1236",
          "roadAddress": "경기 고양시 일산동구 중앙로 990 (백석동)",
          "katecX": 293632,
          "katecY": 560422,
          "latitude": 37.6399084,
          "longitude": 126.79252,
          "coordinateSource": "katec-converted"
        },
        {
          "id": "A0001524",
          "name": "SK행복가득주유소",
          "brand": "SK에너지",
          "brandCode": "SKE",
          "price": 1849,
          "address": "인천 미추홀구 학익동 587-174",
          "roadAddress": "인천 미추홀구 노적산로 1",
          "katecX": 280778,
          "katecY": 538747,
          "latitude": 37.4430741,
          "longitude": 126.6504323,
          "coordinateSource": "katec-converted"
        },
        {
          "id": "A0000249",
          "name": "SK에너지㈜ 유공셀프주유소",
          "brand": "SK에너지",
          "brandCode": "SKE",
          "price": 1855,
          "address": "대전 유성구 구암동 629-6",
          "roadAddress": "대전 유성구 유성대로 614 (구암동)",
          "katecX": 339798.3627,
          "katecY": 416693.6464,
          "latitude": 36.34897,
          "longitude": 127.3270884,
          "coordinateSource": "katec-converted"
        },
        {
          "id": "A0002449",
          "name": "기쁨가득주유소",
          "brand": "SK에너지",
          "brandCode": "SKE",
          "price": 1859,
          "address": "경기 오산시 갈곶동 254",
          "roadAddress": "경기 오산시 경기대로 56",
          "katecX": 317726,
          "katecY": 503516,
          "latitude": 37.1296738,
          "longitude": 127.0718304,
          "coordinateSource": "katec-converted"
        },
        {
          "id": "A0033207",
          "name": "(주)남경석유 길벗주유소",
          "brand": "SK에너지",
          "brandCode": "SKE",
          "price": 1859,
          "address": "경기 화성시 효행구 봉담읍 상리 464-8",
          "roadAddress": "경기 화성시 효행구 봉담읍 삼천병마로 1133",
          "katecX": 306422.60268,
          "katecY": 512360.2008,
          "latitude": 37.2082943,
          "longitude": 126.9435265,
          "coordinateSource": "katec-converted"
        },
        {
          "id": "A0008847",
          "name": "(주)남경프라임",
          "brand": "SK에너지",
          "brandCode": "SKE",
          "price": 1859,
          "address": "경기 용인시 기흥구 마북동 169-2",
          "roadAddress": "경기 용인시 기흥구 마북로 130 (마북동)",
          "katecX": 322359.66804,
          "katecY": 522590.46644,
          "latitude": 37.3019356,
          "longitude": 127.1219845,
          "coordinateSource": "katec-converted"
        },
        {
          "id": "A0033818",
          "name": "㈜남경프라임 평택점",
          "brand": "SK에너지",
          "brandCode": "SKE",
          "price": 1859,
          "address": "경기 평택시 비전동 15-2",
          "roadAddress": "경기 평택시 비전4로 188 (비전동)",
          "katecX": 320468.00788,
          "katecY": 490379.91332,
          "latitude": 37.0115501,
          "longitude": 127.10408,
          "coordinateSource": "katec-converted"
        },
        {
          "id": "A0015187",
          "name": "금광주유소",
          "brand": "SK에너지",
          "brandCode": "SKE",
          "price": 1859,
          "address": "충남 예산군 오가면 신원리 537",
          "roadAddress": "충남 예산군 오가면 충서로 745",
          "katecX": 294315.6,
          "katecY": 454434.1,
          "latitude": 36.6851003,
          "longitude": 126.8152631,
          "coordinateSource": "katec-converted"
        },
        {
          "id": "A0033000",
          "name": "구도일주유소 김포",
          "brand": "S-OIL",
          "brandCode": "SOL",
          "price": 1860,
          "address": "경기 김포시 마산동 618-6",
          "roadAddress": "경기 김포시 김포한강4로 393 (마산동)",
          "katecX": 280161.698,
          "katecY": 561647.17352,
          "latitude": 37.6492843,
          "longitude": 126.6397254,
          "coordinateSource": "katec-converted"
        },
        {
          "id": "A0033619",
          "name": "서일석유(주)북항서일주유소",
          "brand": "GS칼텍스",
          "brandCode": "GSC",
          "price": 1868,
          "address": "인천 서구 원창동 393-102",
          "roadAddress": "인천 서구 북항로 185(원창동)",
          "katecX": 278870.04701,
          "katecY": 545743.88333,
          "latitude": 37.5058559,
          "longitude": 126.6277239,
          "coordinateSource": "katec-converted"
        },
        {
          "id": "A0014718",
          "name": "(주)수성직영슈퍼맨주유소",
          "brand": "S-OIL",
          "brandCode": "SOL",
          "price": 1869,
          "address": "충남 부여군 부여읍 군수리 158-1",
          "roadAddress": "충남 부여군 부여읍 성왕로 58",
          "katecX": 301838.51586,
          "katecY": 408494.03004,
          "latitude": 36.2719539,
          "longitude": 126.9052629,
          "coordinateSource": "katec-converted"
        },
        {
          "id": "A0006910",
          "name": "박카스self주유소",
          "brand": "SK에너지",
          "brandCode": "SKE",
          "price": 1871,
          "address": "충남 당진시 신평면 부수리 344",
          "roadAddress": "충남 당진시 신평면 북부산업로 157",
          "katecX": 294033.75339,
          "katecY": 477785.29824,
          "latitude": 36.8954626,
          "longitude": 126.8088574,
          "coordinateSource": "katec-converted"
        },
        {
          "id": "A0000346",
          "name": "㈜이아이디 네오시티주유소 지점",
          "brand": "S-OIL",
          "brandCode": "SOL",
          "price": 1873,
          "address": "서울 영등포구 신길1동 70-1",
          "roadAddress": "서울 영등포구 영등포로 399 (신길동)",
          "katecX": 304958.24891,
          "katecY": 546238.04797,
          "latitude": 37.5133671,
          "longitude": 126.9226771,
          "coordinateSource": "katec-converted"
        },
        {
          "id": "A0006874",
          "name": "현대석유(주)현대주유소",
          "brand": "GS칼텍스",
          "brandCode": "GSC",
          "price": 1875,
          "address": "경기 광명시 철산동 9-152",
          "roadAddress": "경기 광명시 남부순환로 997",
          "katecX": 300073.8294,
          "katecY": 543999.6575,
          "latitude": 37.4926845,
          "longitude": 126.8677399,
          "coordinateSource": "katec-converted"
        },
        {
          "id": "A0006279",
          "name": "서일석유(주)남동서일주유소",
          "brand": "GS칼텍스",
          "brandCode": "GSC",
          "price": 1875,
          "address": "인천 남동구 구월동 626-3",
          "roadAddress": "인천 남동구 인주대로 810 (구월동)",
          "katecX": 287603,
          "katecY": 539234,
          "latitude": 37.4483168,
          "longitude": 126.7274699,
          "coordinateSource": "katec-converted"
        }
      ]
    },
    {
      "regionCode": "ALL",
      "regionName": "전국",
      "fuelCode": "K015",
      "fuelName": "LPG",
      "stations": [
        {
          "id": "A0012372",
          "name": "청주LPG충전소",
          "brand": "E1",
          "brandCode": "E1G",
          "price": 969,
          "address": "충북 청주시 흥덕구 지동동 431-2",
          "roadAddress": "충북 청주시 흥덕구 직지대로 231",
          "katecX": 348237.25868,
          "katecY": 449736.7916,
          "latitude": 36.6472441,
          "longitude": 127.4188818,
          "coordinateSource": "katec-converted"
        },
        {
          "id": "A0033408",
          "name": "(주)삼융만남의충전소",
          "brand": "GS칼텍스",
          "brandCode": "GSC",
          "price": 983,
          "address": "충남 천안시 서북구 직산읍 군서리 293-21",
          "roadAddress": "충남 천안시 서북구 직산읍 군삼길 105",
          "katecX": 325026.56778,
          "katecY": 477256.21834,
          "latitude": 36.8936721,
          "longitude": 127.1566044,
          "coordinateSource": "katec-converted"
        },
        {
          "id": "A0015698",
          "name": "번영충전소",
          "brand": "HDO",
          "brandCode": "HDO",
          "price": 984,
          "address": "충남 천안시 서북구 성성동 343-11",
          "roadAddress": "충남 천안시 서북구 2공단1로 10 (성성동)",
          "katecX": 321864,
          "katecY": 471978,
          "latitude": 36.8458544,
          "longitude": 127.1216695,
          "coordinateSource": "katec-converted"
        },
        {
          "id": "A0033504",
          "name": "행복에너지충전소",
          "brand": "SK가스",
          "brandCode": "SKG",
          "price": 989,
          "address": "충북 청주시 흥덕구 외북동 312",
          "roadAddress": "충북 청주시 흥덕구 엘지로 5",
          "katecX": 349697.44137,
          "katecY": 450983.43363,
          "latitude": 36.658557,
          "longitude": 127.4351296,
          "coordinateSource": "katec-converted"
        },
        {
          "id": "A0007594",
          "name": "SK행복충전 조암충전소",
          "brand": "SK가스",
          "brandCode": "SKG",
          "price": 990,
          "address": "경기 화성시 만세구 우정읍 호곡리 89-1",
          "roadAddress": "경기 화성시 만세구 우정읍 호곡길 84",
          "katecX": 292305,
          "katecY": 502668,
          "latitude": 37.119449,
          "longitude": 126.7859044,
          "coordinateSource": "katec-converted"
        },
        {
          "id": "A0016728",
          "name": "대덕밸리LPG충전소",
          "brand": "HDO",
          "brandCode": "HDO",
          "price": 992,
          "address": "대전 대덕구 평촌동 226-5",
          "roadAddress": "대전 대덕구 신탄진로 650",
          "katecX": 348726,
          "katecY": 426309,
          "latitude": 36.436143,
          "longitude": 127.4259106,
          "coordinateSource": "katec-converted"
        },
        {
          "id": "A0013658",
          "name": "행복에너지 충전소",
          "brand": "SK에너지",
          "brandCode": "SKE",
          "price": 992,
          "address": "대전 대덕구 연축동 294-2",
          "roadAddress": "대전 대덕구 신탄진로 71",
          "katecX": 348391,
          "katecY": 420900,
          "latitude": 36.3873788,
          "longitude": 127.4225352,
          "coordinateSource": "katec-converted"
        },
        {
          "id": "A0016516",
          "name": "신탄진충전소",
          "brand": "SK에너지",
          "brandCode": "SKE",
          "price": 992,
          "address": "대전 대덕구 상서동 349-12",
          "roadAddress": "대전 대덕구 신탄진로 520",
          "katecX": 348227.67743,
          "katecY": 425101.14895,
          "latitude": 36.425231,
          "longitude": 127.4204337,
          "coordinateSource": "katec-converted"
        },
        {
          "id": "A0016481",
          "name": "시온가스충전소",
          "brand": "자가상표",
          "brandCode": "ETC",
          "price": 992,
          "address": "대전 대덕구 신탄진동 294-5",
          "roadAddress": "대전 대덕구 신탄진로 737 (신탄진동)",
          "katecX": 349001.18753,
          "katecY": 427082.851,
          "latitude": 36.4431316,
          "longitude": 127.4289287,
          "coordinateSource": "katec-converted"
        },
        {
          "id": "A0003403",
          "name": "성원이앤에스(주)안성지점",
          "brand": "GS칼텍스",
          "brandCode": "GSC",
          "price": 994,
          "address": "경기 안성시 대덕면 모산리 359-13",
          "roadAddress": "경기 안성시 대덕면 안성대로 1284",
          "katecX": 332379.39956,
          "katecY": 492485.30988,
          "latitude": 37.0314562,
          "longitude": 127.2377274,
          "coordinateSource": "katec-converted"
        },
        {
          "id": "A0003238",
          "name": "(유)유성홀딩스 공도충전소",
          "brand": "SK가스",
          "brandCode": "SKG",
          "price": 995,
          "address": "경기 안성시 공도읍 만정리 290-7",
          "roadAddress": "경기 안성시 공도읍 서동대로 4287-12",
          "katecX": 327160.00289,
          "katecY": 489628.99543,
          "latitude": 37.0053277,
          "longitude": 127.1793436,
          "coordinateSource": "katec-converted"
        },
        {
          "id": "A0003035",
          "name": "평화lpg충전소",
          "brand": "SK에너지",
          "brandCode": "SKE",
          "price": 995,
          "address": "경기 안성시 공도읍 승두리 593-6",
          "roadAddress": "경기 안성시 공도읍 서동대로 4068",
          "katecX": 325389.85097,
          "katecY": 488787.01039,
          "latitude": 36.9976017,
          "longitude": 127.1595394,
          "coordinateSource": "katec-converted"
        },
        {
          "id": "A0033217",
          "name": "비봉충전소 ㈜대원에너지",
          "brand": "HDO",
          "brandCode": "HDO",
          "price": 996,
          "address": "경기 안성시 죽산면 장능리 580",
          "roadAddress": "경기 안성시 죽산면 서동대로 6617",
          "katecX": 346078.32881,
          "katecY": 496938.35038,
          "latitude": 37.0724718,
          "longitude": 127.3913741,
          "coordinateSource": "katec-converted"
        },
        {
          "id": "A0010546",
          "name": "녹박재충전소",
          "brand": "자가상표",
          "brandCode": "ETC",
          "price": 996,
          "address": "경기 안성시 죽산면 장릉리 660-4",
          "roadAddress": "경기 안성시 죽산면 서동대로 6516",
          "katecX": 345135.5,
          "katecY": 496570.1,
          "latitude": 37.0690986,
          "longitude": 127.3807985,
          "coordinateSource": "katec-converted"
        },
        {
          "id": "A0018234",
          "name": "오케이완주충전소",
          "brand": "HDO",
          "brandCode": "HDO",
          "price": 997,
          "address": "전북 완주군 상관면 용암리 305-1",
          "roadAddress": "전북 완주군 상관면 춘향로 4082",
          "katecX": 330979,
          "katecY": 346647,
          "latitude": 35.7170976,
          "longitude": 127.2349673,
          "coordinateSource": "katec-converted"
        },
        {
          "id": "A0015652",
          "name": "태양주유소/충전소",
          "brand": "GS칼텍스",
          "brandCode": "GSC",
          "price": 997,
          "address": "충남 천안시 서북구 업성동 484-7",
          "roadAddress": "충남 천안시 서북구 번영로 613",
          "katecX": 322472.53243,
          "katecY": 472805.10875,
          "latitude": 36.8533575,
          "longitude": 127.1284075,
          "coordinateSource": "katec-converted"
        },
        {
          "id": "A0012083",
          "name": "주식회사 삼보에너지",
          "brand": "GS칼텍스",
          "brandCode": "GSC",
          "price": 998,
          "address": "충북 청주시 서원구미평동  229-1",
          "roadAddress": "충북 청주시 서원구 산미로 41",
          "katecX": 352630.88799,
          "katecY": 444684.18745,
          "latitude": 36.6019407,
          "longitude": 127.4683307,
          "coordinateSource": "katec-converted"
        },
        {
          "id": "A0014504",
          "name": "대광LPG충전소",
          "brand": "SK에너지",
          "brandCode": "SKE",
          "price": 999,
          "address": "전북 전주시 완산구 색장동 857-5",
          "roadAddress": "전북 전주시 완산구 춘향로 4881",
          "katecX": 327786,
          "katecY": 353366,
          "latitude": 35.7774239,
          "longitude": 127.1990734,
          "coordinateSource": "katec-converted"
        },
        {
          "id": "A0022712",
          "name": "㈜나라가스충전소",
          "brand": "SK에너지",
          "brandCode": "SKE",
          "price": 999,
          "address": "전북 전주시 완산구 색장동 872-15",
          "roadAddress": "전북 전주시 완산구 춘향로 4900 (색장동)",
          "katecX": 327787.58236,
          "katecY": 353756.97445,
          "latitude": 35.7809477,
          "longitude": 127.1990556,
          "coordinateSource": "katec-converted"
        },
        {
          "id": "A0002759",
          "name": "이화LPG충전소",
          "brand": "HDO",
          "brandCode": "HDO",
          "price": 999,
          "address": "경기 안성시 보개면 상삼리 211",
          "roadAddress": "경기 안성시 보개면 서동대로 5894",
          "katecX": 341476.3,
          "katecY": 492034.8,
          "latitude": 37.0280094,
          "longitude": 127.340005,
          "coordinateSource": "katec-converted"
        }
      ]
    },
    {
      "regionCode": "01",
      "regionName": "서울",
      "fuelCode": "B027",
      "fuelName": "휘발유",
      "stations": [
        {
          "id": "A0000346",
          "name": "㈜이아이디 네오시티주유소 지점",
          "brand": "S-OIL",
          "brandCode": "SOL",
          "price": 1884,
          "address": "서울 영등포구 신길1동 70-1",
          "roadAddress": "서울 영등포구 영등포로 399 (신길동)",
          "katecX": 304958.24891,
          "katecY": 546238.04797,
          "latitude": 37.5133671,
          "longitude": 126.9226771,
          "coordinateSource": "katec-converted"
        },
        {
          "id": "A0000443",
          "name": "성락주유소",
          "brand": "S-OIL",
          "brandCode": "SOL",
          "price": 1889,
          "address": "서울 영등포구 신길5동 355-545",
          "roadAddress": "서울 영등포구 가마산로 414 (신길동)",
          "katecX": 303199,
          "katecY": 545191,
          "latitude": 37.5037509,
          "longitude": 126.9029183,
          "coordinateSource": "katec-converted"
        },
        {
          "id": "A0000134",
          "name": "구도일주유소 두꺼비",
          "brand": "S-OIL",
          "brandCode": "SOL",
          "price": 1894,
          "address": "서울 서대문구 연희동 220-55",
          "roadAddress": "서울 서대문구 성산로 312",
          "katecX": 305218,
          "katecY": 552080,
          "latitude": 37.5660251,
          "longitude": 126.9248594,
          "coordinateSource": "katec-converted"
        },
        {
          "id": "A0001155",
          "name": "서일석유(주)락성주유소",
          "brand": "GS칼텍스",
          "brandCode": "GSC",
          "price": 1895,
          "address": "서울 관악구 봉천동 1659-1",
          "roadAddress": "서울 관악구 남부순환로 1920 (봉천동)",
          "katecX": 308420.93867,
          "katecY": 542175.23155,
          "latitude": 37.4771144,
          "longitude": 126.9623469,
          "coordinateSource": "katec-converted"
        },
        {
          "id": "A0009861",
          "name": "오토테크주유소",
          "brand": "S-OIL",
          "brandCode": "SOL",
          "price": 1900,
          "address": "서울 서초구 서초동 1438-19",
          "roadAddress": "서울특별시 서초구  효령로 356",
          "katecX": 313775.43118,
          "katecY": 543172.19675,
          "latitude": 37.4866127,
          "longitude": 127.0227612,
          "coordinateSource": "katec-converted"
        },
        {
          "id": "A0010188",
          "name": "구도일주유소 코알라",
          "brand": "S-OIL",
          "brandCode": "SOL",
          "price": 1902,
          "address": "서울 강동구 성내동 319-1",
          "roadAddress": "서울특별시 강동구  올림픽로 556 (성내동)",
          "katecX": 322516.99036,
          "katecY": 548039.11177,
          "latitude": 37.5312387,
          "longitude": 127.1210836,
          "coordinateSource": "katec-converted"
        },
        {
          "id": "A0000120",
          "name": "마포주유소",
          "brand": "S-OIL",
          "brandCode": "SOL",
          "price": 1939,
          "address": "서울 마포구 공덕동 105-128",
          "roadAddress": "서울 마포구 마포대로 186",
          "katecX": 307926.4092,
          "katecY": 550358.4159,
          "latitude": 37.5507901,
          "longitude": 126.9557297,
          "coordinateSource": "katec-converted"
        },
        {
          "id": "A0000182",
          "name": "염리동주유소",
          "brand": "S-OIL",
          "brandCode": "SOL",
          "price": 1939,
          "address": "서울 마포구 염리동 155-6",
          "roadAddress": "서울 마포구 백범로 126 (염리동)",
          "katecX": 306957,
          "katecY": 549868,
          "latitude": 37.5462743,
          "longitude": 126.9448224,
          "coordinateSource": "katec-converted"
        },
        {
          "id": "A0033343",
          "name": "지에스칼텍스(주)스마트위례주유소",
          "brand": "GS칼텍스",
          "brandCode": "GSC",
          "price": 1943,
          "address": "서울 송파구 장지동 908",
          "roadAddress": "서울 송파구 위례중앙로 43 (장지동)",
          "katecX": 323453.58057,
          "katecY": 541851.53459,
          "latitude": 37.4755683,
          "longitude": 127.132325,
          "coordinateSource": "katec-converted"
        },
        {
          "id": "A0000890",
          "name": "지에스칼텍스(주)선천주유소",
          "brand": "GS칼텍스",
          "brandCode": "GSC",
          "price": 1944,
          "address": "서울 서초구 방배동 765-8",
          "roadAddress": "서울 서초구 동작대로 206 (방배동)",
          "katecX": 310282.04464,
          "katecY": 544132.64623,
          "latitude": 37.4949325,
          "longitude": 126.9831471,
          "coordinateSource": "katec-converted"
        },
        {
          "id": "A0009324",
          "name": "지에스칼텍스㈜ 도루코주유소",
          "brand": "GS칼텍스",
          "brandCode": "GSC",
          "price": 1947,
          "address": "서울 성동구 성수동2가 19-14",
          "roadAddress": "서울 성동구 아차산로 180",
          "katecX": 317446,
          "katecY": 549272,
          "latitude": 37.5419056,
          "longitude": 127.0635756,
          "coordinateSource": "katec-converted"
        },
        {
          "id": "A0009272",
          "name": "(주)연우에너지 신관주유소",
          "brand": "RTO",
          "brandCode": "RTO",
          "price": 1954,
          "address": "서울 관악구 신림동 1641-58",
          "roadAddress": "서울 관악구 신림로 290 (신림동)",
          "katecX": 305616.56394,
          "katecY": 542563.88518,
          "latitude": 37.4803333,
          "longitude": 126.9305948,
          "coordinateSource": "katec-converted"
        },
        {
          "id": "A0032866",
          "name": "경동석유산업㈜ 강서오곡SELF주유소",
          "brand": "SK에너지",
          "brandCode": "SKE",
          "price": 1957,
          "address": "서울 강서구 오곡동 594-1",
          "roadAddress": "서울 강서구 벌말로 254 (오곡동)",
          "katecX": 291371.26835,
          "katecY": 550919.91578,
          "latitude": 37.5540431,
          "longitude": 126.7683212,
          "coordinateSource": "katec-converted"
        },
        {
          "id": "A0001164",
          "name": "(주)화동유업 화동주유소",
          "brand": "SK에너지",
          "brandCode": "SKE",
          "price": 1957,
          "address": "서울 금천구 독산동 967",
          "roadAddress": "서울 금천구 시흥대로 484",
          "katecX": 302821.53096,
          "katecY": 542201.78194,
          "latitude": 37.4767808,
          "longitude": 126.8990451,
          "coordinateSource": "katec-converted"
        },
        {
          "id": "A0033059",
          "name": "지에스칼텍스(주)가든파이브주유소",
          "brand": "GS칼텍스",
          "brandCode": "GSC",
          "price": 1958,
          "address": "서울 송파구 장지동 237-9",
          "roadAddress": "서울 송파구 탄천동로 740",
          "katecX": 322705.0825,
          "katecY": 541899.57622,
          "latitude": 37.4759387,
          "longitude": 127.1238582,
          "coordinateSource": "katec-converted"
        },
        {
          "id": "A0009889",
          "name": "에너지 플러스 허브 내곡",
          "brand": "GS칼텍스",
          "brandCode": "GSC",
          "price": 1959,
          "address": "서울 서초구 내곡동 142-3",
          "roadAddress": "서울 서초구 헌릉로 210",
          "katecX": 317276.98658,
          "katecY": 539637.37185,
          "latitude": 37.455086,
          "longitude": 127.0627488,
          "coordinateSource": "katec-converted"
        },
        {
          "id": "A0001132",
          "name": "㈜씨더블유 이엔지 금천지점",
          "brand": "HDO",
          "brandCode": "HDO",
          "price": 1959,
          "address": "서울 금천구 시흥동 860-36",
          "roadAddress": "서울 금천구 독산로 147",
          "katecX": 303289.50294,
          "katecY": 540374.09535,
          "latitude": 37.4603639,
          "longitude": 126.9045755,
          "coordinateSource": "katec-converted"
        },
        {
          "id": "A0000844",
          "name": "HD현대오일뱅크㈜직영 구로셀프주유소",
          "brand": "HDO",
          "brandCode": "HDO",
          "price": 1959,
          "address": "서울 구로구 구로동 1131-4",
          "roadAddress": "서울 구로구 시흥대로 531",
          "katecX": 302843,
          "katecY": 542663,
          "latitude": 37.4809382,
          "longitude": 126.8992268,
          "coordinateSource": "katec-converted"
        },
        {
          "id": "A0000812",
          "name": "지에스칼텍스㈜ 개봉동주유소",
          "brand": "GS칼텍스",
          "brandCode": "GSC",
          "price": 1960,
          "address": "서울 구로구 개봉동 226-1",
          "roadAddress": "서울 구로구 경인로 290",
          "katecX": 298709.9602,
          "katecY": 544564.9094,
          "latitude": 37.4976281,
          "longitude": 126.8522413,
          "coordinateSource": "katec-converted"
        },
        {
          "id": "A0009284",
          "name": "진우7주유소 ㈜준우에너지",
          "brand": "RTO",
          "brandCode": "RTO",
          "price": 1964,
          "address": "서울 관악구 봉천동 726-10",
          "roadAddress": "서울 관악구 보라매로 41",
          "katecX": 305291,
          "katecY": 543996,
          "latitude": 37.4932022,
          "longitude": 126.9267297,
          "coordinateSource": "katec-converted"
        }
      ]
    },
    {
      "regionCode": "01",
      "regionName": "서울",
      "fuelCode": "D047",
      "fuelName": "경유",
      "stations": [
        {
          "id": "A0000346",
          "name": "㈜이아이디 네오시티주유소 지점",
          "brand": "S-OIL",
          "brandCode": "SOL",
          "price": 1873,
          "address": "서울 영등포구 신길1동 70-1",
          "roadAddress": "서울 영등포구 영등포로 399 (신길동)",
          "katecX": 304958.24891,
          "katecY": 546238.04797,
          "latitude": 37.5133671,
          "longitude": 126.9226771,
          "coordinateSource": "katec-converted"
        },
        {
          "id": "A0000443",
          "name": "성락주유소",
          "brand": "S-OIL",
          "brandCode": "SOL",
          "price": 1879,
          "address": "서울 영등포구 신길5동 355-545",
          "roadAddress": "서울 영등포구 가마산로 414 (신길동)",
          "katecX": 303199,
          "katecY": 545191,
          "latitude": 37.5037509,
          "longitude": 126.9029183,
          "coordinateSource": "katec-converted"
        },
        {
          "id": "A0000134",
          "name": "구도일주유소 두꺼비",
          "brand": "S-OIL",
          "brandCode": "SOL",
          "price": 1888,
          "address": "서울 서대문구 연희동 220-55",
          "roadAddress": "서울 서대문구 성산로 312",
          "katecX": 305218,
          "katecY": 552080,
          "latitude": 37.5660251,
          "longitude": 126.9248594,
          "coordinateSource": "katec-converted"
        },
        {
          "id": "A0010188",
          "name": "구도일주유소 코알라",
          "brand": "S-OIL",
          "brandCode": "SOL",
          "price": 1893,
          "address": "서울 강동구 성내동 319-1",
          "roadAddress": "서울특별시 강동구  올림픽로 556 (성내동)",
          "katecX": 322516.99036,
          "katecY": 548039.11177,
          "latitude": 37.5312387,
          "longitude": 127.1210836,
          "coordinateSource": "katec-converted"
        },
        {
          "id": "A0001155",
          "name": "서일석유(주)락성주유소",
          "brand": "GS칼텍스",
          "brandCode": "GSC",
          "price": 1895,
          "address": "서울 관악구 봉천동 1659-1",
          "roadAddress": "서울 관악구 남부순환로 1920 (봉천동)",
          "katecX": 308420.93867,
          "katecY": 542175.23155,
          "latitude": 37.4771144,
          "longitude": 126.9623469,
          "coordinateSource": "katec-converted"
        },
        {
          "id": "A0009861",
          "name": "오토테크주유소",
          "brand": "S-OIL",
          "brandCode": "SOL",
          "price": 1899,
          "address": "서울 서초구 서초동 1438-19",
          "roadAddress": "서울특별시 서초구  효령로 356",
          "katecX": 313775.43118,
          "katecY": 543172.19675,
          "latitude": 37.4866127,
          "longitude": 127.0227612,
          "coordinateSource": "katec-converted"
        },
        {
          "id": "A0009845",
          "name": "요한주유소",
          "brand": "HDO",
          "brandCode": "HDO",
          "price": 1918,
          "address": "서울 도봉구 도봉동 629",
          "roadAddress": "서울 도봉구 마들로 776",
          "katecX": 316371,
          "katecY": 564492,
          "latitude": 37.678932,
          "longitude": 127.049669,
          "coordinateSource": "katec-converted"
        },
        {
          "id": "A0009682",
          "name": "이케이에너지 주식회사",
          "brand": "HDO",
          "brandCode": "HDO",
          "price": 1918,
          "address": "서울 도봉구 도봉동 298-2",
          "roadAddress": "서울 도봉구 도봉로 941 (도봉동)",
          "katecX": 315996.4144,
          "katecY": 565545.23458,
          "latitude": 37.6883866,
          "longitude": 127.0453013,
          "coordinateSource": "katec-converted"
        },
        {
          "id": "A0000120",
          "name": "마포주유소",
          "brand": "S-OIL",
          "brandCode": "SOL",
          "price": 1919,
          "address": "서울 마포구 공덕동 105-128",
          "roadAddress": "서울 마포구 마포대로 186",
          "katecX": 307926.4092,
          "katecY": 550358.4159,
          "latitude": 37.5507901,
          "longitude": 126.9557297,
          "coordinateSource": "katec-converted"
        },
        {
          "id": "A0000182",
          "name": "염리동주유소",
          "brand": "S-OIL",
          "brandCode": "SOL",
          "price": 1919,
          "address": "서울 마포구 염리동 155-6",
          "roadAddress": "서울 마포구 백범로 126 (염리동)",
          "katecX": 306957,
          "katecY": 549868,
          "latitude": 37.5462743,
          "longitude": 126.9448224,
          "coordinateSource": "katec-converted"
        },
        {
          "id": "A0009272",
          "name": "(주)연우에너지 신관주유소",
          "brand": "RTO",
          "brandCode": "RTO",
          "price": 1934,
          "address": "서울 관악구 신림동 1641-58",
          "roadAddress": "서울 관악구 신림로 290 (신림동)",
          "katecX": 305616.56394,
          "katecY": 542563.88518,
          "latitude": 37.4803333,
          "longitude": 126.9305948,
          "coordinateSource": "katec-converted"
        },
        {
          "id": "A0001164",
          "name": "(주)화동유업 화동주유소",
          "brand": "SK에너지",
          "brandCode": "SKE",
          "price": 1937,
          "address": "서울 금천구 독산동 967",
          "roadAddress": "서울 금천구 시흥대로 484",
          "katecX": 302821.53096,
          "katecY": 542201.78194,
          "latitude": 37.4767808,
          "longitude": 126.8990451,
          "coordinateSource": "katec-converted"
        },
        {
          "id": "A0001132",
          "name": "㈜씨더블유 이엔지 금천지점",
          "brand": "HDO",
          "brandCode": "HDO",
          "price": 1938,
          "address": "서울 금천구 시흥동 860-36",
          "roadAddress": "서울 금천구 독산로 147",
          "katecX": 303289.50294,
          "katecY": 540374.09535,
          "latitude": 37.4603639,
          "longitude": 126.9045755,
          "coordinateSource": "katec-converted"
        },
        {
          "id": "A0033343",
          "name": "지에스칼텍스(주)스마트위례주유소",
          "brand": "GS칼텍스",
          "brandCode": "GSC",
          "price": 1939,
          "address": "서울 송파구 장지동 908",
          "roadAddress": "서울 송파구 위례중앙로 43 (장지동)",
          "katecX": 323453.58057,
          "katecY": 541851.53459,
          "latitude": 37.4755683,
          "longitude": 127.132325,
          "coordinateSource": "katec-converted"
        },
        {
          "id": "A0001086",
          "name": "(주)백운주유소",
          "brand": "RTO",
          "brandCode": "RTO",
          "price": 1944,
          "address": "서울 금천구 독산동 1077-3",
          "roadAddress": "서울 금천구 시흥대로 282",
          "katecX": 302825.0476,
          "katecY": 540202.8721,
          "latitude": 37.4587725,
          "longitude": 126.8993489,
          "coordinateSource": "katec-converted"
        },
        {
          "id": "A0001141",
          "name": "㈜씨더블유이엔지",
          "brand": "HDO",
          "brandCode": "HDO",
          "price": 1947,
          "address": "서울 금천구 독산동 900-4",
          "roadAddress": "서울 금천구 남부순환로 1410 (독산동)",
          "katecX": 303569.4,
          "katecY": 542566.5,
          "latitude": 37.4801451,
          "longitude": 126.9074514,
          "coordinateSource": "katec-converted"
        },
        {
          "id": "A0001146",
          "name": "SK에너지(주) 박미주유소",
          "brand": "SK에너지",
          "brandCode": "SKE",
          "price": 1947,
          "address": "서울 금천구 시흥동 980",
          "roadAddress": "서울 금천구 시흥대로 39-7 (시흥동)",
          "katecX": 303084.8522,
          "katecY": 537816.7868,
          "latitude": 37.437303,
          "longitude": 126.9025992,
          "coordinateSource": "katec-converted"
        },
        {
          "id": "A0001139",
          "name": "동일석유㈜이가주유소",
          "brand": "SK에너지",
          "brandCode": "SKE",
          "price": 1947,
          "address": "서울 금천구 독산동 150-6",
          "roadAddress": "서울 금천구 시흥대로 441",
          "katecX": 302718.0855,
          "katecY": 541776.3916,
          "latitude": 37.4729374,
          "longitude": 126.897932,
          "coordinateSource": "katec-converted"
        },
        {
          "id": "A0009520",
          "name": "지에스칼텍스(주) 종암주유소",
          "brand": "GS칼텍스",
          "brandCode": "GSC",
          "price": 1948,
          "address": "서울 성북구 종암동 3-545",
          "roadAddress": "서울 성북구 종암로 145 (종암동)",
          "katecX": 314724,
          "katecY": 556047,
          "latitude": 37.6026963,
          "longitude": 127.0319873,
          "coordinateSource": "katec-converted"
        },
        {
          "id": "A0009668",
          "name": "도봉제일주유소(주)송만에너지",
          "brand": "HDO",
          "brandCode": "HDO",
          "price": 1949,
          "address": "서울 도봉구 도봉동 601-55",
          "roadAddress": "서울 도봉구 도봉로 783 (도봉동)",
          "katecX": 315872.61351,
          "katecY": 563993.28834,
          "latitude": 37.6743933,
          "longitude": 127.0440772,
          "coordinateSource": "katec-converted"
        }
      ]
    },
    {
      "regionCode": "01",
      "regionName": "서울",
      "fuelCode": "K015",
      "fuelName": "LPG",
      "stations": [
        {
          "id": "A0032953",
          "name": "한경에너지",
          "brand": "SK에너지",
          "brandCode": "SKE",
          "price": 1087,
          "address": "서울 강서구 개화동 215-6",
          "roadAddress": "서울 강서구 개화동로 255",
          "katecX": 294104.61392,
          "katecY": 554571.18999,
          "latitude": 37.5872551,
          "longitude": 126.7987223,
          "coordinateSource": "katec-converted"
        },
        {
          "id": "A0000559",
          "name": "오곡동충전소",
          "brand": "E1",
          "brandCode": "E1G",
          "price": 1116,
          "address": "서울 강서구 오곡동 699-14",
          "roadAddress": "서울 강서구 벌말로 271 (오곡동)",
          "katecX": 291362.00588,
          "katecY": 551107.99064,
          "latitude": 37.5557363,
          "longitude": 126.7681885,
          "coordinateSource": "katec-converted"
        },
        {
          "id": "A0000481",
          "name": "강서충전소",
          "brand": "SK가스",
          "brandCode": "SKG",
          "price": 1116,
          "address": "서울 강서구 오곡동 593-2",
          "roadAddress": "서울 강서구 벌말로 266",
          "katecX": 291406.00294,
          "katecY": 551023.99532,
          "latitude": 37.5549848,
          "longitude": 126.7686988,
          "coordinateSource": "katec-converted"
        },
        {
          "id": "A0033750",
          "name": "강남세곡충전소 셀프세차장㈜",
          "brand": "SK에너지",
          "brandCode": "SKE",
          "price": 1152,
          "address": "서울 강남구 세곡동 34-3",
          "roadAddress": "서울 강남구 헌릉로 717",
          "katecX": 322120.86079,
          "katecY": 540867.46644,
          "latitude": 37.4665904,
          "longitude": 127.1173629,
          "coordinateSource": "katec-converted"
        },
        {
          "id": "A0000291",
          "name": "양평동충전소",
          "brand": "SK가스",
          "brandCode": "SKG",
          "price": 1155,
          "address": "서울 영등포구 양평동3가 59",
          "roadAddress": "서울 영등포구 선유로 157",
          "katecX": 302183.00295,
          "katecY": 547885.99534,
          "latitude": 37.5279232,
          "longitude": 126.8910698,
          "coordinateSource": "katec-converted"
        },
        {
          "id": "A0011826",
          "name": "㈜에이치앤디이 만남의광장주유소",
          "brand": "GS칼텍스",
          "brandCode": "GSC",
          "price": 1157,
          "address": "서울 서초구 원지동 10-16",
          "roadAddress": "서울 서초구 양재대로12길 73-71",
          "katecX": 315535.76499,
          "katecY": 540150.38545,
          "latitude": 37.4595503,
          "longitude": 127.0430113,
          "coordinateSource": "katec-converted"
        },
        {
          "id": "A0010082",
          "name": "태능가스(주)",
          "brand": "S-OIL",
          "brandCode": "SOL",
          "price": 1165,
          "address": "서울 노원구 공릉동 690-11",
          "roadAddress": "서울 노원구 화랑로 405 (공릉동)",
          "katecX": 318316,
          "katecY": 557588,
          "latitude": 37.6169065,
          "longitude": 127.0724905,
          "coordinateSource": "katec-converted"
        },
        {
          "id": "A0010145",
          "name": "(주)평안에너지 상계충전소",
          "brand": "E1",
          "brandCode": "E1G",
          "price": 1165,
          "address": "서울 노원구 중계동 515-5",
          "roadAddress": "서울 노원구 동일로210길 86 (중계동)",
          "katecX": 317868,
          "katecY": 561177,
          "latitude": 37.6492014,
          "longitude": 127.0670122,
          "coordinateSource": "katec-converted"
        },
        {
          "id": "A0009683",
          "name": "한영가스충전소",
          "brand": "GS칼텍스",
          "brandCode": "GSC",
          "price": 1165,
          "address": "서울 도봉구 쌍문동 715-1",
          "roadAddress": "서울 도봉구 도봉로 627",
          "katecX": 315616.83397,
          "katecY": 562454.54833,
          "latitude": 37.6605067,
          "longitude": 127.0413564,
          "coordinateSource": "katec-converted"
        },
        {
          "id": "A0012841",
          "name": "(주)평안에너지 도봉충전소",
          "brand": "E1",
          "brandCode": "E1G",
          "price": 1165,
          "address": "서울 도봉구 도봉동 376",
          "roadAddress": "서울 도봉구 도봉로 983 (도봉동)",
          "katecX": 315939.24421,
          "katecY": 565987.46091,
          "latitude": 37.6923655,
          "longitude": 127.0446021,
          "coordinateSource": "katec-converted"
        },
        {
          "id": "A0010132",
          "name": "복지공릉충전소 ㈜서울개인택시복지법인",
          "brand": "E1",
          "brandCode": "E1G",
          "price": 1166,
          "address": "서울 노원구 공릉동 26-69",
          "roadAddress": "서울 노원구 화랑로 826",
          "katecX": 321612,
          "katecY": 559996,
          "latitude": 37.638889,
          "longitude": 127.1095629,
          "coordinateSource": "katec-converted"
        },
        {
          "id": "A0009625",
          "name": "국제가스공업(주)",
          "brand": "SK에너지",
          "brandCode": "SKE",
          "price": 1167,
          "address": "서울 강북구 수유동 48-83",
          "roadAddress": "서울 강북구 덕릉로 70",
          "katecX": 313864,
          "katecY": 559556,
          "latitude": 37.6342297,
          "longitude": 127.0218347,
          "coordinateSource": "katec-converted"
        },
        {
          "id": "A0010129",
          "name": "SK행복충전 노일가스충전소",
          "brand": "SK가스",
          "brandCode": "SKG",
          "price": 1167,
          "address": "서울 노원구 상계동 1034-1",
          "roadAddress": "서울 노원구 동일로 1601 (상계동)",
          "katecX": 316881.3,
          "katecY": 563646,
          "latitude": 37.6713565,
          "longitude": 127.0555502,
          "coordinateSource": "katec-converted"
        },
        {
          "id": "A0009491",
          "name": "SK행복충전 장위가스충전소",
          "brand": "SK가스",
          "brandCode": "SKG",
          "price": 1167,
          "address": "서울 성북구 장위3동44-3",
          "roadAddress": "서울 성북구 화랑로 291 (장위동)",
          "katecX": 317260,
          "katecY": 557194,
          "latitude": 37.6132622,
          "longitude": 127.0605748,
          "coordinateSource": "katec-converted"
        },
        {
          "id": "A0009627",
          "name": "SK행복충전 서울와사공업충전소",
          "brand": "SK가스",
          "brandCode": "SKG",
          "price": 1167,
          "address": "서울 강북구 번동 446-31",
          "roadAddress": "서울 강북구 도봉로 318 (번동)",
          "katecX": 314101.6,
          "katecY": 559768.7,
          "latitude": 37.6361683,
          "longitude": 127.0245014,
          "coordinateSource": "katec-converted"
        },
        {
          "id": "A0001874",
          "name": "복지강북충전소 ㈜서울개인택시복지법인",
          "brand": "GS칼텍스",
          "brandCode": "GSC",
          "price": 1167,
          "address": "서울 도봉구 창동 643-2",
          "roadAddress": "서울특별시 도봉구 도봉로 430 (창동)",
          "katecX": 314819,
          "katecY": 560656,
          "latitude": 37.6442292,
          "longitude": 127.0325251,
          "coordinateSource": "katec-converted"
        },
        {
          "id": "A0009630",
          "name": "SK행복충전 청학에너지충전소",
          "brand": "SK가스",
          "brandCode": "SKG",
          "price": 1167,
          "address": "서울 강북구 번3동 267",
          "roadAddress": "서울 강북구 한천로 833 (번동)",
          "katecX": 315808.2,
          "katecY": 558866.3,
          "latitude": 37.6281965,
          "longitude": 127.0439395,
          "coordinateSource": "katec-converted"
        },
        {
          "id": "A0009165",
          "name": "복지장안충전소 ㈜서울개인택시복지법인",
          "brand": "SK가스",
          "brandCode": "SKG",
          "price": 1168,
          "address": "서울 동대문구 답십리동 1-478",
          "roadAddress": "서울 동대문구 한천로 169",
          "katecX": 317796,
          "katecY": 553070,
          "latitude": 37.5761552,
          "longitude": 127.0671092,
          "coordinateSource": "katec-converted"
        },
        {
          "id": "A0033308",
          "name": "KH에너지㈜직영 활주로충전소",
          "brand": "SK가스",
          "brandCode": "SKG",
          "price": 1168,
          "address": "서울 강서구 외발산동 384-2",
          "roadAddress": "서울 강서구 방화대로 26 (외발산동)",
          "katecX": 295643.64917,
          "katecY": 549650.24818,
          "latitude": 37.5430993,
          "longitude": 126.8168466,
          "coordinateSource": "katec-converted"
        },
        {
          "id": "A0000851",
          "name": "대성산업(주)오류동충전소",
          "brand": "GS칼텍스",
          "brandCode": "GSC",
          "price": 1168,
          "address": "서울 구로구 오류동 74-8",
          "roadAddress": "서울 구로구 경인로8길 31",
          "katecX": 297449,
          "katecY": 544031,
          "latitude": 37.4926787,
          "longitude": 126.8380578,
          "coordinateSource": "katec-converted"
        }
      ]
    },
    {
      "regionCode": "02",
      "regionName": "경기",
      "fuelCode": "B027",
      "fuelName": "휘발유",
      "stations": [
        {
          "id": "A0005277",
          "name": "대신석유(주)대자주유소",
          "brand": "SK에너지",
          "brandCode": "SKE",
          "price": 1837,
          "address": "경기 고양시 덕양구 대자동 271-8",
          "roadAddress": "경기 고양시 덕양구  통일로 499",
          "katecX": 302043.8781,
          "katecY": 564561.1446,
          "latitude": 37.6781344,
          "longitude": 126.8872605,
          "coordinateSource": "katec-converted"
        },
        {
          "id": "A0001977",
          "name": "대신석유(주)당리주유소",
          "brand": "SK에너지",
          "brandCode": "SKE",
          "price": 1847,
          "address": "경기 군포시 당동 978-6",
          "roadAddress": "경기 군포시 용호1로1번길 16 (당동)",
          "katecX": 306090.062,
          "katecY": 527199.1318,
          "latitude": 37.3419541,
          "longitude": 126.937904,
          "coordinateSource": "katec-converted"
        },
        {
          "id": "A0006829",
          "name": "삼성주유소",
          "brand": "SK에너지",
          "brandCode": "SKE",
          "price": 1847,
          "address": "경기 광명시 하안동 338-1 (338-2)",
          "roadAddress": "경기 광명시 범안로 925, (338-2) (하안동)",
          "katecX": 300033,
          "katecY": 539920,
          "latitude": 37.455926,
          "longitude": 126.8678328,
          "coordinateSource": "katec-converted"
        },
        {
          "id": "A0005511",
          "name": "SK에너지(주) 백마주유소",
          "brand": "SK에너지",
          "brandCode": "SKE",
          "price": 1849,
          "address": "경기 고양시 일산동구 백석동 1236",
          "roadAddress": "경기 고양시 일산동구 중앙로 990 (백석동)",
          "katecX": 293632,
          "katecY": 560422,
          "latitude": 37.6399084,
          "longitude": 126.79252,
          "coordinateSource": "katec-converted"
        },
        {
          "id": "A0003503",
          "name": "중부주유소",
          "brand": "HDO",
          "brandCode": "HDO",
          "price": 1849,
          "address": "경기 하남시 천현동 515-2",
          "roadAddress": "경기 하남시 하남대로 557",
          "katecX": 331343.8946,
          "katecY": 547067.6878,
          "latitude": 37.5231872,
          "longitude": 127.2210379,
          "coordinateSource": "katec-converted"
        },
        {
          "id": "A0008847",
          "name": "(주)남경프라임",
          "brand": "SK에너지",
          "brandCode": "SKE",
          "price": 1874,
          "address": "경기 용인시 기흥구 마북동 169-2",
          "roadAddress": "경기 용인시 기흥구 마북로 130 (마북동)",
          "katecX": 322359.66804,
          "katecY": 522590.46644,
          "latitude": 37.3019356,
          "longitude": 127.1219845,
          "coordinateSource": "katec-converted"
        },
        {
          "id": "A0033000",
          "name": "구도일주유소 김포",
          "brand": "S-OIL",
          "brandCode": "SOL",
          "price": 1874,
          "address": "경기 김포시 마산동 618-6",
          "roadAddress": "경기 김포시 김포한강4로 393 (마산동)",
          "katecX": 280161.698,
          "katecY": 561647.17352,
          "latitude": 37.6492843,
          "longitude": 126.6397254,
          "coordinateSource": "katec-converted"
        },
        {
          "id": "A0033818",
          "name": "㈜남경프라임 평택점",
          "brand": "SK에너지",
          "brandCode": "SKE",
          "price": 1876,
          "address": "경기 평택시 비전동 15-2",
          "roadAddress": "경기 평택시 비전4로 188 (비전동)",
          "katecX": 320468.00788,
          "katecY": 490379.91332,
          "latitude": 37.0115501,
          "longitude": 127.10408,
          "coordinateSource": "katec-converted"
        },
        {
          "id": "A0002449",
          "name": "기쁨가득주유소",
          "brand": "SK에너지",
          "brandCode": "SKE",
          "price": 1879,
          "address": "경기 오산시 갈곶동 254",
          "roadAddress": "경기 오산시 경기대로 56",
          "katecX": 317726,
          "katecY": 503516,
          "latitude": 37.1296738,
          "longitude": 127.0718304,
          "coordinateSource": "katec-converted"
        },
        {
          "id": "A0033207",
          "name": "(주)남경석유 길벗주유소",
          "brand": "SK에너지",
          "brandCode": "SKE",
          "price": 1879,
          "address": "경기 화성시 효행구 봉담읍 상리 464-8",
          "roadAddress": "경기 화성시 효행구 봉담읍 삼천병마로 1133",
          "katecX": 306422.60268,
          "katecY": 512360.2008,
          "latitude": 37.2082943,
          "longitude": 126.9435265,
          "coordinateSource": "katec-converted"
        },
        {
          "id": "A0002511",
          "name": "경진셀프주유소",
          "brand": "SK에너지",
          "brandCode": "SKE",
          "price": 1888,
          "address": "경기 수원시 장안구 파장동 585-4",
          "roadAddress": "경기 수원시 장안구 경수대로 1059",
          "katecX": 311212.00293,
          "katecY": 523376.99537,
          "latitude": 37.3080225,
          "longitude": 126.9961602,
          "coordinateSource": "katec-converted"
        },
        {
          "id": "A0033562",
          "name": "한길주유소",
          "brand": "SK에너지",
          "brandCode": "SKE",
          "price": 1889,
          "address": "경기 이천시 갈산동 699-6",
          "roadAddress": "경기 이천시 증신로 42",
          "katecX": 352352.51058,
          "katecY": 520134.91417,
          "latitude": 37.2818355,
          "longitude": 127.4604466,
          "coordinateSource": "katec-converted"
        },
        {
          "id": "A0033581",
          "name": "한길송정주유소",
          "brand": "SK에너지",
          "brandCode": "SKE",
          "price": 1889,
          "address": "경기도 이천시 송정동 230-10",
          "roadAddress": "경기도 이천시 황무로 746(송정동)",
          "katecX": 349833.04131,
          "katecY": 522591.1911,
          "latitude": 37.3038354,
          "longitude": 127.431869,
          "coordinateSource": "katec-converted"
        },
        {
          "id": "A0007109",
          "name": "한길주유소 안산점 한솔유화㈜",
          "brand": "HDO",
          "brandCode": "HDO",
          "price": 1894,
          "address": "경기 안산시 상록구 사사동 614",
          "roadAddress": "경기 안산시 상록구 서해로 2691 (사사동)",
          "katecX": 303726.12565,
          "katecY": 521692.08013,
          "latitude": 37.2920959,
          "longitude": 126.9119443,
          "coordinateSource": "katec-converted"
        },
        {
          "id": "A0005084",
          "name": "세종석유",
          "brand": "S-OIL",
          "brandCode": "SOL",
          "price": 1894,
          "address": "경기 파주시 법원읍 동문리 610-4",
          "roadAddress": "경기 파주시 법원읍 자운서원로 436",
          "katecX": 298492.9,
          "katecY": 585001.4,
          "latitude": 37.8618856,
          "longitude": 126.8441485,
          "coordinateSource": "katec-converted"
        },
        {
          "id": "A0008179",
          "name": "서일석유(주)서일주유소",
          "brand": "GS칼텍스",
          "brandCode": "GSC",
          "price": 1894,
          "address": "경기 안양시 동안구 호계동 966-24",
          "roadAddress": "경기 안양시 동안구 엘에스로 56 (호계동)",
          "katecX": 307538.1783,
          "katecY": 530167.1287,
          "latitude": 37.36884,
          "longitude": 126.9538739,
          "coordinateSource": "katec-converted"
        },
        {
          "id": "A0033070",
          "name": "서일석유(주)용인서일주유소",
          "brand": "GS칼텍스",
          "brandCode": "GSC",
          "price": 1895,
          "address": "경기 용인시 신갈동 405-4",
          "roadAddress": "경기 용인시 기흥구 신수로 70",
          "katecX": 320237.45597,
          "katecY": 519804.64433,
          "latitude": 37.2766553,
          "longitude": 127.098348,
          "coordinateSource": "katec-converted"
        },
        {
          "id": "A0003060",
          "name": "굿모닝주유소",
          "brand": "S-OIL",
          "brandCode": "SOL",
          "price": 1895,
          "address": "경기 평택시 포승면 신영리 413-16",
          "roadAddress": "경기 평택시 포승읍 서동대로 501",
          "katecX": 300252,
          "katecY": 482976,
          "latitude": 36.9429097,
          "longitude": 126.8779278,
          "coordinateSource": "katec-converted"
        },
        {
          "id": "A0003410",
          "name": "두바이주유소",
          "brand": "S-OIL",
          "brandCode": "SOL",
          "price": 1895,
          "address": "경기 평택시 포승읍 만호리 527",
          "roadAddress": "경기 평택시 포승읍 서동대로 713",
          "katecX": 298643.7145,
          "katecY": 484341.1348,
          "latitude": 36.9550374,
          "longitude": 126.8596917,
          "coordinateSource": "katec-converted"
        },
        {
          "id": "A0006874",
          "name": "현대석유(주)현대주유소",
          "brand": "GS칼텍스",
          "brandCode": "GSC",
          "price": 1895,
          "address": "경기 광명시 철산동 9-152",
          "roadAddress": "경기 광명시 남부순환로 997",
          "katecX": 300073.8294,
          "katecY": 543999.6575,
          "latitude": 37.4926845,
          "longitude": 126.8677399,
          "coordinateSource": "katec-converted"
        }
      ]
    },
    {
      "regionCode": "02",
      "regionName": "경기",
      "fuelCode": "D047",
      "fuelName": "경유",
      "stations": [
        {
          "id": "A0005277",
          "name": "대신석유(주)대자주유소",
          "brand": "SK에너지",
          "brandCode": "SKE",
          "price": 1797,
          "address": "경기 고양시 덕양구 대자동 271-8",
          "roadAddress": "경기 고양시 덕양구  통일로 499",
          "katecX": 302043.8781,
          "katecY": 564561.1446,
          "latitude": 37.6781344,
          "longitude": 126.8872605,
          "coordinateSource": "katec-converted"
        },
        {
          "id": "A0003503",
          "name": "중부주유소",
          "brand": "HDO",
          "brandCode": "HDO",
          "price": 1845,
          "address": "경기 하남시 천현동 515-2",
          "roadAddress": "경기 하남시 하남대로 557",
          "katecX": 331343.8946,
          "katecY": 547067.6878,
          "latitude": 37.5231872,
          "longitude": 127.2210379,
          "coordinateSource": "katec-converted"
        },
        {
          "id": "A0001977",
          "name": "대신석유(주)당리주유소",
          "brand": "SK에너지",
          "brandCode": "SKE",
          "price": 1847,
          "address": "경기 군포시 당동 978-6",
          "roadAddress": "경기 군포시 용호1로1번길 16 (당동)",
          "katecX": 306090.062,
          "katecY": 527199.1318,
          "latitude": 37.3419541,
          "longitude": 126.937904,
          "coordinateSource": "katec-converted"
        },
        {
          "id": "A0005511",
          "name": "SK에너지(주) 백마주유소",
          "brand": "SK에너지",
          "brandCode": "SKE",
          "price": 1849,
          "address": "경기 고양시 일산동구 백석동 1236",
          "roadAddress": "경기 고양시 일산동구 중앙로 990 (백석동)",
          "katecX": 293632,
          "katecY": 560422,
          "latitude": 37.6399084,
          "longitude": 126.79252,
          "coordinateSource": "katec-converted"
        },
        {
          "id": "A0008847",
          "name": "(주)남경프라임",
          "brand": "SK에너지",
          "brandCode": "SKE",
          "price": 1859,
          "address": "경기 용인시 기흥구 마북동 169-2",
          "roadAddress": "경기 용인시 기흥구 마북로 130 (마북동)",
          "katecX": 322359.66804,
          "katecY": 522590.46644,
          "latitude": 37.3019356,
          "longitude": 127.1219845,
          "coordinateSource": "katec-converted"
        },
        {
          "id": "A0002449",
          "name": "기쁨가득주유소",
          "brand": "SK에너지",
          "brandCode": "SKE",
          "price": 1859,
          "address": "경기 오산시 갈곶동 254",
          "roadAddress": "경기 오산시 경기대로 56",
          "katecX": 317726,
          "katecY": 503516,
          "latitude": 37.1296738,
          "longitude": 127.0718304,
          "coordinateSource": "katec-converted"
        },
        {
          "id": "A0033818",
          "name": "㈜남경프라임 평택점",
          "brand": "SK에너지",
          "brandCode": "SKE",
          "price": 1859,
          "address": "경기 평택시 비전동 15-2",
          "roadAddress": "경기 평택시 비전4로 188 (비전동)",
          "katecX": 320468.00788,
          "katecY": 490379.91332,
          "latitude": 37.0115501,
          "longitude": 127.10408,
          "coordinateSource": "katec-converted"
        },
        {
          "id": "A0033207",
          "name": "(주)남경석유 길벗주유소",
          "brand": "SK에너지",
          "brandCode": "SKE",
          "price": 1859,
          "address": "경기 화성시 효행구 봉담읍 상리 464-8",
          "roadAddress": "경기 화성시 효행구 봉담읍 삼천병마로 1133",
          "katecX": 306422.60268,
          "katecY": 512360.2008,
          "latitude": 37.2082943,
          "longitude": 126.9435265,
          "coordinateSource": "katec-converted"
        },
        {
          "id": "A0033000",
          "name": "구도일주유소 김포",
          "brand": "S-OIL",
          "brandCode": "SOL",
          "price": 1860,
          "address": "경기 김포시 마산동 618-6",
          "roadAddress": "경기 김포시 김포한강4로 393 (마산동)",
          "katecX": 280161.698,
          "katecY": 561647.17352,
          "latitude": 37.6492843,
          "longitude": 126.6397254,
          "coordinateSource": "katec-converted"
        },
        {
          "id": "A0008889",
          "name": "서일석유(주)기흥서일 주유소",
          "brand": "GS칼텍스",
          "brandCode": "GSC",
          "price": 1875,
          "address": "경기 용인시 기흥구 신갈동 357-2",
          "roadAddress": "경기 용인시 기흥구 신수로 179",
          "katecX": 320266.6593,
          "katecY": 520796.31046,
          "latitude": 37.2855927,
          "longitude": 127.0985708,
          "coordinateSource": "katec-converted"
        },
        {
          "id": "A0007508",
          "name": "현대석유(주)서광주유소",
          "brand": "GS칼텍스",
          "brandCode": "GSC",
          "price": 1875,
          "address": "경기 수원시 장안구 이목동 243-5",
          "roadAddress": "경기 수원시 장안구 서부로 2370 (이목동)",
          "katecX": 310093.4683,
          "katecY": 524331.3828,
          "latitude": 37.3165136,
          "longitude": 126.9834281,
          "coordinateSource": "katec-converted"
        },
        {
          "id": "A0006874",
          "name": "현대석유(주)현대주유소",
          "brand": "GS칼텍스",
          "brandCode": "GSC",
          "price": 1875,
          "address": "경기 광명시 철산동 9-152",
          "roadAddress": "경기 광명시 남부순환로 997",
          "katecX": 300073.8294,
          "katecY": 543999.6575,
          "latitude": 37.4926845,
          "longitude": 126.8677399,
          "coordinateSource": "katec-converted"
        },
        {
          "id": "A0033070",
          "name": "서일석유(주)용인서일주유소",
          "brand": "GS칼텍스",
          "brandCode": "GSC",
          "price": 1875,
          "address": "경기 용인시 신갈동 405-4",
          "roadAddress": "경기 용인시 기흥구 신수로 70",
          "katecX": 320237.45597,
          "katecY": 519804.64433,
          "latitude": 37.2766553,
          "longitude": 127.098348,
          "coordinateSource": "katec-converted"
        },
        {
          "id": "A0033562",
          "name": "한길주유소",
          "brand": "SK에너지",
          "brandCode": "SKE",
          "price": 1879,
          "address": "경기 이천시 갈산동 699-6",
          "roadAddress": "경기 이천시 증신로 42",
          "katecX": 352352.51058,
          "katecY": 520134.91417,
          "latitude": 37.2818355,
          "longitude": 127.4604466,
          "coordinateSource": "katec-converted"
        },
        {
          "id": "A0033581",
          "name": "한길송정주유소",
          "brand": "SK에너지",
          "brandCode": "SKE",
          "price": 1879,
          "address": "경기도 이천시 송정동 230-10",
          "roadAddress": "경기도 이천시 황무로 746(송정동)",
          "katecX": 349833.04131,
          "katecY": 522591.1911,
          "latitude": 37.3038354,
          "longitude": 127.431869,
          "coordinateSource": "katec-converted"
        },
        {
          "id": "A0005084",
          "name": "세종석유",
          "brand": "S-OIL",
          "brandCode": "SOL",
          "price": 1883,
          "address": "경기 파주시 법원읍 동문리 610-4",
          "roadAddress": "경기 파주시 법원읍 자운서원로 436",
          "katecX": 298492.9,
          "katecY": 585001.4,
          "latitude": 37.8618856,
          "longitude": 126.8441485,
          "coordinateSource": "katec-converted"
        },
        {
          "id": "A0008179",
          "name": "서일석유(주)서일주유소",
          "brand": "GS칼텍스",
          "brandCode": "GSC",
          "price": 1884,
          "address": "경기 안양시 동안구 호계동 966-24",
          "roadAddress": "경기 안양시 동안구 엘에스로 56 (호계동)",
          "katecX": 307538.1783,
          "katecY": 530167.1287,
          "latitude": 37.36884,
          "longitude": 126.9538739,
          "coordinateSource": "katec-converted"
        },
        {
          "id": "A0008187",
          "name": "구도일주유소 청강",
          "brand": "S-OIL",
          "brandCode": "SOL",
          "price": 1885,
          "address": "경기 안양시 동안구 비산동 405-24",
          "roadAddress": "경기 안양시 동안구 관악대로 159",
          "katecX": 306525,
          "katecY": 533536,
          "latitude": 37.3990901,
          "longitude": 126.9420105,
          "coordinateSource": "katec-converted"
        },
        {
          "id": "A0001006",
          "name": "㈜JS 프라임주유소",
          "brand": "SK에너지",
          "brandCode": "SKE",
          "price": 1887,
          "address": "경기 파주시 교하읍 동패리 277-20",
          "roadAddress": "경기 파주시 교하읍 교하로 434",
          "katecX": 288273.9293,
          "katecY": 567788.128,
          "latitude": 37.7056283,
          "longitude": 126.7306917,
          "coordinateSource": "katec-converted"
        },
        {
          "id": "A0002511",
          "name": "경진셀프주유소",
          "brand": "SK에너지",
          "brandCode": "SKE",
          "price": 1888,
          "address": "경기 수원시 장안구 파장동 585-4",
          "roadAddress": "경기 수원시 장안구 경수대로 1059",
          "katecX": 311212.00293,
          "katecY": 523376.99537,
          "latitude": 37.3080225,
          "longitude": 126.9961602,
          "coordinateSource": "katec-converted"
        }
      ]
    },
    {
      "regionCode": "02",
      "regionName": "경기",
      "fuelCode": "K015",
      "fuelName": "LPG",
      "stations": [
        {
          "id": "A0007594",
          "name": "SK행복충전 조암충전소",
          "brand": "SK가스",
          "brandCode": "SKG",
          "price": 990,
          "address": "경기 화성시 만세구 우정읍 호곡리 89-1",
          "roadAddress": "경기 화성시 만세구 우정읍 호곡길 84",
          "katecX": 292305,
          "katecY": 502668,
          "latitude": 37.119449,
          "longitude": 126.7859044,
          "coordinateSource": "katec-converted"
        },
        {
          "id": "A0003403",
          "name": "성원이앤에스(주)안성지점",
          "brand": "GS칼텍스",
          "brandCode": "GSC",
          "price": 994,
          "address": "경기 안성시 대덕면 모산리 359-13",
          "roadAddress": "경기 안성시 대덕면 안성대로 1284",
          "katecX": 332379.39956,
          "katecY": 492485.30988,
          "latitude": 37.0314562,
          "longitude": 127.2377274,
          "coordinateSource": "katec-converted"
        },
        {
          "id": "A0003238",
          "name": "(유)유성홀딩스 공도충전소",
          "brand": "SK가스",
          "brandCode": "SKG",
          "price": 995,
          "address": "경기 안성시 공도읍 만정리 290-7",
          "roadAddress": "경기 안성시 공도읍 서동대로 4287-12",
          "katecX": 327160.00289,
          "katecY": 489628.99543,
          "latitude": 37.0053277,
          "longitude": 127.1793436,
          "coordinateSource": "katec-converted"
        },
        {
          "id": "A0003035",
          "name": "평화lpg충전소",
          "brand": "SK에너지",
          "brandCode": "SKE",
          "price": 995,
          "address": "경기 안성시 공도읍 승두리 593-6",
          "roadAddress": "경기 안성시 공도읍 서동대로 4068",
          "katecX": 325389.85097,
          "katecY": 488787.01039,
          "latitude": 36.9976017,
          "longitude": 127.1595394,
          "coordinateSource": "katec-converted"
        },
        {
          "id": "A0010546",
          "name": "녹박재충전소",
          "brand": "자가상표",
          "brandCode": "ETC",
          "price": 996,
          "address": "경기 안성시 죽산면 장릉리 660-4",
          "roadAddress": "경기 안성시 죽산면 서동대로 6516",
          "katecX": 345135.5,
          "katecY": 496570.1,
          "latitude": 37.0690986,
          "longitude": 127.3807985,
          "coordinateSource": "katec-converted"
        },
        {
          "id": "A0033217",
          "name": "비봉충전소 ㈜대원에너지",
          "brand": "HDO",
          "brandCode": "HDO",
          "price": 996,
          "address": "경기 안성시 죽산면 장능리 580",
          "roadAddress": "경기 안성시 죽산면 서동대로 6617",
          "katecX": 346078.32881,
          "katecY": 496938.35038,
          "latitude": 37.0724718,
          "longitude": 127.3913741,
          "coordinateSource": "katec-converted"
        },
        {
          "id": "A0002759",
          "name": "이화LPG충전소",
          "brand": "HDO",
          "brandCode": "HDO",
          "price": 999,
          "address": "경기 안성시 보개면 상삼리 211",
          "roadAddress": "경기 안성시 보개면 서동대로 5894",
          "katecX": 341476.3,
          "katecY": 492034.8,
          "latitude": 37.0280094,
          "longitude": 127.340005,
          "coordinateSource": "katec-converted"
        },
        {
          "id": "A0005301",
          "name": "일산충전소",
          "brand": "SK에너지",
          "brandCode": "SKE",
          "price": 1004,
          "address": "경기 고양시 일산동구 식사동 832-20",
          "roadAddress": "경기 고양시 일산동구 무궁화로 362(식사동)",
          "katecX": 294298,
          "katecY": 564556,
          "latitude": 37.677227,
          "longitude": 126.7994653,
          "coordinateSource": "katec-converted"
        },
        {
          "id": "A0005446",
          "name": "신우에너지(주)",
          "brand": "SK가스",
          "brandCode": "SKG",
          "price": 1004,
          "address": "경기 고양시 일산동구 성석동 1305-5",
          "roadAddress": "경기 고양시 일산동구 고봉로 470",
          "katecX": 292745.65477,
          "katecY": 567163.06735,
          "latitude": 37.7005324,
          "longitude": 126.7814864,
          "coordinateSource": "katec-converted"
        },
        {
          "id": "A0003147",
          "name": "안성에너지",
          "brand": "E1",
          "brandCode": "E1G",
          "price": 1008,
          "address": "경기 안성시 대덕면 모산리 396-3",
          "roadAddress": "경기 안성시 대덕면 만세로 77-1",
          "katecX": 332313,
          "katecY": 491866,
          "latitude": 37.025871,
          "longitude": 127.237037,
          "coordinateSource": "katec-converted"
        },
        {
          "id": "A0008954",
          "name": "희망충전소",
          "brand": "HDO",
          "brandCode": "HDO",
          "price": 1009,
          "address": "경기 화성시 효행구 비봉면 삼화리 4-1",
          "roadAddress": "경기 화성시 효행구 비봉면 비봉로 487",
          "katecX": 298204.0029,
          "katecY": 518021.99536,
          "latitude": 37.2584419,
          "longitude": 126.8501769,
          "coordinateSource": "katec-converted"
        },
        {
          "id": "A0007669",
          "name": "안성맞춤LPG충전소",
          "brand": "SK에너지",
          "brandCode": "SKE",
          "price": 1010,
          "address": "경기 안성시 당왕동 269-3",
          "roadAddress": "경기 안성시 당왕동안성맞춤대로 1253",
          "katecX": 334798.33866,
          "katecY": 491646.81144,
          "latitude": 37.0240722,
          "longitude": 127.264987,
          "coordinateSource": "katec-converted"
        },
        {
          "id": "A0006835",
          "name": "(주)옥산에너지 안성제일충전소",
          "brand": "S-OIL",
          "brandCode": "SOL",
          "price": 1011,
          "address": "경기 안성시 대덕면 소현리 297-1",
          "roadAddress": "경기 안성시 대덕면 서동대로 5059",
          "katecX": 334300,
          "katecY": 491588,
          "latitude": 37.0235074,
          "longitude": 127.2593918,
          "coordinateSource": "katec-converted"
        },
        {
          "id": "A0002387",
          "name": "다인산업(주) 화성충전소",
          "brand": "SK에너지",
          "brandCode": "SKE",
          "price": 1013,
          "address": "경기 화성시 효행구 비봉면 삼화리 773-1",
          "roadAddress": "경기 화성시 효행구 비봉면 비봉로 366",
          "katecX": 298067,
          "katecY": 516845,
          "latitude": 37.2478229,
          "longitude": 126.8487941,
          "coordinateSource": "katec-converted"
        },
        {
          "id": "A0002693",
          "name": "한일크린에너지(주)",
          "brand": "HDO",
          "brandCode": "HDO",
          "price": 1019,
          "address": "경기 안성시 계동5,6",
          "roadAddress": "경기 안성시 안성맞춤대로 872",
          "katecX": 335215,
          "katecY": 488099,
          "latitude": 36.9921323,
          "longitude": 127.2699753,
          "coordinateSource": "katec-converted"
        },
        {
          "id": "A0005464",
          "name": "SK행복충전 원일에너지충전소",
          "brand": "SK가스",
          "brandCode": "SKG",
          "price": 1020,
          "address": "경기 고양시 일산동구 문봉동 195-4",
          "roadAddress": "경기 고양시 일산동구 문원길 37",
          "katecX": 296092,
          "katecY": 568175,
          "latitude": 37.7100345,
          "longitude": 126.8192822,
          "coordinateSource": "katec-converted"
        },
        {
          "id": "A0005483",
          "name": "SK행복충전 신우에너지 신일산충전소",
          "brand": "SK가스",
          "brandCode": "SKG",
          "price": 1024,
          "address": "경기 고양시 일산서구 대화동 59",
          "roadAddress": "경기 고양시 일산서구 경의로 789 (대화동)",
          "katecX": 290610,
          "katecY": 565808,
          "latitude": 37.6880726,
          "longitude": 126.7574768,
          "coordinateSource": "katec-converted"
        },
        {
          "id": "A0033170",
          "name": "야목충전소",
          "brand": "HDO",
          "brandCode": "HDO",
          "price": 1024,
          "address": "경기 화성시 효행구 매송면 야목리 801",
          "roadAddress": "경기 화성시 효행구 매송면 매송로 279",
          "katecX": 301382.68901,
          "katecY": 518176.82344,
          "latitude": 37.2601794,
          "longitude": 126.8859851,
          "coordinateSource": "katec-converted"
        },
        {
          "id": "A0005523",
          "name": "㈜엘아이지휴세코 희망주유소/충전소",
          "brand": "HDO",
          "brandCode": "HDO",
          "price": 1024,
          "address": "경기 고양시 일산서구 덕이동 304-4",
          "roadAddress": "경기 고양시 일산서구 경의로 910",
          "katecX": 290794.7,
          "katecY": 566958.3,
          "latitude": 37.6984571,
          "longitude": 126.7593978,
          "coordinateSource": "katec-converted"
        },
        {
          "id": "A0008228",
          "name": "에스케이원일충정소",
          "brand": "SK가스",
          "brandCode": "SKG",
          "price": 1028,
          "address": "경기 의왕시 학의동 185-1",
          "roadAddress": "경기 의왕시 안양판교로 372",
          "katecX": 312646,
          "katecY": 532684,
          "latitude": 37.3920121,
          "longitude": 127.0112357,
          "coordinateSource": "katec-converted"
        }
      ]
    },
    {
      "regionCode": "03",
      "regionName": "강원",
      "fuelCode": "B027",
      "fuelName": "휘발유",
      "stations": [
        {
          "id": "A0011612",
          "name": "아시아기업㈜ 영진주유소",
          "brand": "S-OIL",
          "brandCode": "SOL",
          "price": 1920,
          "address": "강원 강릉시 연곡면 영진리 291-4",
          "roadAddress": "강원 강릉시 연곡면 동해대로 4276",
          "katecX": 473964.85408,
          "katecY": 584857.10697,
          "latitude": 37.8632741,
          "longitude": 128.8383773,
          "coordinateSource": "katec-converted"
        },
        {
          "id": "A0010479",
          "name": "지에스칼텍스(주) 봄내주유소",
          "brand": "GS칼텍스",
          "brandCode": "GSC",
          "price": 1935,
          "address": "강원 춘천시 퇴계동 197-1",
          "roadAddress": "강원 춘천시 김유정로 1863 (퇴계동)",
          "katecX": 376886.06019,
          "katecY": 583456.16889,
          "latitude": 37.853338,
          "longitude": 127.7350986,
          "coordinateSource": "katec-converted"
        },
        {
          "id": "A0000932",
          "name": "지에스칼텍스(주)신진주유소",
          "brand": "GS칼텍스",
          "brandCode": "GSC",
          "price": 1938,
          "address": "강원 원주시 단계동 43-1",
          "roadAddress": "강원 원주시 북원로 2400",
          "katecX": 394762.1,
          "katecY": 528552.5,
          "latitude": 37.358901,
          "longitude": 127.9386437,
          "coordinateSource": "katec-converted"
        },
        {
          "id": "A0010581",
          "name": "(주)범일로self주유소",
          "brand": "SK에너지",
          "brandCode": "SKE",
          "price": 1950,
          "address": "강원 강릉시 내곡동 238-1",
          "roadAddress": "강원 강릉시 범일로 475",
          "katecX": 477631.00317,
          "katecY": 570128.9956,
          "latitude": 37.7302799,
          "longitude": 128.8784664,
          "coordinateSource": "katec-converted"
        },
        {
          "id": "A0011577",
          "name": "KH에너지㈜직영 교동주유소",
          "brand": "SK에너지",
          "brandCode": "SKE",
          "price": 1950,
          "address": "강원 강릉시 교동 1893",
          "roadAddress": "강원 강릉시 하슬라로 159 (교동)",
          "katecX": 477267.9199,
          "katecY": 574009.603,
          "latitude": 37.7652725,
          "longitude": 128.8747592,
          "coordinateSource": "katec-converted"
        },
        {
          "id": "A0011396",
          "name": "회산주유소",
          "brand": "S-OIL",
          "brandCode": "SOL",
          "price": 1951,
          "address": "강원 강릉시 회산동 234-1",
          "roadAddress": "강원 강릉시 관솔길 27 (회산동)",
          "katecX": 476869.0913,
          "katecY": 571111.1021,
          "latitude": 37.7391922,
          "longitude": 128.8699272,
          "coordinateSource": "katec-converted"
        },
        {
          "id": "A0011415",
          "name": "대동강주유소",
          "brand": "SK에너지",
          "brandCode": "SKE",
          "price": 1952,
          "address": "강원 강릉시 내곡동 165",
          "roadAddress": "강원 강릉시 남부로 67 (내곡동)",
          "katecX": 478431.8009,
          "katecY": 571292.2845,
          "latitude": 37.7406924,
          "longitude": 128.8876754,
          "coordinateSource": "katec-converted"
        },
        {
          "id": "A0011488",
          "name": "솔향주유소",
          "brand": "RTO",
          "brandCode": "RTO",
          "price": 1953,
          "address": "강원 강릉시 홍제동 757-1",
          "roadAddress": "강원 강릉시 공제로437번길 1 (홍제동)",
          "katecX": 476659,
          "katecY": 571877,
          "latitude": 37.7461101,
          "longitude": 128.8676243,
          "coordinateSource": "katec-converted"
        },
        {
          "id": "A0010489",
          "name": "동춘천농협주유소",
          "brand": "농협알뜰",
          "brandCode": "NHO",
          "price": 1959,
          "address": "강원 춘천시 동내면 학곡리 590",
          "roadAddress": "강원 춘천시 동내면 학곡동2길 11",
          "katecX": 379111,
          "katecY": 581732,
          "latitude": 37.837857,
          "longitude": 127.7604322,
          "coordinateSource": "katec-converted"
        },
        {
          "id": "A0010847",
          "name": "무궁화주유소",
          "brand": "HDO",
          "brandCode": "HDO",
          "price": 1959,
          "address": "강원 홍천군 홍천읍 하오안리 166-27",
          "roadAddress": "강원 홍천군 홍천읍 설악로 1277",
          "katecX": 386986.5856,
          "katecY": 562949.2311,
          "latitude": 37.6687645,
          "longitude": 127.8502503,
          "coordinateSource": "katec-converted"
        },
        {
          "id": "A0009978",
          "name": "거두주유소",
          "brand": "GS칼텍스",
          "brandCode": "GSC",
          "price": 1959,
          "address": "강원 춘천시 동내면 거두리 910",
          "roadAddress": "강원도 춘천시 동내면 춘천순환로 59",
          "katecX": 378218.14178,
          "katecY": 583718.13754,
          "latitude": 37.8557315,
          "longitude": 127.7502279,
          "coordinateSource": "katec-converted"
        },
        {
          "id": "A0010808",
          "name": "스카이주유소",
          "brand": "HDO",
          "brandCode": "HDO",
          "price": 1960,
          "address": "강원 홍천군 홍천읍 상오안리 172",
          "roadAddress": "강원 홍천군 홍천읍 설악로 951",
          "katecX": 384301,
          "katecY": 561284,
          "latitude": 37.6537172,
          "longitude": 127.8198442,
          "coordinateSource": "katec-converted"
        },
        {
          "id": "A0010503",
          "name": "KK㈜ 춘천중앙2주유소",
          "brand": "SK에너지",
          "brandCode": "SKE",
          "price": 1965,
          "address": "강원 춘천시 후평동 701-3",
          "roadAddress": "강원 춘천시 후석로 322 (후평동)",
          "katecX": 378232.4031,
          "katecY": 586373.1028,
          "latitude": 37.8796535,
          "longitude": 127.7503092,
          "coordinateSource": "katec-converted"
        },
        {
          "id": "A0010505",
          "name": "KK㈜ 춘천중앙3주유소",
          "brand": "SK에너지",
          "brandCode": "SKE",
          "price": 1965,
          "address": "강원 춘천시 후평동 24-4",
          "roadAddress": "강원 춘천시 후석로 239",
          "katecX": 378406.3203,
          "katecY": 585611.2514,
          "latitude": 37.8727933,
          "longitude": 127.7523093,
          "coordinateSource": "katec-converted"
        },
        {
          "id": "A0010520",
          "name": "KK㈜ 춘천중앙1주유소",
          "brand": "SK에너지",
          "brandCode": "SKE",
          "price": 1965,
          "address": "강원 춘천시 소양로1가 93-8",
          "roadAddress": "강원 춘천시 소양로 206",
          "katecX": 376110,
          "katecY": 587676,
          "latitude": 37.8913392,
          "longitude": 127.7261391,
          "coordinateSource": "katec-converted"
        },
        {
          "id": "A0011525",
          "name": "뉴신일주유소 ㈜씨제이에이치에너지",
          "brand": "SK에너지",
          "brandCode": "SKE",
          "price": 1968,
          "address": "강원 강릉시 홍제동 312",
          "roadAddress": "강원 강릉시 경강로 1889",
          "katecX": 477421.2411,
          "katecY": 572016.4502,
          "latitude": 37.7473025,
          "longitude": 128.8762874,
          "coordinateSource": "katec-converted"
        },
        {
          "id": "A0033584",
          "name": "(주)강릉햇살 유천주유소",
          "brand": "HDO",
          "brandCode": "HDO",
          "price": 1969,
          "address": "강원도 강릉시 유천동 776-5",
          "roadAddress": "강원도 강릉시 사임당로 178(유천동)",
          "katecX": 476514.3959,
          "katecY": 573502.17965,
          "latitude": 37.7607641,
          "longitude": 128.8661543,
          "coordinateSource": "katec-converted"
        },
        {
          "id": "A0010508",
          "name": "㈜케이알산업 춘천(하)주유소/충전소",
          "brand": "고속도로알뜰",
          "brandCode": "RTX",
          "price": 1969,
          "address": "강원 춘천시 동내면 사암리 123-2",
          "roadAddress": "강원 춘천시 동내면 영서로 1432",
          "katecX": 379671.31697,
          "katecY": 578850.87731,
          "latitude": 37.8119101,
          "longitude": 127.7668797,
          "coordinateSource": "katec-converted"
        },
        {
          "id": "A0010431",
          "name": "㈜붕붕붕주유소",
          "brand": "GS칼텍스",
          "brandCode": "GSC",
          "price": 1969,
          "address": "강원 춘천시 석사동 430-1",
          "roadAddress": "강원 춘천시 공지로 156-3",
          "katecX": 377764.15575,
          "katecY": 584168.95196,
          "latitude": 37.8597823,
          "longitude": 127.7450548,
          "coordinateSource": "katec-converted"
        },
        {
          "id": "A0010288",
          "name": "퇴계주유소",
          "brand": "GS칼텍스",
          "brandCode": "GSC",
          "price": 1969,
          "address": "강원 춘천시 퇴계동 1162-1",
          "roadAddress": "강원 춘천시 퇴계로 25",
          "katecX": 375975,
          "katecY": 584841,
          "latitude": 37.8657918,
          "longitude": 127.7246993,
          "coordinateSource": "katec-converted"
        }
      ]
    },
    {
      "regionCode": "03",
      "regionName": "강원",
      "fuelCode": "D047",
      "fuelName": "경유",
      "stations": [
        {
          "id": "A0033584",
          "name": "(주)강릉햇살 유천주유소",
          "brand": "HDO",
          "brandCode": "HDO",
          "price": 1893,
          "address": "강원도 강릉시 유천동 776-5",
          "roadAddress": "강원도 강릉시 사임당로 178(유천동)",
          "katecX": 476514.3959,
          "katecY": 573502.17965,
          "latitude": 37.7607641,
          "longitude": 128.8661543,
          "coordinateSource": "katec-converted"
        },
        {
          "id": "A0011612",
          "name": "아시아기업㈜ 영진주유소",
          "brand": "S-OIL",
          "brandCode": "SOL",
          "price": 1910,
          "address": "강원 강릉시 연곡면 영진리 291-4",
          "roadAddress": "강원 강릉시 연곡면 동해대로 4276",
          "katecX": 473964.85408,
          "katecY": 584857.10697,
          "latitude": 37.8632741,
          "longitude": 128.8383773,
          "coordinateSource": "katec-converted"
        },
        {
          "id": "A0010479",
          "name": "지에스칼텍스(주) 봄내주유소",
          "brand": "GS칼텍스",
          "brandCode": "GSC",
          "price": 1939,
          "address": "강원 춘천시 퇴계동 197-1",
          "roadAddress": "강원 춘천시 김유정로 1863 (퇴계동)",
          "katecX": 376886.06019,
          "katecY": 583456.16889,
          "latitude": 37.853338,
          "longitude": 127.7350986,
          "coordinateSource": "katec-converted"
        },
        {
          "id": "A0011538",
          "name": "(주)진명성덕주유소",
          "brand": "HDO",
          "brandCode": "HDO",
          "price": 1940,
          "address": "강원 강릉시 입암동 423-2",
          "roadAddress": "강원 강릉시 입암로 47 (입암동)",
          "katecX": 480603,
          "katecY": 572489,
          "latitude": 37.7512859,
          "longitude": 128.9124401,
          "coordinateSource": "katec-converted"
        },
        {
          "id": "A0010581",
          "name": "(주)범일로self주유소",
          "brand": "SK에너지",
          "brandCode": "SKE",
          "price": 1940,
          "address": "강원 강릉시 내곡동 238-1",
          "roadAddress": "강원 강릉시 범일로 475",
          "katecX": 477631.00317,
          "katecY": 570128.9956,
          "latitude": 37.7302799,
          "longitude": 128.8784664,
          "coordinateSource": "katec-converted"
        },
        {
          "id": "A0011566",
          "name": "주식회사 백두가스산업",
          "brand": "HDO",
          "brandCode": "HDO",
          "price": 1940,
          "address": "강원 강릉시 연곡면 방내리 187-18",
          "roadAddress": "강원 강릉시 연곡면 동해대로 4357",
          "katecX": 473605.5143,
          "katecY": 585616.8422,
          "latitude": 37.8701478,
          "longitude": 128.834371,
          "coordinateSource": "katec-converted"
        },
        {
          "id": "A0009978",
          "name": "거두주유소",
          "brand": "GS칼텍스",
          "brandCode": "GSC",
          "price": 1940,
          "address": "강원 춘천시 동내면 거두리 910",
          "roadAddress": "강원도 춘천시 동내면 춘천순환로 59",
          "katecX": 378218.14178,
          "katecY": 583718.13754,
          "latitude": 37.8557315,
          "longitude": 127.7502279,
          "coordinateSource": "katec-converted"
        },
        {
          "id": "A0010392",
          "name": "춘천주유소",
          "brand": "SK에너지",
          "brandCode": "SKE",
          "price": 1940,
          "address": "강원 춘천시 효자동 287-1",
          "roadAddress": "강원 춘천시  공지로 234-1 (효자동)",
          "katecX": 377115.7567,
          "katecY": 584606.7506,
          "latitude": 37.8637108,
          "longitude": 127.7376721,
          "coordinateSource": "katec-converted"
        },
        {
          "id": "A0011408",
          "name": "(주)명진에너지 북강릉지점",
          "brand": "SK에너지",
          "brandCode": "SKE",
          "price": 1940,
          "address": "강원 강릉시 연곡면 동덕리 산55-2",
          "roadAddress": "강원 강릉시 연곡면 동해대로 4091",
          "katecX": 474300.1433,
          "katecY": 583122.9017,
          "latitude": 37.8476229,
          "longitude": 128.8420098,
          "coordinateSource": "katec-converted"
        },
        {
          "id": "A0011446",
          "name": "㈜범일로 북강릉주유소",
          "brand": "SK에너지",
          "brandCode": "SKE",
          "price": 1940,
          "address": "강원 강릉시 연곡면 동덕리 259",
          "roadAddress": "강원 강릉시 연곡면 동해대로 4094",
          "katecX": 474361.5,
          "katecY": 583073.8,
          "latitude": 37.8471756,
          "longitude": 128.8427019,
          "coordinateSource": "katec-converted"
        },
        {
          "id": "A0011577",
          "name": "KH에너지㈜직영 교동주유소",
          "brand": "SK에너지",
          "brandCode": "SKE",
          "price": 1940,
          "address": "강원 강릉시 교동 1893",
          "roadAddress": "강원 강릉시 하슬라로 159 (교동)",
          "katecX": 477267.9199,
          "katecY": 574009.603,
          "latitude": 37.7652725,
          "longitude": 128.8747592,
          "coordinateSource": "katec-converted"
        },
        {
          "id": "A0011396",
          "name": "회산주유소",
          "brand": "S-OIL",
          "brandCode": "SOL",
          "price": 1941,
          "address": "강원 강릉시 회산동 234-1",
          "roadAddress": "강원 강릉시 관솔길 27 (회산동)",
          "katecX": 476869.0913,
          "katecY": 571111.1021,
          "latitude": 37.7391922,
          "longitude": 128.8699272,
          "coordinateSource": "katec-converted"
        },
        {
          "id": "A0011415",
          "name": "대동강주유소",
          "brand": "SK에너지",
          "brandCode": "SKE",
          "price": 1942,
          "address": "강원 강릉시 내곡동 165",
          "roadAddress": "강원 강릉시 남부로 67 (내곡동)",
          "katecX": 478431.8009,
          "katecY": 571292.2845,
          "latitude": 37.7406924,
          "longitude": 128.8876754,
          "coordinateSource": "katec-converted"
        },
        {
          "id": "A0011488",
          "name": "솔향주유소",
          "brand": "RTO",
          "brandCode": "RTO",
          "price": 1943,
          "address": "강원 강릉시 홍제동 757-1",
          "roadAddress": "강원 강릉시 공제로437번길 1 (홍제동)",
          "katecX": 476659,
          "katecY": 571877,
          "latitude": 37.7461101,
          "longitude": 128.8676243,
          "coordinateSource": "katec-converted"
        },
        {
          "id": "A0011525",
          "name": "뉴신일주유소 ㈜씨제이에이치에너지",
          "brand": "SK에너지",
          "brandCode": "SKE",
          "price": 1949,
          "address": "강원 강릉시 홍제동 312",
          "roadAddress": "강원 강릉시 경강로 1889",
          "katecX": 477421.2411,
          "katecY": 572016.4502,
          "latitude": 37.7473025,
          "longitude": 128.8762874,
          "coordinateSource": "katec-converted"
        },
        {
          "id": "A0010507",
          "name": "㈜대경유업 퇴계로주유소",
          "brand": "HDO",
          "brandCode": "HDO",
          "price": 1949,
          "address": "강원 춘천시 석사동 818-6",
          "roadAddress": "강원 춘천시 퇴계로 231",
          "katecX": 377692.6239,
          "katecY": 583748.2141,
          "latitude": 37.8559896,
          "longitude": 127.744255,
          "coordinateSource": "katec-converted"
        },
        {
          "id": "A0010489",
          "name": "동춘천농협주유소",
          "brand": "농협알뜰",
          "brandCode": "NHO",
          "price": 1949,
          "address": "강원 춘천시 동내면 학곡리 590",
          "roadAddress": "강원 춘천시 동내면 학곡동2길 11",
          "katecX": 379111,
          "katecY": 581732,
          "latitude": 37.837857,
          "longitude": 127.7604322,
          "coordinateSource": "katec-converted"
        },
        {
          "id": "A0011570",
          "name": "SK에너지㈜ 주문진주유소",
          "brand": "SK에너지",
          "brandCode": "SKE",
          "price": 1949,
          "address": "강원 강릉시 주문진읍 교항리 368-8",
          "roadAddress": "강원 강릉시 주문진읍 신리천로 95",
          "katecX": 472408.8157,
          "katecY": 586910.2467,
          "latitude": 37.8818961,
          "longitude": 128.8208997,
          "coordinateSource": "katec-converted"
        },
        {
          "id": "A0011092",
          "name": "문막IC주유소",
          "brand": "GS칼텍스",
          "brandCode": "GSC",
          "price": 1949,
          "address": "강원 원주시 문막읍 건등1리 320-2",
          "roadAddress": "강원 원주시 문막읍 원문로 1640",
          "katecX": 385134.3,
          "katecY": 524058.9,
          "latitude": 37.3183027,
          "longitude": 127.8300496,
          "coordinateSource": "katec-converted"
        },
        {
          "id": "A0011572",
          "name": "SK에너지㈜ 월드컵주유소",
          "brand": "SK에너지",
          "brandCode": "SKE",
          "price": 1949,
          "address": "강원 강릉시 포남동 1141-3",
          "roadAddress": "강원 강릉시 경강로 2224",
          "katecX": 480089.82358,
          "katecY": 573752.9145,
          "latitude": 37.7627178,
          "longitude": 128.9067563,
          "coordinateSource": "katec-converted"
        }
      ]
    },
    {
      "regionCode": "03",
      "regionName": "강원",
      "fuelCode": "K015",
      "fuelName": "LPG",
      "stations": [
        {
          "id": "A0011515",
          "name": "동방산업(주)충전소",
          "brand": "S-OIL",
          "brandCode": "SOL",
          "price": 1022,
          "address": "강원 평창군 용평면 장평리 204",
          "roadAddress": "강원 평창군 용평면 경강로 1712",
          "katecX": 437160.3,
          "katecY": 554290.6,
          "latitude": 37.5900977,
          "longitude": 128.4185518,
          "coordinateSource": "katec-converted"
        },
        {
          "id": "A0033299",
          "name": "주식회사 세종에너지",
          "brand": "SK에너지",
          "brandCode": "SKE",
          "price": 1028,
          "address": "강원 원주시 지정면 보통리 251-1",
          "roadAddress": "강원 원주시 지정면 보통로 380",
          "katecX": 389105.38812,
          "katecY": 526457.26779,
          "latitude": 37.3399704,
          "longitude": 127.8748181,
          "coordinateSource": "katec-converted"
        },
        {
          "id": "A0011118",
          "name": "원주정우LPG충전소",
          "brand": "E1",
          "brandCode": "E1G",
          "price": 1040,
          "address": "강원 원주시 태장동 2617-23",
          "roadAddress": "강원 원주시 북원로 2826",
          "katecX": 395897.2,
          "katecY": 532560.4,
          "latitude": 37.3950222,
          "longitude": 127.9514343,
          "coordinateSource": "katec-converted"
        },
        {
          "id": "A0011142",
          "name": "대성산업㈜ 원주충전소",
          "brand": "GS칼텍스",
          "brandCode": "GSC",
          "price": 1040,
          "address": "강원 원주시 단계동 199",
          "roadAddress": "강원 원주시 북원로 2302",
          "katecX": 394372.36484,
          "katecY": 527662.84074,
          "latitude": 37.3508819,
          "longitude": 127.9342511,
          "coordinateSource": "katec-converted"
        },
        {
          "id": "A0033450",
          "name": "원주농협충전소",
          "brand": "농협알뜰",
          "brandCode": "NHO",
          "price": 1040,
          "address": "강원 원주시 가현동 369-8",
          "roadAddress": "강원 원주시 호저로 230",
          "katecX": 394621.19475,
          "katecY": 532645.4184,
          "latitude": 37.3957815,
          "longitude": 127.9370223,
          "coordinateSource": "katec-converted"
        },