{
  "mode": "opinet",
  "source": "한국석유공사 오피넷 Open API",
  "generatedAt": "2026-05-16T19:02:58.259Z",
  "notice": "한국석유공사 오피넷 Open API 기준 데이터입니다. 실제 판매 가격과 차이가 있을 수 있습니다.",
  "datasets": [
    {
      "regionCode": "ALL",
      "regionName": "전국",
      "fuelCode": "B027",
      "fuelName": "휘발유",
      "stations": [
        {
          "id": "A0018150",
          "name": "블루그린㈜ 효자1지점",
          "brand": "현대오일뱅크",
          "brandCode": "HDO",
          "price": 1934,
          "address": "전북 전주시 완산구 효자동3가 1046-2",
          "roadAddress": "전북 전주시 완산구 콩쥐팥쥐로 1701",
          "katecX": 317514.8703,
          "katecY": 358396.0072,
          "latitude": 35.8219456,
          "longitude": 127.084959
        },
        {
          "id": "A0018249",
          "name": "(유)백제주유소",
          "brand": "RTO",
          "brandCode": "RTO",
          "price": 1944,
          "address": "전북 전주시 완산구 효자동3가 1155",
          "roadAddress": "전북 전주시 완산구 효자로 67-3 (효자동3가)",
          "katecX": 318222.63609,
          "katecY": 358019.25946,
          "latitude": 35.8186096,
          "longitude": 127.0928295
        },
        {
          "id": "A0013150",
          "name": "충주주유소",
          "brand": "SK에너지",
          "brandCode": "SKE",
          "price": 1949,
          "address": "충북 충주시 봉방동 337-20",
          "roadAddress": "충북 충주시 중원대로 3506 (봉방동)",
          "katecX": 392585.7234,
          "katecY": 485368.4286,
          "latitude": 36.9697393,
          "longitude": 127.9145146
        },
        {
          "id": "A0028484",
          "name": "㈜미니E 직영주유소",
          "brand": "RTO",
          "brandCode": "RTO",
          "price": 1950,
          "address": "경남 창원시 마산회원구 회원동 43-1",
          "roadAddress": "경남 창원시 마산회원구 3.15대로 524",
          "katecX": 452464.98915,
          "katecY": 291495.16461,
          "latitude": 35.2210333,
          "longitude": 128.5741527
        },
        {
          "id": "A0033247",
          "name": "미니주유소",
          "brand": "RTO",
          "brandCode": "RTO",
          "price": 1950,
          "address": "대구 북구 침산동 25-10",
          "roadAddress": "대구 북구 침산남로 224",
          "katecX": 454359.4543,
          "katecY": 365311.65891,
          "latitude": 35.8862636,
          "longitude": 128.5998983
        },
        {
          "id": "A0024530",
          "name": "청하self주유소",
          "brand": "RTO",
          "brandCode": "RTO",
          "price": 1951,
          "address": "경북 포항시 북구 청하면 미남리 133",
          "roadAddress": "경북 포항시 북구 청하면 동해대로 2405",
          "katecX": 520946,
          "katecY": 398970,
          "latitude": 36.1835994,
          "longitude": 129.3424146
        },
        {
          "id": "A0030597",
          "name": "에이디에너지(주)",
          "brand": "RTO",
          "brandCode": "RTO",
          "price": 1953,
          "address": "경남 김해시 안동 257-21",
          "roadAddress": "경남 김해시 김해대로 2651 (안동)",
          "katecX": 483621,
          "katecY": 292635,
          "latitude": 35.2292002,
          "longitude": 128.9164805
        },
        {
          "id": "A0024681",
          "name": "(주)송라오일뱅크",
          "brand": "현대오일뱅크",
          "brandCode": "HDO",
          "price": 1953,
          "address": "경북 포항시 북구 송라면 광천리 40",
          "roadAddress": "경북 포항시 북구 동해대로 2941",
          "katecX": 522430.18536,
          "katecY": 403935.19478,
          "latitude": 36.228151,
          "longitude": 129.3596845
        },
        {
          "id": "A0024455",
          "name": "북포항주유소",
          "brand": "SK에너지",
          "brandCode": "SKE",
          "price": 1953,
          "address": "경북 포항시 북구 청하면 소동리 576-10",
          "roadAddress": "경북 포항시 북구 청하면 동해대로 2123",
          "katecX": 521290.2,
          "katecY": 396268.9,
          "latitude": 36.1592185,
          "longitude": 129.345824
        },
        {
          "id": "A0024102",
          "name": "시선㈜ 경주지점",
          "brand": "RTO",
          "brandCode": "RTO",
          "price": 1953,
          "address": "경북 경주시 동방동 307-1",
          "roadAddress": "경북 경주시 산업로 3585",
          "katecX": 513773,
          "katecY": 357440,
          "latitude": 35.8102424,
          "longitude": 129.2567358
        },
        {
          "id": "A0026409",
          "name": "(주)제이엠제7주유소지점",
          "brand": "RTO",
          "brandCode": "RTO",
          "price": 1954,
          "address": "경북 칠곡군 왜관읍 금산리 860-1",
          "roadAddress": "경북 칠곡군 왜관읍 강변대로 852",
          "katecX": 436251.17307,
          "katecY": 372691.08649,
          "latitude": 35.9536087,
          "longitude": 128.3996716
        },
        {
          "id": "A0024185",
          "name": "삼일주유소",
          "brand": "SK에너지",
          "brandCode": "SKE",
          "price": 1954,
          "address": "경북 경주시 천북면 모아리 973-4",
          "roadAddress": "경북 경주시 천북면 산업로 4866",
          "katecX": 512255.36746,
          "katecY": 368597.53595,
          "latitude": 35.9109598,
          "longitude": 129.2415135
        },
        {
          "id": "A0023692",
          "name": "아스트로주유소",
          "brand": "RTO",
          "brandCode": "RTO",
          "price": 1955,
          "address": "대구 북구 노원동 282-1",
          "roadAddress": "대구 북구 팔달로 215",
          "katecX": 451965.7179,
          "katecY": 365507.5955,
          "latitude": 35.888159,
          "longitude": 128.5733993
        },
        {
          "id": "A0026119",
          "name": "대왕석유무역㈜ 대왕주유소",
          "brand": "현대오일뱅크",
          "brandCode": "HDO",
          "price": 1956,
          "address": "경북 칠곡군 왜관읍 낙산리 630-1",
          "roadAddress": "경북 칠곡군 왜관읍 강변대로 700",
          "katecX": 436566,
          "katecY": 371241,
          "latitude": 35.9405275,
          "longitude": 128.4030951
        },
        {
          "id": "A0031594",
          "name": "럭키스파밸리 직영주유소",
          "brand": "RTO",
          "brandCode": "RTO",
          "price": 1957,
          "address": "울산 울주군 범서읍 굴화리 383-3",
          "roadAddress": "울산 울주군 범서읍 울밀로 2844",
          "katecX": 514358,
          "katecY": 329389,
          "latitude": 35.5573955,
          "longitude": 129.2592289
        },
        {
          "id": "A0024256",
          "name": "불국에너지(주)선덕지점",
          "brand": "현대오일뱅크",
          "brandCode": "HDO",
          "price": 1957,
          "address": "경북 경주시 배반동 336-1",
          "roadAddress": "경북 경주시 산업로 3667",
          "katecX": 513180.00283,
          "katecY": 358007.9959,
          "latitude": 35.8154292,
          "longitude": 129.2502558
        },
        {
          "id": "A0024257",
          "name": "불국에너지(주)",
          "brand": "현대오일뱅크",
          "brandCode": "HDO",
          "price": 1957,
          "address": "경북 경주시 시래동 308-9",
          "roadAddress": "경북 경주시 산업로 2987(시래동)",
          "katecX": 517880,
          "katecY": 353401,
          "latitude": 35.773363,
          "longitude": 129.3015765
        },
        {
          "id": "A0026102",
          "name": "행운에너지",
          "brand": "SK에너지",
          "brandCode": "SKE",
          "price": 1958,
          "address": "경북 칠곡군 약목면 복성리 639-1",
          "roadAddress": "경북 칠곡군 약목면 칠곡대로 504",
          "katecX": 431892.5353,
          "katecY": 382542.8176,
          "latitude": 36.0425531,
          "longitude": 128.3517493
        },
        {
          "id": "A0026114",
          "name": "만남의주유소",
          "brand": "RTO",
          "brandCode": "RTO",
          "price": 1958,
          "address": "경북 칠곡군 가산면 석우리 53-1",
          "roadAddress": "경북 칠곡군 가산면 경북대로 1883",
          "katecX": 449874,
          "katecY": 389776.5,
          "latitude": 36.106996,
          "longitude": 128.5517533
        },
        {
          "id": "A0023664",
          "name": "대광셀프주유소",
          "brand": "RTO",
          "brandCode": "RTO",
          "price": 1958,
          "address": "경북 칠곡군 동명면 봉암리 194-4",
          "roadAddress": "경북 칠곡군 동명면 경북대로 158",
          "katecX": 450152.7328,
          "katecY": 375173.5412,
          "latitude": 35.9753705,
          "longitude": 128.5539265
        }
      ]
    },
    {
      "regionCode": "ALL",
      "regionName": "전국",
      "fuelCode": "D047",
      "fuelName": "경유",
      "stations": [
        {
          "id": "A0018150",
          "name": "블루그린㈜ 효자1지점",
          "brand": "현대오일뱅크",
          "brandCode": "HDO",
          "price": 1924,
          "address": "전북 전주시 완산구 효자동3가 1046-2",
          "roadAddress": "전북 전주시 완산구 콩쥐팥쥐로 1701",
          "katecX": 317514.8703,
          "katecY": 358396.0072,
          "latitude": 35.8219456,
          "longitude": 127.084959
        },
        {
          "id": "A0026119",
          "name": "대왕석유무역㈜ 대왕주유소",
          "brand": "현대오일뱅크",
          "brandCode": "HDO",
          "price": 1929,
          "address": "경북 칠곡군 왜관읍 낙산리 630-1",
          "roadAddress": "경북 칠곡군 왜관읍 강변대로 700",
          "katecX": 436566,
          "katecY": 371241,
          "latitude": 35.9405275,
          "longitude": 128.4030951
        },
        {
          "id": "A0026409",
          "name": "(주)제이엠제7주유소지점",
          "brand": "RTO",
          "brandCode": "RTO",
          "price": 1929,
          "address": "경북 칠곡군 왜관읍 금산리 860-1",
          "roadAddress": "경북 칠곡군 왜관읍 강변대로 852",
          "katecX": 436251.17307,
          "katecY": 372691.08649,
          "latitude": 35.9536087,
          "longitude": 128.3996716
        },
        {
          "id": "A0018249",
          "name": "(유)백제주유소",
          "brand": "RTO",
          "brandCode": "RTO",
          "price": 1934,
          "address": "전북 전주시 완산구 효자동3가 1155",
          "roadAddress": "전북 전주시 완산구 효자로 67-3 (효자동3가)",
          "katecX": 318222.63609,
          "katecY": 358019.25946,
          "latitude": 35.8186096,
          "longitude": 127.0928295
        },
        {
          "id": "A0024382",
          "name": "청명주유소",
          "brand": "SK에너지",
          "brandCode": "SKE",
          "price": 1935,
          "address": "경북 영천시 고경면 덕암리 52-1",
          "roadAddress": "경북 영천시 고경면 호국로 1529",
          "katecX": 498527.00285,
          "katecY": 377393.99585,
          "latitude": 35.9917057,
          "longitude": 129.0905296
        },
        {
          "id": "A0033295",
          "name": "무지개주유소",
          "brand": "자가상표",
          "brandCode": "ETC",
          "price": 1939,
          "address": "충남 서산시 음암면 도당리 28-12",
          "roadAddress": "충남 서산시 음암면 백제사신로 1180",
          "katecX": 269794.95942,
          "katecY": 469197.65964,
          "latitude": 36.8150607,
          "longitude": 126.5384478
        },
        {
          "id": "A0028484",
          "name": "㈜미니E 직영주유소",
          "brand": "RTO",
          "brandCode": "RTO",
          "price": 1940,
          "address": "경남 창원시 마산회원구 회원동 43-1",
          "roadAddress": "경남 창원시 마산회원구 3.15대로 524",
          "katecX": 452464.98915,
          "katecY": 291495.16461,
          "latitude": 35.2210333,
          "longitude": 128.5741527
        },
        {
          "id": "A0033247",
          "name": "미니주유소",
          "brand": "RTO",
          "brandCode": "RTO",
          "price": 1940,
          "address": "대구 북구 침산동 25-10",
          "roadAddress": "대구 북구 침산남로 224",
          "katecX": 454359.4543,
          "katecY": 365311.65891,
          "latitude": 35.8862636,
          "longitude": 128.5998983
        },
        {
          "id": "A0022528",
          "name": "청운주유소",
          "brand": "S-OIL",
          "brandCode": "SOL",
          "price": 1944,
          "address": "전북 김제시 용지면 부교리 194-23",
          "roadAddress": "전북 김제시 용지면 콩쥐팥쥐로 717",
          "katecX": 307961.41996,
          "katecY": 357782.39752,
          "latitude": 35.8155645,
          "longitude": 126.9793166
        },
        {
          "id": "A0032939",
          "name": "탑셀프주유소",
          "brand": "현대오일뱅크",
          "brandCode": "HDO",
          "price": 1945,
          "address": "충남 홍성군 은하면 장척리 40-3",
          "roadAddress": "충남 홍성군 은하면 충서로 87-1",
          "katecX": 276056.51079,
          "katecY": 433298.73803,
          "latitude": 36.4924719,
          "longitude": 126.6144162
        },
        {
          "id": "A0023692",
          "name": "아스트로주유소",
          "brand": "RTO",
          "brandCode": "RTO",
          "price": 1945,
          "address": "대구 북구 노원동 282-1",
          "roadAddress": "대구 북구 팔달로 215",
          "katecX": 451965.7179,
          "katecY": 365507.5955,
          "latitude": 35.888159,
          "longitude": 128.5733993
        },
        {
          "id": "A0030597",
          "name": "에이디에너지(주)",
          "brand": "RTO",
          "brandCode": "RTO",
          "price": 1945,
          "address": "경남 김해시 안동 257-21",
          "roadAddress": "경남 김해시 김해대로 2651 (안동)",
          "katecX": 483621,
          "katecY": 292635,
          "latitude": 35.2292002,
          "longitude": 128.9164805
        },
        {
          "id": "A0026885",
          "name": "팔공제일주유소",
          "brand": "자가상표",
          "brandCode": "ETC",
          "price": 1945,
          "address": "경북 경산시 와촌면 신한리 198",
          "roadAddress": "경북 경산시 와촌면 새터길 99",
          "katecX": 472086.45912,
          "katecY": 373257.12267,
          "latitude": 35.9567301,
          "longitude": 128.7969451
        },
        {
          "id": "A0023664",
          "name": "대광셀프주유소",
          "brand": "RTO",
          "brandCode": "RTO",
          "price": 1949,
          "address": "경북 칠곡군 동명면 봉암리 194-4",
          "roadAddress": "경북 칠곡군 동명면 경북대로 158",
          "katecX": 450152.7328,
          "katecY": 375173.5412,
          "latitude": 35.9753705,
          "longitude": 128.5539265
        },
        {
          "id": "A0026811",
          "name": "흥국주유소",
          "brand": "현대오일뱅크",
          "brandCode": "HDO",
          "price": 1949,
          "address": "경북 경산시 와촌면 소월리 73-1",
          "roadAddress": "경북 경산시 와촌면 금송로 377",
          "katecX": 475508.4009,
          "katecY": 371758.1313,
          "latitude": 35.9429629,
          "longitude": 128.8347342
        },
        {
          "id": "A0026114",
          "name": "만남의주유소",
          "brand": "RTO",
          "brandCode": "RTO",
          "price": 1949,
          "address": "경북 칠곡군 가산면 석우리 53-1",
          "roadAddress": "경북 칠곡군 가산면 경북대로 1883",
          "katecX": 449874,
          "katecY": 389776.5,
          "latitude": 36.106996,
          "longitude": 128.5517533
        },
        {
          "id": "A0020215",
          "name": "시선㈜ 광주서지점",
          "brand": "S-OIL",
          "brandCode": "SOL",
          "price": 1949,
          "address": "광주 서구 매월동 132",
          "roadAddress": "광주 서구 풍서좌로 83",
          "katecX": 296171.7,
          "katecY": 280837,
          "latitude": 35.120945,
          "longitude": 126.8587136
        },
        {
          "id": "A0001245",
          "name": "고암주유소",
          "brand": "SK에너지",
          "brandCode": "SKE",
          "price": 1949,
          "address": "충북 제천시 고암동 264-5",
          "roadAddress": "충북 제천시 내토로 1027",
          "katecX": 421215,
          "katecY": 507133,
          "latitude": 37.1656652,
          "longitude": 128.2366578
        },
        {
          "id": "A0023397",
          "name": "효령주유소",
          "brand": "SK에너지",
          "brandCode": "SKE",
          "price": 1949,
          "address": "대구광역시 군위군 효령면 고곡리 471",
          "roadAddress": "대구광역시 군위군 효령면 경북대로 2164",
          "katecX": 451981.8526,
          "katecY": 390722.2805,
          "latitude": 36.1154097,
          "longitude": 128.575226
        },
        {
          "id": "A0027531",
          "name": "(주)한영 주례지점",
          "brand": "자가상표",
          "brandCode": "ETC",
          "price": 1949,
          "address": "부산 사상구 주례동 7-1",
          "roadAddress": "부산 사상구 백양대로 349 (주례동)",
          "katecX": 492570,
          "katecY": 284245,
          "latitude": 35.1527976,
          "longitude": 129.0138401
        }
      ]
    },
    {
      "regionCode": "01",
      "regionName": "서울",
      "fuelCode": "B027",
      "fuelName": "휘발유",
      "stations": [
        {
          "id": "A0001086",
          "name": "(주)백운주유소",
          "brand": "RTO",
          "brandCode": "RTO",
          "price": 1964,
          "address": "서울 금천구 독산동 1077-3",
          "roadAddress": "서울 금천구 시흥대로 282",
          "katecX": 302825.0476,
          "katecY": 540202.8721,
          "latitude": 37.4587725,
          "longitude": 126.8993489
        },
        {
          "id": "A0001164",
          "name": "(주)화동유업 화동주유소",
          "brand": "SK에너지",
          "brandCode": "SKE",
          "price": 1967,
          "address": "서울 금천구 독산동 967",
          "roadAddress": "서울 금천구 시흥대로 484",
          "katecX": 302821.53096,
          "katecY": 542201.78194,
          "latitude": 37.4767808,
          "longitude": 126.8990451
        },
        {
          "id": "A0001141",
          "name": "㈜씨더블유이엔지",
          "brand": "현대오일뱅크",
          "brandCode": "HDO",
          "price": 1967,
          "address": "서울 금천구 독산동 900-4",
          "roadAddress": "서울 금천구 남부순환로 1410 (독산동)",
          "katecX": 303569.4,
          "katecY": 542566.5,
          "latitude": 37.4801451,
          "longitude": 126.9074514
        },
        {
          "id": "A0001132",
          "name": "㈜씨더블유 이엔지 금천지점",
          "brand": "현대오일뱅크",
          "brandCode": "HDO",
          "price": 1967,
          "address": "서울 금천구 시흥동 860-36",
          "roadAddress": "서울 금천구 독산로 147",
          "katecX": 303289.50294,
          "katecY": 540374.09535,
          "latitude": 37.4603639,
          "longitude": 126.9045755
        },
        {
          "id": "A0000992",
          "name": "신월주유소",
          "brand": "GS칼텍스",
          "brandCode": "GSC",
          "price": 1969,
          "address": "서울 양천구 신월동 534-24",
          "roadAddress": "서울 양천구 신월로 193",
          "katecX": 298014.58083,
          "katecY": 547054.30697,
          "latitude": 37.5199783,
          "longitude": 126.8440326
        },
        {
          "id": "A0000428",
          "name": "주식회사 새서울글로벌",
          "brand": "현대오일뱅크",
          "brandCode": "HDO",
          "price": 1969,
          "address": "서울 동작구 신대방동 686-44",
          "roadAddress": "서울 동작구 시흥대로 616 (신대방동)",
          "katecX": 303404.15715,
          "katecY": 543341.8704,
          "latitude": 37.4871133,
          "longitude": 126.9054815
        },
        {
          "id": "A0000519",
          "name": "화곡역주유소",
          "brand": "RTO",
          "brandCode": "RTO",
          "price": 1979,
          "address": "서울 강서구 화곡동 1076-14",
          "roadAddress": "서울 강서구 강서로 154 (화곡동)",
          "katecX": 297830.02778,
          "katecY": 549333.51356,
          "latitude": 37.5404911,
          "longitude": 126.8416277
        },
        {
          "id": "A0000549",
          "name": "이케이에너지(주) 강서주유소",
          "brand": "현대오일뱅크",
          "brandCode": "HDO",
          "price": 1979,
          "address": "서울 강서구 화곡동 983-1",
          "roadAddress": "서울 강서구 화곡로 273 (화곡동)",
          "katecX": 298318.039,
          "katecY": 550276.2648,
          "latitude": 37.5490384,
          "longitude": 126.8470181
        },
        {
          "id": "A0009939",
          "name": "양운개발 마천로주유소",
          "brand": "SK에너지",
          "brandCode": "SKE",
          "price": 1981,
          "address": "서울 송파구 마천동 31",
          "roadAddress": "서울 송파구 마천로 230",
          "katecX": 324438.9603,
          "katecY": 544568.9477,
          "latitude": 37.500133,
          "longitude": 127.1431851
        },
        {
          "id": "A0001005",
          "name": "현대주유소",
          "brand": "S-OIL",
          "brandCode": "SOL",
          "price": 1984,
          "address": "서울 양천구 신월동 167-1",
          "roadAddress": "서울 양천구 남부순환로 372 (신월동)",
          "katecX": 296738.3507,
          "katecY": 548590.8561,
          "latitude": 37.5336788,
          "longitude": 126.8293814
        },
        {
          "id": "A0000011",
          "name": "이케이에너지(주) 무산주유소",
          "brand": "현대오일뱅크",
          "brandCode": "HDO",
          "price": 1984,
          "address": "서울 양천구 신정3동 1294-6",
          "roadAddress": "서울 양천구 신정로 236",
          "katecX": 298323.406,
          "katecY": 546013.55295,
          "latitude": 37.5106363,
          "longitude": 126.8476698
        },
        {
          "id": "A0001029",
          "name": "(주)타이거오일 신정주유소",
          "brand": "SK에너지",
          "brandCode": "SKE",
          "price": 1984,
          "address": "서울 양천구 신정동 1052-12",
          "roadAddress": "서울 양천구 중앙로 226 (신정동)",
          "katecX": 298952.04545,
          "katecY": 546698.44763,
          "latitude": 37.5168757,
          "longitude": 126.854685
        },
        {
          "id": "A0001015",
          "name": "동일석유㈜개나리주유소",
          "brand": "SK에너지",
          "brandCode": "SKE",
          "price": 1984,
          "address": "서울 양천구 신월동 206-1",
          "roadAddress": "서울 양천구 남부순환로 442 (신월동)",
          "katecX": 297042.8987,
          "katecY": 548004.3926,
          "latitude": 37.5284295,
          "longitude": 126.832909
        },
        {
          "id": "A0000680",
          "name": "서정주유소",
          "brand": "GS칼텍스",
          "brandCode": "GSC",
          "price": 1984,
          "address": "서울 은평구 진관동 240-27",
          "roadAddress": "서울 은평구 통일로 968 (진관동)",
          "katecX": 304825,
          "katecY": 559220,
          "latitude": 37.6303093,
          "longitude": 126.9194817
        },
        {
          "id": "A0009272",
          "name": "(주)연우에너지 신관주유소",
          "brand": "RTO",
          "brandCode": "RTO",
          "price": 1984,
          "address": "서울 관악구 신림동 1641-58",
          "roadAddress": "서울 관악구 신림로 290 (신림동)",
          "katecX": 305616.56394,
          "katecY": 542563.88518,
          "latitude": 37.4803333,
          "longitude": 126.9305948
        },
        {
          "id": "A0001023",
          "name": "㈜자연에너지 남부주유소",
          "brand": "현대오일뱅크",
          "brandCode": "HDO",
          "price": 1984,
          "address": "서울 양천구 신월4동 525-1",
          "roadAddress": "서울 양천구 남부순환로 553",
          "katecX": 297546.1436,
          "katecY": 546999.2892,
          "latitude": 37.5194307,
          "longitude": 126.838742
        },
        {
          "id": "A0000928",
          "name": "(주)대농석유 남태령주유소",
          "brand": "SK에너지",
          "brandCode": "SKE",
          "price": 1985,
          "address": "서울 서초구 방배동 2833",
          "roadAddress": "서울 서초구 과천대로 838 (방배동)",
          "katecX": 310659.3,
          "katecY": 541009.5,
          "latitude": 37.4668313,
          "longitude": 126.9877925
        },
        {
          "id": "A0001157",
          "name": "㈜CW창원",
          "brand": "현대오일뱅크",
          "brandCode": "HDO",
          "price": 1985,
          "address": "서울 관악구 남현동 602-306",
          "roadAddress": "서울 관악구 과천대로 921 (남현동)",
          "katecX": 310169.34427,
          "katecY": 541693.21359,
          "latitude": 37.4729436,
          "longitude": 126.982171
        },
        {
          "id": "A0001034",
          "name": "도림주유소",
          "brand": "RTO",
          "brandCode": "RTO",
          "price": 1987,
          "address": "서울 영등포구 도림동 243-2",
          "roadAddress": "서울 영등포구 도림로 343 (도림동)",
          "katecX": 302974.2252,
          "katecY": 545620.8573,
          "latitude": 37.5075999,
          "longitude": 126.9003196
        },
        {
          "id": "A0000443",
          "name": "성락주유소",
          "brand": "S-OIL",
          "brandCode": "SOL",
          "price": 1987,
          "address": "서울 영등포구 신길5동 355-545",
          "roadAddress": "서울 영등포구 가마산로 414 (신길동)",
          "katecX": 303199,
          "katecY": 545191,
          "latitude": 37.5037509,
          "longitude": 126.9029183
        }
      ]
    },
    {
      "regionCode": "01",
      "regionName": "서울",
      "fuelCode": "D047",
      "fuelName": "경유",
      "stations": [
        {
          "id": "A0001086",
          "name": "(주)백운주유소",
          "brand": "RTO",
          "brandCode": "RTO",
          "price": 1964,
          "address": "서울 금천구 독산동 1077-3",
          "roadAddress": "서울 금천구 시흥대로 282",
          "katecX": 302825.0476,
          "katecY": 540202.8721,
          "latitude": 37.4587725,
          "longitude": 126.8993489
        },
        {
          "id": "A0000992",
          "name": "신월주유소",
          "brand": "GS칼텍스",
          "brandCode": "GSC",
          "price": 1968,
          "address": "서울 양천구 신월동 534-24",
          "roadAddress": "서울 양천구 신월로 193",
          "katecX": 298014.58083,
          "katecY": 547054.30697,
          "latitude": 37.5199783,
          "longitude": 126.8440326
        },
        {
          "id": "A0009939",
          "name": "양운개발 마천로주유소",
          "brand": "SK에너지",
          "brandCode": "SKE",
          "price": 1971,
          "address": "서울 송파구 마천동 31",
          "roadAddress": "서울 송파구 마천로 230",
          "katecX": 324438.9603,
          "katecY": 544568.9477,
          "latitude": 37.500133,
          "longitude": 127.1431851
        },
        {
          "id": "A0001132",
          "name": "㈜씨더블유 이엔지 금천지점",
          "brand": "현대오일뱅크",
          "brandCode": "HDO",
          "price": 1973,
          "address": "서울 금천구 시흥동 860-36",
          "roadAddress": "서울 금천구 독산로 147",
          "katecX": 303289.50294,
          "katecY": 540374.09535,
          "latitude": 37.4603639,
          "longitude": 126.9045755
        },
        {
          "id": "A0001141",
          "name": "㈜씨더블유이엔지",
          "brand": "현대오일뱅크",
          "brandCode": "HDO",
          "price": 1973,
          "address": "서울 금천구 독산동 900-4",
          "roadAddress": "서울 금천구 남부순환로 1410 (독산동)",
          "katecX": 303569.4,
          "katecY": 542566.5,
          "latitude": 37.4801451,
          "longitude": 126.9074514
        },
        {
          "id": "A0001164",
          "name": "(주)화동유업 화동주유소",
          "brand": "SK에너지",
          "brandCode": "SKE",
          "price": 1973,
          "address": "서울 금천구 독산동 967",
          "roadAddress": "서울 금천구 시흥대로 484",
          "katecX": 302821.53096,
          "katecY": 542201.78194,
          "latitude": 37.4767808,
          "longitude": 126.8990451
        },
        {
          "id": "A0000427",
          "name": "영등포제일셀프주유소",
          "brand": "현대오일뱅크",
          "brandCode": "HDO",
          "price": 1977,
          "address": "서울 영등포구 대림동 667-9",
          "roadAddress": "서울 영등포구 가마산로 379",
          "katecX": 302896.0305,
          "katecY": 545023.6863,
          "latitude": 37.5022117,
          "longitude": 126.8995143
        },
        {
          "id": "A0000443",
          "name": "성락주유소",
          "brand": "S-OIL",
          "brandCode": "SOL",
          "price": 1977,
          "address": "서울 영등포구 신길5동 355-545",
          "roadAddress": "서울 영등포구 가마산로 414 (신길동)",
          "katecX": 303199,
          "katecY": 545191,
          "latitude": 37.5037509,
          "longitude": 126.9029183
        },
        {
          "id": "A0001034",
          "name": "도림주유소",
          "brand": "RTO",
          "brandCode": "RTO",
          "price": 1977,
          "address": "서울 영등포구 도림동 243-2",
          "roadAddress": "서울 영등포구 도림로 343 (도림동)",
          "katecX": 302974.2252,
          "katecY": 545620.8573,
          "latitude": 37.5075999,
          "longitude": 126.9003196
        },
        {
          "id": "A0000444",
          "name": "(주)대청에너지 대청주유소",
          "brand": "GS칼텍스",
          "brandCode": "GSC",
          "price": 1977,
          "address": "서울 영등포구 대림동 776-3",
          "roadAddress": "서울 영등포구 가마산로 328 (대림동)",
          "katecX": 302548,
          "katecY": 544624,
          "latitude": 37.4985741,
          "longitude": 126.8956318
        },
        {
          "id": "A0000549",
          "name": "이케이에너지(주) 강서주유소",
          "brand": "현대오일뱅크",
          "brandCode": "HDO",
          "price": 1978,
          "address": "서울 강서구 화곡동 983-1",
          "roadAddress": "서울 강서구 화곡로 273 (화곡동)",
          "katecX": 298318.039,
          "katecY": 550276.2648,
          "latitude": 37.5490384,
          "longitude": 126.8470181
        },
        {
          "id": "A0000519",
          "name": "화곡역주유소",
          "brand": "RTO",
          "brandCode": "RTO",
          "price": 1978,
          "address": "서울 강서구 화곡동 1076-14",
          "roadAddress": "서울 강서구 강서로 154 (화곡동)",
          "katecX": 297830.02778,
          "katecY": 549333.51356,
          "latitude": 37.5404911,
          "longitude": 126.8416277
        },
        {
          "id": "A0000428",
          "name": "주식회사 새서울글로벌",
          "brand": "현대오일뱅크",
          "brandCode": "HDO",
          "price": 1978,
          "address": "서울 동작구 신대방동 686-44",
          "roadAddress": "서울 동작구 시흥대로 616 (신대방동)",
          "katecX": 303404.15715,
          "katecY": 543341.8704,
          "latitude": 37.4871133,
          "longitude": 126.9054815
        },
        {
          "id": "A0009678",
          "name": "북서울고속주유소",
          "brand": "SK에너지",
          "brandCode": "SKE",
          "price": 1982,
          "address": "서울 강북구 수유동 392",
          "roadAddress": "서울 강북구 삼양로 410 (수유동)",
          "katecX": 313458.33212,
          "katecY": 560213.64206,
          "latitude": 37.6401164,
          "longitude": 127.0171611
        },
        {
          "id": "A0009989",
          "name": "상아주유소",
          "brand": "S-OIL",
          "brandCode": "SOL",
          "price": 1983,
          "address": "서울 송파구 마천동 49-11",
          "roadAddress": "서울 송파구 거마로 82",
          "katecX": 324844.3,
          "katecY": 544548.6,
          "latitude": 37.4999828,
          "longitude": 127.147771
        },
        {
          "id": "A0005900",
          "name": "(주)아이에스피에너지(서울서부고속주유소)",
          "brand": "현대오일뱅크",
          "brandCode": "HDO",
          "price": 1983,
          "address": "서울 은평구 응암동 594-1",
          "roadAddress": "서울 은평구 응암로 163",
          "katecX": 304456.00039,
          "katecY": 554380.95521,
          "latitude": 37.5866758,
          "longitude": 126.9159347
        },
        {
          "id": "A0010023",
          "name": "서울이엔지㈜ 이월주유소",
          "brand": "GS칼텍스",
          "brandCode": "GSC",
          "price": 1983,
          "address": "서울 송파구 송파동 174-16",
          "roadAddress": "서울 송파구 송이로 28",
          "katecX": 322087.39514,
          "katecY": 544857.2824,
          "latitude": 37.502535,
          "longitude": 127.1165615
        },
        {
          "id": "A0033600",
          "name": "위례드림주유소",
          "brand": "S-OIL",
          "brandCode": "SOL",
          "price": 1983,
          "address": "서울시 송파구 장지동 646-7",
          "roadAddress": "서울시 송파구  위례중앙로 10",
          "katecX": 323108.45628,
          "katecY": 541830.80795,
          "latitude": 37.4753528,
          "longitude": 127.1284255
        },
        {
          "id": "A0000491",
          "name": "(주)타이거오일 방화주유소",
          "brand": "SK에너지",
          "brandCode": "SKE",
          "price": 1983,
          "address": "서울 강서구 방화동 609-59",
          "roadAddress": "서울 강서구 방화동로 58-2",
          "katecX": 295279,
          "katecY": 552147.9,
          "latitude": 37.5655588,
          "longitude": 126.8123639
        },
        {
          "id": "A0033424",
          "name": "㈜버드에너지 위례제일",
          "brand": "S-OIL",
          "brandCode": "SOL",
          "price": 1983,
          "address": "서울 송파구 거여동 601",
          "roadAddress": "서울 송파구 위례서로 260",
          "katecX": 324357.57594,
          "katecY": 543195.71808,
          "latitude": 37.4877538,
          "longitude": 127.1424062
        }
      ]
    },
    {
      "regionCode": "02",
      "regionName": "경기",
      "fuelCode": "B027",
      "fuelName": "휘발유",
      "stations": [
        {
          "id": "A0007006",
          "name": "㈜현 유니콘주유소",
          "brand": "현대오일뱅크",
          "brandCode": "HDO",
          "price": 1968,
          "address": "경기 평택시 현덕면 권관리 919-10",
          "roadAddress": "경기 평택시 현덕면 서해로 399",
          "katecX": 303570.64463,
          "katecY": 482224.76664,
          "latitude": 36.9364871,
          "longitude": 126.9152756
        },
        {
          "id": "A0002511",
          "name": "경진셀프주유소",
          "brand": "SK에너지",
          "brandCode": "SKE",
          "price": 1968,
          "address": "경기 수원시 장안구 파장동 585-4",
          "roadAddress": "경기 수원시 장안구 경수대로 1059",
          "katecX": 311212.00293,
          "katecY": 523376.99537,
          "latitude": 37.3080225,
          "longitude": 126.9961602
        },
        {
          "id": "A0005920",
          "name": "약대주유소",
          "brand": "S-OIL",
          "brandCode": "SOL",
          "price": 1969,
          "address": "경기 부천시 오정구 내동 55",
          "roadAddress": "경기 부천시 오정구 신흥로 365",
          "katecX": 291906.2286,
          "katecY": 546688.4002,
          "latitude": 37.5159855,
          "longitude": 126.7749983
        },
        {
          "id": "A0005367",
          "name": "구도일주유소 송포",
          "brand": "S-OIL",
          "brandCode": "SOL",
          "price": 1971,
          "address": "경기 고양 일산서 덕이 1363-1 외 2필지",
          "roadAddress": "경기 고양시 일산서구 송산로 494 (덕이동)",
          "katecX": 288443,
          "katecY": 565845,
          "latitude": 37.6881446,
          "longitude": 126.7329066
        },
        {
          "id": "A0006860",
          "name": "시흥주유소",
          "brand": "RTO",
          "brandCode": "RTO",
          "price": 1972,
          "address": "경기 시흥시 신천동 892-4",
          "roadAddress": "경기 시흥시 시흥대로 1049",
          "katecX": 293271.2446,
          "katecY": 537067.2078,
          "latitude": 37.4294686,
          "longitude": 126.7918324
        },
        {
          "id": "A0005579",
          "name": "㈜럭키주유소",
          "brand": "현대오일뱅크",
          "brandCode": "HDO",
          "price": 1973,
          "address": "경기 고양시 일산동구 성석동 984-11",
          "roadAddress": "경기 고양시 일산동구 성현로 58",
          "katecX": 293748.42092,
          "katecY": 567977.05928,
          "latitude": 37.7079822,
          "longitude": 126.7927366
        },
        {
          "id": "A0005149",
          "name": "신덕이로주유소",
          "brand": "SK에너지",
          "brandCode": "SKE",
          "price": 1973,
          "address": "경기 고양시 일산서구 덕이동 475",
          "roadAddress": "경기 고양시 일산서구 덕이로 36 (덕이동)",
          "katecX": 290432.6707,
          "katecY": 565986.3874,
          "latitude": 37.6896584,
          "longitude": 126.7554397
        },
        {
          "id": "A0005281",
          "name": "일광에너비스 덕이동점 ㈜신흥에너비스",
          "brand": "GS칼텍스",
          "brandCode": "GSC",
          "price": 1973,
          "address": "경기 고양시 일산서구 덕이동 1184-1",
          "roadAddress": "경기 고양시 일산서구  덕이로 299",
          "katecX": 288398,
          "katecY": 567392,
          "latitude": 37.702075,
          "longitude": 126.7321592
        },
        {
          "id": "A0005525",
          "name": "㈜보성중산주유소",
          "brand": "SK에너지",
          "brandCode": "SKE",
          "price": 1973,
          "address": "경기 고양시 일산동구 중산동 1710",
          "roadAddress": "경기 고양시 일산동구 고양대로 834 (중산동)",
          "katecX": 293256,
          "katecY": 564974,
          "latitude": 37.6808718,
          "longitude": 126.7875937
        },
        {
          "id": "A0017725",
          "name": "광적주유소",
          "brand": "S-OIL",
          "brandCode": "SOL",
          "price": 1973,
          "address": "경기 양주시 광적면 가납리 444-25",
          "roadAddress": "경기 양주시 광적면 부흥로 917",
          "katecX": 311466.46291,
          "katecY": 579265.73919,
          "latitude": 37.8115684,
          "longitude": 126.9922713
        },
        {
          "id": "A0005606",
          "name": "(주)디오티디 고양야옹이주유소",
          "brand": "현대오일뱅크",
          "brandCode": "HDO",
          "price": 1973,
          "address": "경기 고양시 일산서구 덕이동 805",
          "roadAddress": "경기 고양시 일산서구 덕이로 188 (덕이동)",
          "katecX": 289112.30296,
          "katecY": 566566.09531,
          "latitude": 37.6947217,
          "longitude": 126.7403838
        },
        {
          "id": "A0004529",
          "name": "씨앤에스유통㈜ 장암IC주유소",
          "brand": "S-OIL",
          "brandCode": "SOL",
          "price": 1973,
          "address": "경기 의정부시 신곡동 266-9외10",
          "roadAddress": "경기 의정부시 금신로 30 (신곡동)",
          "katecX": 317604.2,
          "katecY": 569471.1,
          "latitude": 37.7239021,
          "longitude": 127.0630836
        },
        {
          "id": "A0005326",
          "name": "KH에너지㈜직영 애니골2주유소",
          "brand": "SK에너지",
          "brandCode": "SKE",
          "price": 1973,
          "address": "경기 고양시 일산동구 풍동 627-2",
          "roadAddress": "경기 고양시 일산동구 무궁화로 304 (풍동)",
          "katecX": 293824,
          "katecY": 564330,
          "latitude": 37.6751363,
          "longitude": 126.7941258
        },
        {
          "id": "A0005272",
          "name": "안곡주유소",
          "brand": "현대오일뱅크",
          "brandCode": "HDO",
          "price": 1973,
          "address": "경기 고양시 일산동구 중산동 산83-5",
          "roadAddress": "경기 고양시 일산동구 고양대로 831",
          "katecX": 293286.7961,
          "katecY": 565014.8523,
          "latitude": 37.6812434,
          "longitude": 126.7879368
        },
        {
          "id": "A0005436",
          "name": "덕양제7주유소",
          "brand": "RTO",
          "brandCode": "RTO",
          "price": 1973,
          "address": "경기 고양시 일산동구 풍동 655-1",
          "roadAddress": "경기 고양시 일산동구 무궁화로 250 (풍동)",
          "katecX": 293291.3,
          "katecY": 564140.4,
          "latitude": 37.6733664,
          "longitude": 126.788116
        },
        {
          "id": "A0005391",
          "name": "KH에너지㈜직영 애니골주유소",
          "brand": "SK에너지",
          "brandCode": "SKE",
          "price": 1973,
          "address": "경기 고양시 일산동구 풍동 622-1",
          "roadAddress": "경기 고양시 일산동구 무궁화로 307",
          "katecX": 293795,
          "katecY": 564395,
          "latitude": 37.6757185,
          "longitude": 126.7937876
        },
        {
          "id": "A0009185",
          "name": "무지내주유소",
          "brand": "RTO",
          "brandCode": "RTO",
          "price": 1973,
          "address": "경기 시흥시 무지내동 277-1",
          "roadAddress": "경기 시흥시  금오로 144 (무지내동)",
          "katecX": 297552,
          "katecY": 535584,
          "latitude": 37.4165906,
          "longitude": 126.8403979
        },
        {
          "id": "A0006122",
          "name": "㈜원흥.양주지점 제이앤에스",
          "brand": "현대오일뱅크",
          "brandCode": "HDO",
          "price": 1973,
          "address": "경기 양주시 산북동 198-3",
          "roadAddress": "경기 양주시 평화로 1107 (산북동)",
          "katecX": 316375.4981,
          "katecY": 576840.0958,
          "latitude": 37.7901792,
          "longitude": 127.0482971
        },
        {
          "id": "A0005613",
          "name": "태림주유소",
          "brand": "현대오일뱅크",
          "brandCode": "HDO",
          "price": 1973,
          "address": "경기 고양시 일산서구 가좌동 220-1",
          "roadAddress": "경기 고양시 일산서구 송산로 406",
          "katecX": 287648.298,
          "katecY": 565555.1289,
          "latitude": 37.6854362,
          "longitude": 126.7239429
        },
        {
          "id": "A0007077",
          "name": "대야동주유소",
          "brand": "RTO",
          "brandCode": "RTO",
          "price": 1973,
          "address": "경기 시흥시 대야동 362-9",
          "roadAddress": "경기 시흥시 복지로 68",
          "katecX": 293165.6499,
          "katecY": 538804.2813,
          "latitude": 37.4451056,
          "longitude": 126.7903877
        }
      ]
    },
    {
      "regionCode": "02",
      "regionName": "경기",
      "fuelCode": "D047",
      "fuelName": "경유",
      "stations": [
        {
          "id": "A0004627",
          "name": "석우리주유소",
          "brand": "S-OIL",
          "brandCode": "SOL",
          "price": 1953,
          "address": "경기 양주시 광적면 석우리 441-9",
          "roadAddress": "경기 양주시 광적면 광적로 192",
          "katecX": 310089,
          "katecY": 581873,
          "latitude": 37.8349221,
          "longitude": 126.9763051
        },
        {
          "id": "A0004808",
          "name": "서울이엔지㈜ 일월주유소",
          "brand": "현대오일뱅크",
          "brandCode": "HDO",
          "price": 1954,
          "address": "경기 양주시 백석읍 방성리 471-4",
          "roadAddress": "경기 양주시 백석읍 부흥로 1126",
          "katecX": 312834.00301,
          "katecY": 577764.99533,
          "latitude": 37.7981801,
          "longitude": 127.0079814
        },
        {
          "id": "A0004826",
          "name": "하나셀프주유소",
          "brand": "GS칼텍스",
          "brandCode": "GSC",
          "price": 1955,
          "address": "경기 양주시 백석읍 방성리 86-3",
          "roadAddress": "경기 양주시 백석읍 부흥로 1024",
          "katecX": 312246,
          "katecY": 578576,
          "latitude": 37.80543,
          "longitude": 127.0012071
        },
        {
          "id": "A0005003",
          "name": "(주)어하둥둥알뜰주유소",
          "brand": "RTO",
          "brandCode": "RTO",
          "price": 1955,
          "address": "경기 양주시 유양동 612-4",
          "roadAddress": "경기 양주시 부흥로 1300",
          "katecX": 313875.60453,
          "katecY": 576535.82059,
          "latitude": 37.7872053,
          "longitude": 127.0199536
        },
        {
          "id": "A0017725",
          "name": "광적주유소",
          "brand": "S-OIL",
          "brandCode": "SOL",
          "price": 1957,
          "address": "경기 양주시 광적면 가납리 444-25",
          "roadAddress": "경기 양주시 광적면 부흥로 917",
          "katecX": 311466.46291,
          "katecY": 579265.73919,
          "latitude": 37.8115684,
          "longitude": 126.9922713
        },
        {
          "id": "A0004819",
          "name": "㈜제이씨네트웍 양주제일백석점",
          "brand": "현대오일뱅크",
          "brandCode": "HDO",
          "price": 1960,
          "address": "경기 양주시 백석읍 방성리 51-16",
          "roadAddress": "경기 양주시 백석읍 부흥로 991",
          "katecX": 312009,
          "katecY": 578770,
          "latitude": 37.8071549,
          "longitude": 126.9984924
        },
        {
          "id": "A0006860",
          "name": "시흥주유소",
          "brand": "RTO",
          "brandCode": "RTO",
          "price": 1962,
          "address": "경기 시흥시 신천동 892-4",
          "roadAddress": "경기 시흥시 시흥대로 1049",
          "katecX": 293271.2446,
          "katecY": 537067.2078,
          "latitude": 37.4294686,
          "longitude": 126.7918324
        },
        {
          "id": "A0005149",
          "name": "신덕이로주유소",
          "brand": "SK에너지",
          "brandCode": "SKE",
          "price": 1963,
          "address": "경기 고양시 일산서구 덕이동 475",
          "roadAddress": "경기 고양시 일산서구 덕이로 36 (덕이동)",
          "katecX": 290432.6707,
          "katecY": 565986.3874,
          "latitude": 37.6896584,
          "longitude": 126.7554397
        },
        {
          "id": "A0005571",
          "name": "(주)원흥 풍동지점",
          "brand": "현대오일뱅크",
          "brandCode": "HDO",
          "price": 1963,
          "address": "경기 고양시 일산동구 풍동619-2",
          "roadAddress": "경기 고양시 일산동구 무궁화로 299 (풍동)",
          "katecX": 293736.87552,
          "katecY": 564350.87533,
          "latitude": 37.6753142,
          "longitude": 126.7931353
        },
        {
          "id": "A0005266",
          "name": "(주)원흥 원당동지점",
          "brand": "현대오일뱅크",
          "brandCode": "HDO",
          "price": 1963,
          "address": "경기 고양시 덕양구 원당동 179-1",
          "roadAddress": "경기 고양시 덕양구 호국로 1113",
          "katecX": 299700,
          "katecY": 564256,
          "latitude": 37.6751318,
          "longitude": 126.8607354
        },
        {
          "id": "A0005555",
          "name": "(주)원흥 고양동지점",
          "brand": "현대오일뱅크",
          "brandCode": "HDO",
          "price": 1963,
          "address": "경기 고양시 덕양구 고양동 590",
          "roadAddress": "경기 고양시 덕양구 호국로 1789",
          "katecX": 303780.00298,
          "katecY": 568143.99533,
          "latitude": 37.710596,
          "longitude": 126.9064652
        },
        {
          "id": "A0009185",
          "name": "무지내주유소",
          "brand": "RTO",
          "brandCode": "RTO",
          "price": 1963,
          "address": "경기 시흥시 무지내동 277-1",
          "roadAddress": "경기 시흥시  금오로 144 (무지내동)",
          "katecX": 297552,
          "katecY": 535584,
          "latitude": 37.4165906,
          "longitude": 126.8403979
        },
        {
          "id": "A0005326",
          "name": "KH에너지㈜직영 애니골2주유소",
          "brand": "SK에너지",
          "brandCode": "SKE",
          "price": 1963,
          "address": "경기 고양시 일산동구 풍동 627-2",
          "roadAddress": "경기 고양시 일산동구 무궁화로 304 (풍동)",
          "katecX": 293824,
          "katecY": 564330,
          "latitude": 37.6751363,
          "longitude": 126.7941258
        },
        {
          "id": "A0005303",
          "name": "(주)디오티디 고양용가리주유소",
          "brand": "현대오일뱅크",
          "brandCode": "HDO",
          "price": 1963,
          "address": "경기 고양시 일산동구 식사동  571-1",
          "roadAddress": "경기 고양시 일산동구 백마로 590",
          "katecX": 295516,
          "katecY": 563275,
          "latitude": 37.6658267,
          "longitude": 126.8134543
        },
        {
          "id": "A0005463",
          "name": "(주)원흥 원흥동지점",
          "brand": "현대오일뱅크",
          "brandCode": "HDO",
          "price": 1963,
          "address": "경기 고양시 덕양구 원흥동 367",
          "roadAddress": "경기 고양시 덕양구 서오릉로 712 (원흥동)",
          "katecX": 300064.6586,
          "katecY": 560361.0942,
          "latitude": 37.6400831,
          "longitude": 126.8654026
        },
        {
          "id": "A0005436",
          "name": "덕양제7주유소",
          "brand": "RTO",
          "brandCode": "RTO",
          "price": 1963,
          "address": "경기 고양시 일산동구 풍동 655-1",
          "roadAddress": "경기 고양시 일산동구 무궁화로 250 (풍동)",
          "katecX": 293291.3,
          "katecY": 564140.4,
          "latitude": 37.6733664,
          "longitude": 126.788116
        },
        {
          "id": "A0005920",
          "name": "약대주유소",
          "brand": "S-OIL",
          "brandCode": "SOL",
          "price": 1963,
          "address": "경기 부천시 오정구 내동 55",
          "roadAddress": "경기 부천시 오정구 신흥로 365",
          "katecX": 291906.2286,
          "katecY": 546688.4002,
          "latitude": 37.5159855,
          "longitude": 126.7749983
        },
        {
          "id": "A0005154",
          "name": "KH에너지㈜직영 가나주유소",
          "brand": "SK에너지",
          "brandCode": "SKE",
          "price": 1963,
          "address": "경기 고양시 덕양구 벽제동 159-9",
          "roadAddress": "경기 고양시 덕양구 호국로 1941 (벽제동)",
          "katecX": 304888,
          "katecY": 568911,
          "latitude": 37.7176217,
          "longitude": 126.9189293
        },
        {
          "id": "A0005030",
          "name": "(주)교현 알뜰주유소",
          "brand": "RTO",
          "brandCode": "RTO",
          "price": 1963,
          "address": "경기 양주시 장흥면 교현리 333-3",
          "roadAddress": "경기 양주시 장흥면 북한산로 863",
          "katecX": 309314,
          "katecY": 566778,
          "latitude": 37.698855,
          "longitude": 126.9693909
        },
        {
          "id": "A0005297",
          "name": "개나리주유소",
          "brand": "RTO",
          "brandCode": "RTO",
          "price": 1963,
          "address": "경기 고양시 덕양구 벽제동 544-3",
          "roadAddress": "경기 고양시 덕양구 보광로 126 (벽제동)",
          "katecX": 303927.8,
          "katecY": 569871.1,
          "latitude": 37.7261708,
          "longitude": 126.9079128
        }
      ]
    },
    {
      "regionCode": "03",
      "regionName": "강원",
      "fuelCode": "B027",
      "fuelName": "휘발유",
      "stations": [
        {
          "id": "A0011396",
          "name": "회산주유소",
          "brand": "S-OIL",
          "brandCode": "SOL",
          "price": 1966,
          "address": "강원 강릉시 회산동 234-1",
          "roadAddress": "강원 강릉시 관솔길 27 (회산동)",
          "katecX": 476869.0913,
          "katecY": 571111.1021,
          "latitude": 37.7391922,
          "longitude": 128.8699272
        },
        {
          "id": "A0011488",
          "name": "솔향주유소",
          "brand": "RTO",
          "brandCode": "RTO",
          "price": 1968,
          "address": "강원 강릉시 홍제동 757-1",
          "roadAddress": "강원 강릉시 공제로437번길 1 (홍제동)",
          "katecX": 476659,
          "katecY": 571877,
          "latitude": 37.7461101,
          "longitude": 128.8676243
        },
        {
          "id": "A0010431",
          "name": "㈜붕붕붕주유소",
          "brand": "GS칼텍스",
          "brandCode": "GSC",
          "price": 1974,
          "address": "강원 춘천시 석사동 430-1",
          "roadAddress": "강원 춘천시 공지로 156-3",
          "katecX": 377764.15575,
          "katecY": 584168.95196,
          "latitude": 37.8597823,
          "longitude": 127.7450548
        },
        {
          "id": "A0009978",
          "name": "거두주유소",
          "brand": "GS칼텍스",
          "brandCode": "GSC",
          "price": 1974,
          "address": "강원 춘천시 동내면 거두리 910",
          "roadAddress": "강원도 춘천시 동내면 춘천순환로 59",
          "katecX": 378218.14178,
          "katecY": 583718.13754,
          "latitude": 37.8557315,
          "longitude": 127.7502279
        },
        {
          "id": "A0010392",
          "name": "춘천주유소",
          "brand": "SK에너지",
          "brandCode": "SKE",
          "price": 1974,
          "address": "강원 춘천시 효자동 287-1",
          "roadAddress": "강원 춘천시  공지로 234-1 (효자동)",
          "katecX": 377115.7567,
          "katecY": 584606.7506,
          "latitude": 37.8637108,
          "longitude": 127.7376721
        },
        {
          "id": "A0010364",
          "name": "IOZEN(이오젠)",
          "brand": "SK에너지",
          "brandCode": "SKE",
          "price": 1975,
          "address": "강원 춘천시 동내면 고은리 537-1",
          "roadAddress": "강원 춘천시 동내면 순환대로 758",
          "katecX": 380086.1,
          "katecY": 582846.8,
          "latitude": 37.8479236,
          "longitude": 127.7714795
        },
        {
          "id": "A0010481",
          "name": "㈜갤럭시(Galaxy)E＆S",
          "brand": "GS칼텍스",
          "brandCode": "GSC",
          "price": 1975,
          "address": "강원 춘천시 동내면 거두리 682-8",
          "roadAddress": "강원 춘천시 동내면 세실로 20",
          "katecX": 379108.27023,
          "katecY": 584110.51545,
          "latitude": 37.8592879,
          "longitude": 127.7603318
        },
        {
          "id": "A0010293",
          "name": "에이스주유소",
          "brand": "GS칼텍스",
          "brandCode": "GSC",
          "price": 1975,
          "address": "강원 춘천시 효자동 666-2",
          "roadAddress": "강원 춘천시 효자로 94 (효자동)",
          "katecX": 376685.5657,
          "katecY": 585443.334,
          "latitude": 37.8712376,
          "longitude": 127.7327557
        },
        {
          "id": "A0033649",
          "name": "춘천농협주유소 엔타점",
          "brand": "농협알뜰",
          "brandCode": "NHO",
          "price": 1975,
          "address": "강원 춘천시 석사동 980",
          "roadAddress": "강원 춘천시 후석로 120",
          "katecX": 378016.80833,
          "katecY": 584557.98708,
          "latitude": 37.8632938,
          "longitude": 127.7479142
        },
        {
          "id": "A0010326",
          "name": "새춘천주유소",
          "brand": "RTO",
          "brandCode": "RTO",
          "price": 1975,
          "address": "강원 춘천시 동내면 거두리 667-1",
          "roadAddress": "강원 춘천시 동내면 세실로 38",
          "katecX": 379030.8987,
          "katecY": 584271.8049,
          "latitude": 37.8607393,
          "longitude": 127.7594478
        },
        {
          "id": "A0011577",
          "name": "KH에너지㈜직영 교동주유소",
          "brand": "SK에너지",
          "brandCode": "SKE",
          "price": 1979,
          "address": "강원 강릉시 교동 1893",
          "roadAddress": "강원 강릉시 하슬라로 159 (교동)",
          "katecX": 477267.9199,
          "katecY": 574009.603,
          "latitude": 37.7652725,
          "longitude": 128.8747592
        },
        {
          "id": "A0011060",
          "name": "원유주유소",
          "brand": "GS칼텍스",
          "brandCode": "GSC",
          "price": 1983,
          "address": "강원 원주시 단계동 114-6",
          "roadAddress": "강원 원주시 원문로 149 (단계동)",
          "katecX": 394198.91485,
          "katecY": 528155.90609,
          "latitude": 37.3553238,
          "longitude": 127.9322893
        },
        {
          "id": "A0000867",
          "name": "유원주유소",
          "brand": "GS칼텍스",
          "brandCode": "GSC",
          "price": 1983,
          "address": "강원 원주시 단계동 455-16",
          "roadAddress": "강원 원주시 봉화로 87 (단계동)",
          "katecX": 393843.4708,
          "katecY": 527818.0042,
          "latitude": 37.3522766,
          "longitude": 127.9282799
        },
        {
          "id": "A0010994",
          "name": "동명주유소",
          "brand": "RTO",
          "brandCode": "RTO",
          "price": 1983,
          "address": "강원 원주시 태장1동 155",
          "roadAddress": "강원 원주시 치악로 2090 (태장동)",
          "katecX": 396880,
          "katecY": 529274,
          "latitude": 37.3654125,
          "longitude": 127.9625489
        },
        {
          "id": "A0010507",
          "name": "㈜대경유업 퇴계로주유소",
          "brand": "현대오일뱅크",
          "brandCode": "HDO",
          "price": 1985,
          "address": "강원 춘천시 석사동 818-6",
          "roadAddress": "강원 춘천시 퇴계로 231",
          "katecX": 377692.6239,
          "katecY": 583748.2141,
          "latitude": 37.8559896,
          "longitude": 127.744255
        },
        {
          "id": "A0011446",
          "name": "㈜범일로 북강릉주유소",
          "brand": "SK에너지",
          "brandCode": "SKE",
          "price": 1985,
          "address": "강원 강릉시 연곡면 동덕리 259",
          "roadAddress": "강원 강릉시 연곡면 동해대로 4094",
          "katecX": 474361.5,
          "katecY": 583073.8,
          "latitude": 37.8471756,
          "longitude": 128.8427019
        },
        {
          "id": "A0011063",
          "name": "원주서일주유소",
          "brand": "S-OIL",
          "brandCode": "SOL",
          "price": 1986,
          "address": "강원 원주시 단계동 500-1",
          "roadAddress": "강원 원주시 원문로 192 (단계동)",
          "katecX": 393877.36996,
          "katecY": 528260.63533,
          "latitude": 37.3562654,
          "longitude": 127.9286587
        },
        {
          "id": "A0014096",
          "name": "㈜버드에너지 무실제일주유소",
          "brand": "S-OIL",
          "brandCode": "SOL",
          "price": 1987,
          "address": "강원 원주시 무실동 370",
          "roadAddress": "강원 원주시 북원로 2151",
          "katecX": 394031.8084,
          "katecY": 526230.5064,
          "latitude": 37.3379728,
          "longitude": 127.930419
        },
        {
          "id": "A0011176",
          "name": "㈜버드에너지 단계제일",
          "brand": "S-OIL",
          "brandCode": "SOL",
          "price": 1987,
          "address": "강원 원주시 단계동 879-2",
          "roadAddress": "강원 원주시 서원대로 154",
          "katecX": 393832.9854,
          "katecY": 526945.7332,
          "latitude": 37.3444164,
          "longitude": 127.928169
        },
        {
          "id": "A0010529",
          "name": "유정주유소충전소",
          "brand": "GS칼텍스",
          "brandCode": "GSC",
          "price": 1987,
          "address": "강원 춘천시 신동면 증리 179-11",
          "roadAddress": "강원 춘천시 신동면 한치로 966-176",
          "katecX": 374516,
          "katecY": 578055,
          "latitude": 37.8046086,
          "longitude": 127.7083579
        }
      ]
    },
    {
      "regionCode": "03",
      "regionName": "강원",
      "fuelCode": "D047",
      "fuelName": "경유",
      "stations": [
        {
          "id": "A0011396",
          "name": "회산주유소",
          "brand": "S-OIL",
          "brandCode": "SOL",
          "price": 1956,
          "address": "강원 강릉시 회산동 234-1",
          "roadAddress": "강원 강릉시 관솔길 27 (회산동)",
          "katecX": 476869.0913,
          "katecY": 571111.1021,
          "latitude": 37.7391922,
          "longitude": 128.8699272
        },
        {
          "id": "A0011488",
          "name": "솔향주유소",
          "brand": "RTO",
          "brandCode": "RTO",
          "price": 1958,
          "address": "강원 강릉시 홍제동 757-1",
          "roadAddress": "강원 강릉시 공제로437번길 1 (홍제동)",
          "katecX": 476659,
          "katecY": 571877,
          "latitude": 37.7461101,
          "longitude": 128.8676243
        },
        {
          "id": "A0010293",
          "name": "에이스주유소",
          "brand": "GS칼텍스",
          "brandCode": "GSC",
          "price": 1964,
          "address": "강원 춘천시 효자동 666-2",
          "roadAddress": "강원 춘천시 효자로 94 (효자동)",
          "katecX": 376685.5657,
          "katecY": 585443.334,
          "latitude": 37.8712376,
          "longitude": 127.7327557
        },
        {
          "id": "A0010392",
          "name": "춘천주유소",
          "brand": "SK에너지",
          "brandCode": "SKE",
          "price": 1964,
          "address": "강원 춘천시 효자동 287-1",
          "roadAddress": "강원 춘천시  공지로 234-1 (효자동)",
          "katecX": 377115.7567,
          "katecY": 584606.7506,
          "latitude": 37.8637108,
          "longitude": 127.7376721
        },
        {
          "id": "A0009978",
          "name": "거두주유소",
          "brand": "GS칼텍스",
          "brandCode": "GSC",
          "price": 1964,
          "address": "강원 춘천시 동내면 거두리 910",
          "roadAddress": "강원도 춘천시 동내면 춘천순환로 59",
          "katecX": 378218.14178,
          "katecY": 583718.13754,
          "latitude": 37.8557315,
          "longitude": 127.7502279
        },
        {
          "id": "A0010431",
          "name": "㈜붕붕붕주유소",
          "brand": "GS칼텍스",
          "brandCode": "GSC",
          "price": 1964,
          "address": "강원 춘천시 석사동 430-1",
          "roadAddress": "강원 춘천시 공지로 156-3",
          "katecX": 377764.15575,
          "katecY": 584168.95196,
          "latitude": 37.8597823,
          "longitude": 127.7450548
        },
        {
          "id": "A0010326",
          "name": "새춘천주유소",
          "brand": "RTO",
          "brandCode": "RTO",
          "price": 1965,
          "address": "강원 춘천시 동내면 거두리 667-1",
          "roadAddress": "강원 춘천시 동내면 세실로 38",
          "katecX": 379030.8987,
          "katecY": 584271.8049,
          "latitude": 37.8607393,
          "longitude": 127.7594478
        },
        {
          "id": "A0010481",
          "name": "㈜갤럭시(Galaxy)E＆S",
          "brand": "GS칼텍스",
          "brandCode": "GSC",
          "price": 1965,
          "address": "강원 춘천시 동내면 거두리 682-8",
          "roadAddress": "강원 춘천시 동내면 세실로 20",
          "katecX": 379108.27023,
          "katecY": 584110.51545,
          "latitude": 37.8592879,
          "longitude": 127.7603318
        },
        {
          "id": "A0033649",
          "name": "춘천농협주유소 엔타점",
          "brand": "농협알뜰",
          "brandCode": "NHO",
          "price": 1970,
          "address": "강원 춘천시 석사동 980",
          "roadAddress": "강원 춘천시 후석로 120",
          "katecX": 378016.80833,
          "katecY": 584557.98708,
          "latitude": 37.8632938,
          "longitude": 127.7479142
        },
        {
          "id": "A0011553",
          "name": "북강릉농협주유소",
          "brand": "농협알뜰",
          "brandCode": "NHO",
          "price": 1970,
          "address": "강원 강릉시 주문진읍 주문리 1157-8",
          "roadAddress": "강원 강릉시 주문진읍 신영길 43",
          "katecX": 472000.22036,
          "katecY": 589543.3872,
          "latitude": 37.9056512,
          "longitude": 128.8165172
        },
        {
          "id": "A0011150",
          "name": "횡성농협 유현지점주유소",
          "brand": "농협알뜰",
          "brandCode": "NHO",
          "price": 1975,
          "address": "강원 횡성군 서원면 유현리 128-1",
          "roadAddress": "강원 횡성군 서원면 경강로 800",
          "katecX": 389998.5945,
          "katecY": 547190.9416,
          "latitude": 37.5268101,
          "longitude": 127.8846123
        },
        {
          "id": "A0011446",
          "name": "㈜범일로 북강릉주유소",
          "brand": "SK에너지",
          "brandCode": "SKE",
          "price": 1975,
          "address": "강원 강릉시 연곡면 동덕리 259",
          "roadAddress": "강원 강릉시 연곡면 동해대로 4094",
          "katecX": 474361.5,
          "katecY": 583073.8,
          "latitude": 37.8471756,
          "longitude": 128.8427019
        },
        {
          "id": "A0011160",
          "name": "횡성농협클린주유소",
          "brand": "농협알뜰",
          "brandCode": "NHO",
          "price": 1975,
          "address": "강원 횡성군 횡성읍 읍상리 494",
          "roadAddress": "강원 횡성군 횡성읍 한우로 323",
          "katecX": 399201.87945,
          "katecY": 542759.60599,
          "latitude": 37.486936,
          "longitude": 127.988744
        },
        {
          "id": "A0010507",
          "name": "㈜대경유업 퇴계로주유소",
          "brand": "현대오일뱅크",
          "brandCode": "HDO",
          "price": 1975,
          "address": "강원 춘천시 석사동 818-6",
          "roadAddress": "강원 춘천시 퇴계로 231",
          "katecX": 377692.6239,
          "katecY": 583748.2141,
          "latitude": 37.8559896,
          "longitude": 127.744255
        },
        {
          "id": "A0010686",
          "name": "보우㈜ 백마주유소",
          "brand": "현대오일뱅크",
          "brandCode": "HDO",
          "price": 1978,
          "address": "강원 동해시 송정동 1084-1",
          "roadAddress": "강원 동해시 대동로 261-28",
          "katecX": 499385.5909,
          "katecY": 544011.6822,
          "latitude": 37.4928937,
          "longitude": 129.1216884
        },
        {
          "id": "A0011060",
          "name": "원유주유소",
          "brand": "GS칼텍스",
          "brandCode": "GSC",
          "price": 1978,
          "address": "강원 원주시 단계동 114-6",
          "roadAddress": "강원 원주시 원문로 149 (단계동)",
          "katecX": 394198.91485,
          "katecY": 528155.90609,
          "latitude": 37.3553238,
          "longitude": 127.9322893
        },
        {
          "id": "A0000867",
          "name": "유원주유소",
          "brand": "GS칼텍스",
          "brandCode": "GSC",
          "price": 1978,
          "address": "강원 원주시 단계동 455-16",
          "roadAddress": "강원 원주시 봉화로 87 (단계동)",
          "katecX": 393843.4708,
          "katecY": 527818.0042,
          "latitude": 37.3522766,
          "longitude": 127.9282799
        },
        {
          "id": "A0010994",
          "name": "동명주유소",
          "brand": "RTO",
          "brandCode": "RTO",
          "price": 1978,
          "address": "강원 원주시 태장1동 155",
          "roadAddress": "강원 원주시 치악로 2090 (태장동)",
          "katecX": 396880,
          "katecY": 529274,
          "latitude": 37.3654125,
          "longitude": 127.9625489
        },
        {
          "id": "A0011351",
          "name": "강릉햇살주유소",
          "brand": "현대오일뱅크",
          "brandCode": "HDO",
          "price": 1979,
          "address": "강원 강릉시 입암동 413-2",
          "roadAddress": "강원 강릉시 입암로 12 (입암동)",
          "katecX": 480510.7,
          "katecY": 572141.6,
          "latitude": 37.7481642,
          "longitude": 128.9113544
        },
        {
          "id": "A0011577",
          "name": "KH에너지㈜직영 교동주유소",
          "brand": "SK에너지",
          "brandCode": "SKE",
          "price": 1979,
          "address": "강원 강릉시 교동 1893",
          "roadAddress": "강원 강릉시 하슬라로 159 (교동)",
          "katecX": 477267.9199,
          "katecY": 574009.603,
          "latitude": 37.7652725,
          "longitude": 128.8747592
        }
      ]
    },
    {
      "regionCode": "04",
      "regionName": "충북",
      "fuelCode": "B027",
      "fuelName": "휘발유",
      "stations": [
        {
          "id": "A0013150",
          "name": "충주주유소",
          "brand": "SK에너지",
          "brandCode": "SKE",
          "price": 1949,
          "address": "충북 충주시 봉방동 337-20",
          "roadAddress": "충북 충주시 중원대로 3506 (봉방동)",
          "katecX": 392585.7234,
          "katecY": 485368.4286,
          "latitude": 36.9697393,
          "longitude": 127.9145146
        },
        {
          "id": "A0012726",
          "name": "달천주유소",
          "brand": "S-OIL",
          "brandCode": "SOL",
          "price": 1959,
          "address": "충북 충주시 용두동 108-1",
          "roadAddress": "충북 충주시 중원대로 3818",
          "katecX": 389715.9252,
          "katecY": 484520.7732,
          "latitude": 36.9620729,
          "longitude": 127.8822957
        },
        {
          "id": "A0017261",
          "name": "문당주유소",
          "brand": "SK에너지",
          "brandCode": "SKE",
          "price": 1959,
          "address": "충북 괴산군 청안면 문당리 80-8",
          "roadAddress": "충북 괴산군 청안면 질마로 865",
          "katecX": 372454,
          "katecY": 460270,
          "latitude": 36.743182,
          "longitude": 127.6893337
        },
        {
          "id": "A0012731",
          "name": "상평주유소",
          "brand": "자가상표",
          "brandCode": "ETC",
          "price": 1969,
          "address": "충북 음성군 감곡면 상평리 300-2",
          "roadAddress": "충북 음성군 감곡면 감노로 239",
          "katecX": 368262,
          "katecY": 496186.9,
          "latitude": 37.0667179,
          "longitude": 127.6408793
        },
        {
          "id": "A0012072",
          "name": "증평self주유소",
          "brand": "현대오일뱅크",
          "brandCode": "HDO",
          "price": 1969,
          "address": "충북 증평군 연탄리 507-1",
          "roadAddress": "충북 증평군 증평읍 삼보로 7",
          "katecX": 361775.24852,
          "katecY": 465275.00385,
          "latitude": 36.7879134,
          "longitude": 127.5695048
        },
        {
          "id": "A0013115",
          "name": "지엠글로벌㈜ 고속셀프주유소",
          "brand": "S-OIL",
          "brandCode": "SOL",
          "price": 1972,
          "address": "충북 음성군 대소면 태생리 65-5",
          "roadAddress": "충북 음성군 대소면 대금로 607",
          "katecX": 356126.38458,
          "katecY": 485305.08467,
          "latitude": 36.9681677,
          "longitude": 127.5050514
        },
        {
          "id": "A0033663",
          "name": "서울셀프주유소",
          "brand": "GS칼텍스",
          "brandCode": "GSC",
          "price": 1972,
          "address": "충북 음성군 대소면 성본리 381-47",
          "roadAddress": "충북 음성군 대소면 대금로 789",
          "katecX": 357709.57263,
          "katecY": 486239.86822,
          "latitude": 36.9766641,
          "longitude": 127.5227786
        },
        {
          "id": "A0012341",
          "name": "선우셀프주유소",
          "brand": "S-OIL",
          "brandCode": "SOL",
          "price": 1973,
          "address": "충북 증평군 증평읍 연탄리 592-2",
          "roadAddress": "충북 증평군 증평읍 초평로 1742",
          "katecX": 361144,
          "katecY": 465825,
          "latitude": 36.792844,
          "longitude": 127.5624041
        },
        {
          "id": "A0020159",
          "name": "㈜굿에너지",
          "brand": "자가상표",
          "brandCode": "ETC",
          "price": 1974,
          "address": "충북 청주시 청원구 오창읍 두릉리 471-1",
          "roadAddress": "충북 청주시 청원구 오창읍 두릉유리로 18",
          "katecX": 341634.69168,
          "katecY": 459892.73233,
          "latitude": 36.7383811,
          "longitude": 127.3442664
        },
        {
          "id": "A0012523",
          "name": "(주)선우에너지 봉신주유소",
          "brand": "현대오일뱅크",
          "brandCode": "HDO",
          "price": 1975,
          "address": "충북 증평군 증평읍 송산리 288",
          "roadAddress": "충북 증평군 중부로 2371 (증평읍)",
          "katecX": 362304.12125,
          "katecY": 465696.14095,
          "latitude": 36.7917299,
          "longitude": 127.5754094
        },
        {
          "id": "A0009040",
          "name": "해찬주유소",
          "brand": "S-OIL",
          "brandCode": "SOL",
          "price": 1975,
          "address": "충북 증평군 증평읍 송산리 83",
          "roadAddress": "충북 증평군 증평읍 중부로 2475",
          "katecX": 363141.6,
          "katecY": 466225.9,
          "latitude": 36.796537,
          "longitude": 127.5847673
        },
        {
          "id": "A0013336",
          "name": "청화개발주식회사 동호주유소",
          "brand": "SK에너지",
          "brandCode": "SKE",
          "price": 1975,
          "address": "충북 진천군 이월면 신월리 928-5",
          "roadAddress": "충북 진천군 이월면 생거진천로 1963",
          "katecX": 351035.14044,
          "katecY": 479858.8105,
          "latitude": 36.9188377,
          "longitude": 127.4482293
        },
        {
          "id": "A0033621",
          "name": "㈜신화에너지서울 박물관주유소",
          "brand": "SK에너지",
          "brandCode": "SKE",
          "price": 1975,
          "address": "충북 진천군 진천읍 장관리 357-9",
          "roadAddress": "충북 진천군 진천읍 생거진천로 1399",
          "katecX": 349598.72985,
          "katecY": 474555.80356,
          "latitude": 36.8709747,
          "longitude": 127.4324624
        },
        {
          "id": "A0012380",
          "name": "금곡셀프주유소",
          "brand": "현대오일뱅크",
          "brandCode": "HDO",
          "price": 1975,
          "address": "충북 진천군 광혜원면 금곡리 334",
          "roadAddress": "충북 진천군 광혜원면 생거진천로 2377",
          "katecX": 350589.92186,
          "katecY": 483911.30412,
          "latitude": 36.9553326,
          "longitude": 127.4429669
        },
        {
          "id": "A0002005",
          "name": "이포에너지㈜ 금강주유소",
          "brand": "현대오일뱅크",
          "brandCode": "HDO",
          "price": 1975,
          "address": "충북 청주시 서원구 모충동 120-1",
          "roadAddress": "충북 청주시 서원구 청남로 2145",
          "katecX": 354402,
          "katecY": 447038,
          "latitude": 36.6232395,
          "longitude": 127.4879862
        },
        {
          "id": "A0012384",
          "name": "동양주유소",
          "brand": "S-OIL",
          "brandCode": "SOL",
          "price": 1975,
          "address": "충북 진천군 이월면 사곡리 609-3",
          "roadAddress": "충북 진천군 이월면 생거진천로 1491",
          "katecX": 349898.82053,
          "katecY": 475470.2054,
          "latitude": 36.8792307,
          "longitude": 127.4357676
        },
        {
          "id": "A0013732",
          "name": "장관주유소",
          "brand": "GS칼텍스",
          "brandCode": "GSC",
          "price": 1975,
          "address": "충북 진천군 진천읍 장관리 391-7",
          "roadAddress": "충북 진천군 진천읍 생거진천로 1459",
          "katecX": 349758.7,
          "katecY": 475240.9,
          "latitude": 36.8771569,
          "longitude": 127.4342111
        },
        {
          "id": "A0012520",
          "name": "가경주유소",
          "brand": "현대오일뱅크",
          "brandCode": "HDO",
          "price": 1976,
          "address": "충북 청주시 서원구 개신동 689",
          "roadAddress": "충북 청주시 서원구 서부로 1355",
          "katecX": 350853.3887,
          "katecY": 446502.07575,
          "latitude": 36.6182328,
          "longitude": 127.448347
        },
        {
          "id": "A0012246",
          "name": "모충주유소",
          "brand": "현대오일뱅크",
          "brandCode": "HDO",
          "price": 1976,
          "address": "충북 청주시 서원구 모충동 448-1",
          "roadAddress": "충북 청주시 서원구 모충로 112 (모충동)",
          "katecX": 353295,
          "katecY": 447611,
          "latitude": 36.6283495,
          "longitude": 127.4755749
        },
        {
          "id": "A0012494",
          "name": "㈜신화에너지 오해피주유소",
          "brand": "SK에너지",
          "brandCode": "SKE",
          "price": 1978,
          "address": "충북 청주시 서원구 산남동 334-7",
          "roadAddress": "충북 청주시 서원구 구룡산로 217",
          "katecX": 352784,
          "katecY": 446207,
          "latitude": 36.6156716,
          "longitude": 127.4699481
        }
      ]
    },
    {
      "regionCode": "04",
      "regionName": "충북",
      "fuelCode": "D047",
      "fuelName": "경유",
      "stations": [
        {
          "id": "A0001245",
          "name": "고암주유소",
          "brand": "SK에너지",
          "brandCode": "SKE",
          "price": 1949,
          "address": "충북 제천시 고암동 264-5",
          "roadAddress": "충북 제천시 내토로 1027",
          "katecX": 421215,
          "katecY": 507133,
          "latitude": 37.1656652,
          "longitude": 128.2366578
        },
        {
          "id": "A0017261",
          "name": "문당주유소",
          "brand": "SK에너지",
          "brandCode": "SKE",
          "price": 1959,
          "address": "충북 괴산군 청안면 문당리 80-8",
          "roadAddress": "충북 괴산군 청안면 질마로 865",
          "katecX": 372454,
          "katecY": 460270,
          "latitude": 36.743182,
          "longitude": 127.6893337
        },
        {
          "id": "A0012731",
          "name": "상평주유소",
          "brand": "자가상표",
          "brandCode": "ETC",
          "price": 1959,
          "address": "충북 음성군 감곡면 상평리 300-2",
          "roadAddress": "충북 음성군 감곡면 감노로 239",
          "katecX": 368262,
          "katecY": 496186.9,
          "latitude": 37.0667179,
          "longitude": 127.6408793
        },
        {
          "id": "A0020159",
          "name": "㈜굿에너지",
          "brand": "자가상표",
          "brandCode": "ETC",
          "price": 1964,
          "address": "충북 청주시 청원구 오창읍 두릉리 471-1",
          "roadAddress": "충북 청주시 청원구 오창읍 두릉유리로 18",
          "katecX": 341634.69168,
          "katecY": 459892.73233,
          "latitude": 36.7383811,
          "longitude": 127.3442664
        },
        {
          "id": "A0002005",
          "name": "이포에너지㈜ 금강주유소",
          "brand": "현대오일뱅크",
          "brandCode": "HDO",
          "price": 1965,
          "address": "충북 청주시 서원구 모충동 120-1",
          "roadAddress": "충북 청주시 서원구 청남로 2145",
          "katecX": 354402,
          "katecY": 447038,
          "latitude": 36.6232395,
          "longitude": 127.4879862
        },
        {
          "id": "A0012178",
          "name": "장성주유소",
          "brand": "RTO",
          "brandCode": "RTO",
          "price": 1968,
          "address": "충북 청주시 서원구 남이면 양촌리 9-3",
          "roadAddress": "충북 청주시 서원구 남이면 양촌4길 3",
          "katecX": 353239.9,
          "katecY": 443819.1,
          "latitude": 36.5941748,
          "longitude": 127.4751904
        },
        {
          "id": "A0006114",
          "name": "충북석유(주)성화주유소",
          "brand": "SK에너지",
          "brandCode": "SKE",
          "price": 1968,
          "address": "충북 청주시 서원구개신동 321-13",
          "roadAddress": "충청북도 청주시 서원구 서부로 1354",
          "katecX": 350887,
          "katecY": 446428,
          "latitude": 36.617567,
          "longitude": 127.4487275
        },
        {
          "id": "A0013115",
          "name": "지엠글로벌㈜ 고속셀프주유소",
          "brand": "S-OIL",
          "brandCode": "SOL",
          "price": 1968,
          "address": "충북 음성군 대소면 태생리 65-5",
          "roadAddress": "충북 음성군 대소면 대금로 607",
          "katecX": 356126.38458,
          "katecY": 485305.08467,
          "latitude": 36.9681677,
          "longitude": 127.5050514
        },
        {
          "id": "A0033663",
          "name": "서울셀프주유소",
          "brand": "GS칼텍스",
          "brandCode": "GSC",
          "price": 1968,
          "address": "충북 음성군 대소면 성본리 381-47",
          "roadAddress": "충북 음성군 대소면 대금로 789",
          "katecX": 357709.57263,
          "katecY": 486239.86822,
          "latitude": 36.9766641,
          "longitude": 127.5227786
        },
        {
          "id": "A0017342",
          "name": "묵방내수셀프주유소",
          "brand": "현대오일뱅크",
          "brandCode": "HDO",
          "price": 1968,
          "address": "충북 청주시 청원구 내수읍 묵방리 650",
          "roadAddress": "충북 청주시 청원구 내수읍 충청대로 513",
          "katecX": 357203.38396,
          "katecY": 454838.73821,
          "latitude": 36.6936687,
          "longitude": 127.5188688
        },
        {
          "id": "A0026263",
          "name": "대황주유소",
          "brand": "현대오일뱅크",
          "brandCode": "HDO",
          "price": 1969,
          "address": "충북 제천시 봉양읍 원박리 903",
          "roadAddress": "충북 제천시 봉양읍 북부로 913",
          "katecX": 406691.13669,
          "katecY": 504135.99441,
          "latitude": 37.1388718,
          "longitude": 128.0730946
        },
        {
          "id": "A0012009",
          "name": "청주IC주유소",
          "brand": "현대오일뱅크",
          "brandCode": "HDO",
          "price": 1969,
          "address": "충북 청주시 흥덕구 강내면 월곡리 150-86",
          "roadAddress": "충북 청주시 흥덕구 강내면 가로수로 668",
          "katecX": 344179.7,
          "katecY": 447101.3,
          "latitude": 36.6232641,
          "longitude": 127.3736968
        },
        {
          "id": "A0017127",
          "name": "두꺼비주유소",
          "brand": "RTO",
          "brandCode": "RTO",
          "price": 1969,
          "address": "충북 괴산군 청안면 청용리 202",
          "roadAddress": "충북 괴산군 중부로 2974",
          "katecX": 367712.8,
          "katecY": 465855,
          "latitude": 36.7933623,
          "longitude": 127.6360054
        },
        {
          "id": "A0017362",
          "name": "창현주유소",
          "brand": "RTO",
          "brandCode": "RTO",
          "price": 1969,
          "address": "충북 청주시 흥덕구 강내면 탑연리 216-8",
          "roadAddress": "충북 청주시 흥덕구 강내면 가로수로 567-9",
          "katecX": 343275.8,
          "katecY": 447297.1,
          "latitude": 36.624975,
          "longitude": 127.3635769
        },
        {
          "id": "A0017353",
          "name": "영운동셀프주유소",
          "brand": "현대오일뱅크",
          "brandCode": "HDO",
          "price": 1969,
          "address": "충북 청주시 상당구 영운동 169-10",
          "roadAddress": "충북 청주시 상당구 단재로 118-1 (영운동)",
          "katecX": 355242,
          "katecY": 446524,
          "latitude": 36.6186474,
          "longitude": 127.4974075
        },
        {
          "id": "A0012007",
          "name": "맹꽁이주유소",
          "brand": "RTO",
          "brandCode": "RTO",
          "price": 1969,
          "address": "충북 괴산군 문광면 송평리 116-3",
          "roadAddress": "충북 괴산군 문광면 괴산로 3314",
          "katecX": 379589.0029,
          "katecY": 464953.99554,
          "latitude": 36.7855754,
          "longitude": 127.7691035
        },
        {
          "id": "A0017227",
          "name": "스카이주유소",
          "brand": "현대오일뱅크",
          "brandCode": "HDO",
          "price": 1969,
          "address": "충북 괴산군 청안면 청용리 180-2",
          "roadAddress": "충북 괴산군 청안면 중부로 2973",
          "katecX": 367689.4765,
          "katecY": 465929.5235,
          "latitude": 36.7940331,
          "longitude": 127.6357408
        },
        {
          "id": "A0017311",
          "name": "너구리주유소",
          "brand": "RTO",
          "brandCode": "RTO",
          "price": 1969,
          "address": "충북 괴산군 사리면 방축리 236",
          "roadAddress": "충북 괴산군 사리면 중부로 321",
          "katecX": 369116.21437,
          "katecY": 467580.27242,
          "latitude": 36.8089571,
          "longitude": 127.6516602
        },
        {
          "id": "A0012001",
          "name": "거북이주유소",
          "brand": "RTO",
          "brandCode": "RTO",
          "price": 1969,
          "address": "충북 청주시 청원구 북이면 대율리 160-14",
          "roadAddress": "충북 청주시 청원구 북이면 팔결신대로 517",
          "katecX": 357397,
          "katecY": 459468.4,
          "latitude": 36.7353987,
          "longitude": 127.5207764
        },
        {
          "id": "A0016924",
          "name": "(유)그린 주유소",
          "brand": "RTO",
          "brandCode": "RTO",
          "price": 1969,
          "address": "충북 청주시 서원구 개신동 316-4",
          "roadAddress": "충북 청주시 서원구 서부로 1409 (개신동)",
          "katecX": 351380.9459,
          "katecY": 446648.4016,
          "latitude": 36.6195786,
          "longitude": 127.4542354
        }
      ]
    },
    {
      "regionCode": "05",
      "regionName": "충남",
      "fuelCode": "B027",
      "fuelName": "휘발유",
      "stations": [
        {
          "id": "A0016058",
          "name": "천안대로셀프",
          "brand": "S-OIL",
          "brandCode": "SOL",
          "price": 1959,
          "address": "충남 천안시 동남구 원성동 11-11",
          "roadAddress": "충남 천안시 동남구 천안대로 727",
          "katecX": 325646.44184,
          "katecY": 468322.85853,
          "latitude": 36.813224,
          "longitude": 127.1644351
        },
        {
          "id": "A0016250",
          "name": "아평주유소",
          "brand": "현대오일뱅크",
          "brandCode": "HDO",
          "price": 1965,
          "address": "충남 천안시 동남구 신부동 115-61",
          "roadAddress": "충남 천안시 동남구 천안대로 784",
          "katecX": 325709.75549,
          "katecY": 468905.99894,
          "latitude": 36.8184836,
          "longitude": 127.1650876
        },
        {
          "id": "A0016224",
          "name": "(주)대성제2주유소",
          "brand": "GS칼텍스",
          "brandCode": "GSC",
          "price": 1965,
          "address": "충남 천안시 동남구 신부동 115-32",
          "roadAddress": "충남 천안시 동남구 가마골1길 10 (신부동)",
          "katecX": 325559.11593,
          "katecY": 469177.88704,
          "latitude": 36.8209217,
          "longitude": 127.1633726
        },
        {
          "id": "A0015265",
          "name": "우루사Self주유소",
          "brand": "SK에너지",
          "brandCode": "SKE",
          "price": 1968,
          "address": "충남 당진시 신평면 운정리 714-1",
          "roadAddress": "충남 당진시 신평면 서해로 7522",
          "katecX": 294295,
          "katecY": 476159,
          "latitude": 36.8808393,
          "longitude": 126.812015
        },
        {
          "id": "A0001991",
          "name": "비타민 스테이션 ㈜제이메시비타민지점",
          "brand": "현대오일뱅크",
          "brandCode": "HDO",
          "price": 1969,
          "address": "충남 천안시 성정동 703-7",
          "roadAddress": "충남 천안시 서북구  쌍용대로 220",
          "katecX": 323070.6,
          "katecY": 468751.3,
          "latitude": 36.8168783,
          "longitude": 127.1355246
        },
        {
          "id": "A0006842",
          "name": "대성제5주유소",
          "brand": "현대오일뱅크",
          "brandCode": "HDO",
          "price": 1969,
          "address": "충남 천안시 동남구 구성동 314-11",
          "roadAddress": "충남 천안시 동남구 청수로 135",
          "katecX": 325109.1346,
          "katecY": 466227.7043,
          "latitude": 36.7943022,
          "longitude": 127.1586201
        },
        {
          "id": "A0016149",
          "name": "KK㈜ 천안중앙2주유소",
          "brand": "SK에너지",
          "brandCode": "SKE",
          "price": 1969,
          "address": "충남 천안시 서북구 성정동 1099",
          "roadAddress": "충남 천안시 서북구 쌍용대로 215 (성정동)",
          "katecX": 323001,
          "katecY": 468726,
          "latitude": 36.8166446,
          "longitude": 127.1347472
        },
        {
          "id": "A0014719",
          "name": "(주)오케이에너지 수정주유소",
          "brand": "SK에너지",
          "brandCode": "SKE",
          "price": 1969,
          "address": "충남 논산시 연무읍 마전리 287-35",
          "roadAddress": "충남 논산시 연무읍 황화로 116",
          "katecX": 318494.94213,
          "katecY": 387432.19794,
          "latitude": 36.0837037,
          "longitude": 127.0928172
        },
        {
          "id": "A0016904",
          "name": "진우11주유소",
          "brand": "GS칼텍스",
          "brandCode": "GSC",
          "price": 1969,
          "address": "충남 천안시 동남구 봉명동 444",
          "roadAddress": "충남 천안시 동남구 쌍용대로 175",
          "katecX": 322914.67855,
          "katecY": 468327.34911,
          "latitude": 36.8130454,
          "longitude": 127.1338202
        },
        {
          "id": "A0016038",
          "name": "왕대박셀프주유소",
          "brand": "현대오일뱅크",
          "brandCode": "HDO",
          "price": 1974,
          "address": "충남 천안시 서북구 성정동 714-4",
          "roadAddress": "충남 천안시 서북구 성정9길 23-29 (성정동)",
          "katecX": 323662.50388,
          "katecY": 468718.85006,
          "latitude": 36.8166339,
          "longitude": 127.1421616
        },
        {
          "id": "A0014741",
          "name": "처음주유소",
          "brand": "현대오일뱅크",
          "brandCode": "HDO",
          "price": 1975,
          "address": "충남 논산시 연산면 청동리 178-137",
          "roadAddress": "충남 논산시 연산면 계백로 2091",
          "katecX": 328595.14943,
          "katecY": 401287.02587,
          "latitude": 36.2093603,
          "longitude": 127.2036935
        },
        {
          "id": "A0033709",
          "name": "(주)신평믿음오일",
          "brand": "SK에너지",
          "brandCode": "SKE",
          "price": 1976,
          "address": "충청남도 당진시 신평면 거산리 278-1",
          "roadAddress": "충청남도 당진시 신평면 중말길 29-16",
          "katecX": 288824.64224,
          "katecY": 476443.92938,
          "latitude": 36.8827772,
          "longitude": 126.750621
        },
        {
          "id": "A0014531",
          "name": "미래주유소",
          "brand": "RTO",
          "brandCode": "RTO",
          "price": 1977,
          "address": "충남 논산시 연산면 한전리 127-7",
          "roadAddress": "충남 논산시 연산면 계백로 1983",
          "katecX": 327545.00275,
          "katecY": 401184.99552,
          "latitude": 36.2083625,
          "longitude": 127.1920251
        },
        {
          "id": "A0008392",
          "name": "해바라기당진점",
          "brand": "현대오일뱅크",
          "brandCode": "HDO",
          "price": 1978,
          "address": "충남 당진시 송악읍 광명리 236-37",
          "roadAddress": "충남 당진시 송악읍 서해로 6622",
          "katecX": 285911,
          "katecY": 477749,
          "latitude": 36.8941872,
          "longitude": 126.7177465
        },
        {
          "id": "A0014388",
          "name": "한옥마을주유소",
          "brand": "현대오일뱅크",
          "brandCode": "HDO",
          "price": 1979,
          "address": "충남 공주시 신기동 450-1",
          "roadAddress": "충남 공주시 전진배길 283",
          "katecX": 323801.87764,
          "katecY": 425322.38852,
          "latitude": 36.425592,
          "longitude": 127.1480376
        },
        {
          "id": "A0015671",
          "name": "다온주유소",
          "brand": "현대오일뱅크",
          "brandCode": "HDO",
          "price": 1979,
          "address": "충남 천안시 동남구 청수동  231-11",
          "roadAddress": "충남 천안시 동남구 풍세로 930",
          "katecX": 324265.00285,
          "katecY": 465864.99545,
          "latitude": 36.7909666,
          "longitude": 127.1491985
        },
        {
          "id": "A0014911",
          "name": "홍동주유소",
          "brand": "SK에너지",
          "brandCode": "SKE",
          "price": 1979,
          "address": "충남 홍성군 홍동면 신기리 614-4",
          "roadAddress": "충남 홍성군 홍동면 충절로 587",
          "katecX": 284652.726,
          "katecY": 442596.5087,
          "latitude": 36.5773205,
          "longitude": 126.7089472
        },
        {
          "id": "A0014401",
          "name": "㈜삼화에너지 일월",
          "brand": "현대오일뱅크",
          "brandCode": "HDO",
          "price": 1979,
          "address": "충남 공주시 정안면 인풍리 50-27 외 1필지",
          "roadAddress": "충남 공주시 정안면 차령로 3953",
          "katecX": 321672.00282,
          "katecY": 449191.99546,
          "latitude": 36.6405153,
          "longitude": 127.1218593
        },
        {
          "id": "A0015021",
          "name": "태안주유소",
          "brand": "RTO",
          "brandCode": "RTO",
          "price": 1979,
          "address": "충남 태안군 태안읍 남산리 680-1",
          "roadAddress": "충남 태안군 태안읍 안면대로 334",
          "katecX": 246902.00275,
          "katecY": 458977.99533,
          "latitude": 36.7195735,
          "longitude": 126.2840128
        },
        {
          "id": "A0015045",
          "name": "태평주유소",
          "brand": "RTO",
          "brandCode": "RTO",
          "price": 1979,
          "address": "충남 태안군 태안읍 인평2리361-8",
          "roadAddress": "충남 태안군 태안읍 서해로 2139",
          "katecX": 252048,
          "katecY": 463400,
          "latitude": 36.7602242,
          "longitude": 126.3407374
        }
      ]
    },
    {
      "regionCode": "05",
      "regionName": "충남",
      "fuelCode": "D047",
      "fuelName": "경유",
      "stations": [
        {
          "id": "A0033295",
          "name": "무지개주유소",
          "brand": "자가상표",
          "brandCode": "ETC",
          "price": 1939,
          "address": "충남 서산시 음암면 도당리 28-12",
          "roadAddress": "충남 서산시 음암면 백제사신로 1180",
          "katecX": 269794.95942,
          "katecY": 469197.65964,
          "latitude": 36.8150607,
          "longitude": 126.5384478
        },
        {
          "id": "A0032939",
          "name": "탑셀프주유소",
          "brand": "현대오일뱅크",
          "brandCode": "HDO",
          "price": 1945,
          "address": "충남 홍성군 은하면 장척리 40-3",
          "roadAddress": "충남 홍성군 은하면 충서로 87-1",
          "katecX": 276056.51079,
          "katecY": 433298.73803,
          "latitude": 36.4924719,
          "longitude": 126.6144162
        },
        {
          "id": "A0015156",
          "name": "행복주유소",
          "brand": "GS칼텍스",
          "brandCode": "GSC",
          "price": 1953,
          "address": "충남 당진시 신평면 신흥리 59-9",
          "roadAddress": "충남 당진시 신평면 서해로 7410",
          "katecX": 293086.4647,
          "katecY": 475980.0975,
          "latitude": 36.8790911,
          "longitude": 126.7984859
        },
        {
          "id": "A0014719",
          "name": "(주)오케이에너지 수정주유소",
          "brand": "SK에너지",
          "brandCode": "SKE",
          "price": 1959,
          "address": "충남 논산시 연무읍 마전리 287-35",
          "roadAddress": "충남 논산시 연무읍 황화로 116",
          "katecX": 318494.94213,
          "katecY": 387432.19794,
          "latitude": 36.0837037,
          "longitude": 127.0928172
        },
        {
          "id": "A0014748",
          "name": "㈜행운",
          "brand": "GS칼텍스",
          "brandCode": "GSC",
          "price": 1959,
          "address": "충남 논산시 연산면 송정리 343",
          "roadAddress": "충남 논산시 연산면 계백로 2500",
          "katecX": 330818,
          "katecY": 403648,
          "latitude": 36.2307992,
          "longitude": 127.2282034
        },
        {
          "id": "A0015265",
          "name": "우루사Self주유소",
          "brand": "SK에너지",
          "brandCode": "SKE",
          "price": 1963,
          "address": "충남 당진시 신평면 운정리 714-1",
          "roadAddress": "충남 당진시 신평면 서해로 7522",
          "katecX": 294295,
          "katecY": 476159,
          "latitude": 36.8808393,
          "longitude": 126.812015
        },
        {
          "id": "A0015262",
          "name": "(주)서정스타주유소",
          "brand": "S-OIL",
          "brandCode": "SOL",
          "price": 1963,
          "address": "충남 당진시 송악읍 한진리 193-2",
          "roadAddress": "충남 당진시 송악읍 북부산업로 1054",
          "katecX": 290288.1651,
          "katecY": 485613.06844,
          "latitude": 36.9655592,
          "longitude": 126.7657043
        },
        {
          "id": "A0016287",
          "name": "유한회사 우진에너지",
          "brand": "RTO",
          "brandCode": "RTO",
          "price": 1965,
          "address": "충남 보령시 남곡동 288-1",
          "roadAddress": "충남 보령시 대해로 294",
          "katecX": 271783.2675,
          "katecY": 415934.0462,
          "latitude": 36.3354584,
          "longitude": 126.5696059
        },
        {
          "id": "A0014531",
          "name": "미래주유소",
          "brand": "RTO",
          "brandCode": "RTO",
          "price": 1965,
          "address": "충남 논산시 연산면 한전리 127-7",
          "roadAddress": "충남 논산시 연산면 계백로 1983",
          "katecX": 327545.00275,
          "katecY": 401184.99552,
          "latitude": 36.2083625,
          "longitude": 127.1920251
        },
        {
          "id": "A0032692",
          "name": "백두산주유소",
          "brand": "자가상표",
          "brandCode": "ETC",
          "price": 1965,
          "address": "충남 보령시 요암동 371-6",
          "roadAddress": "충남 보령시 대해로 498 (요암동)",
          "katecX": 270336.8,
          "katecY": 414653.8,
          "latitude": 36.3237298,
          "longitude": 126.5537117
        },
        {
          "id": "A0014518",
          "name": "중앙주유소",
          "brand": "GS칼텍스",
          "brandCode": "GSC",
          "price": 1965,
          "address": "충남 논산시 상월면 월오리 141-2",
          "roadAddress": "충남 논산시 상월면 득안대로 3035",
          "katecX": 322353.20484,
          "katecY": 412475.62599,
          "latitude": 36.3097066,
          "longitude": 127.1331688
        },
        {
          "id": "A0015014",
          "name": "서해안이데아주유소",
          "brand": "GS칼텍스",
          "brandCode": "GSC",
          "price": 1965,
          "address": "충남 홍성군 광천읍 은하면 장척리 627-1",
          "roadAddress": "충남 홍성군 은하면 홍남로 435",
          "katecX": 275130.67053,
          "katecY": 433968.3925,
          "latitude": 36.4983849,
          "longitude": 126.603977
        },
        {
          "id": "A0015069",
          "name": "주식회사 우리들",
          "brand": "GS칼텍스",
          "brandCode": "GSC",
          "price": 1965,
          "address": "충남 홍성군 구항면 마온리 1-1",
          "roadAddress": "충청남도 홍성군 구항면 충서로 1067-13",
          "katecX": 279610.16606,
          "katecY": 442164.846,
          "latitude": 36.5728079,
          "longitude": 126.6526848
        },
        {
          "id": "A0016452",
          "name": "계백주유소",
          "brand": "RTO",
          "brandCode": "RTO",
          "price": 1967,
          "address": "충남 논산시 부적면 마구평리 6-92",
          "roadAddress": "충남 논산시 부적면 계백로 1428",
          "katecX": 322571.90275,
          "katecY": 401838.79551,
          "latitude": 36.2138683,
          "longitude": 127.1366594
        },
        {
          "id": "A0017029",
          "name": "금솔주유소",
          "brand": "GS칼텍스",
          "brandCode": "GSC",
          "price": 1969,
          "address": "충남 예산군 예산읍 창소리 644-7",
          "roadAddress": "충남 예산군 예산읍 충서로 1204",
          "katecX": 295906.00281,
          "katecY": 457762.99541,
          "latitude": 36.71527,
          "longitude": 126.8326017
        },
        {
          "id": "A0033628",
          "name": "문정주유소",
          "brand": "GS칼텍스",
          "brandCode": "GSC",
          "price": 1969,
          "address": "충남 서산시 음암면 도당리 115-15",
          "roadAddress": "충남 서산시 음암면 간대산길 66",
          "katecX": 268553.65683,
          "katecY": 469832.80942,
          "latitude": 36.8206109,
          "longitude": 126.5244296
        },
        {
          "id": "A0009048",
          "name": "원성깨비셀프",
          "brand": "현대오일뱅크",
          "brandCode": "HDO",
          "price": 1969,
          "address": "충남 천안시 동남구 원성동 486-4",
          "roadAddress": "충남 천안시 동남구 천안대로 653",
          "katecX": 325601,
          "katecY": 467613,
          "latitude": 36.8068239,
          "longitude": 127.1639954
        },
        {
          "id": "A0016149",
          "name": "KK㈜ 천안중앙2주유소",
          "brand": "SK에너지",
          "brandCode": "SKE",
          "price": 1969,
          "address": "충남 천안시 서북구 성정동 1099",
          "roadAddress": "충남 천안시 서북구 쌍용대로 215 (성정동)",
          "katecX": 323001,
          "katecY": 468726,
          "latitude": 36.8166446,
          "longitude": 127.1347472
        },
        {
          "id": "A0015671",
          "name": "다온주유소",
          "brand": "현대오일뱅크",
          "brandCode": "HDO",
          "price": 1969,
          "address": "충남 천안시 동남구 청수동  231-11",
          "roadAddress": "충남 천안시 동남구 풍세로 930",
          "katecX": 324265.00285,
          "katecY": 465864.99545,
          "latitude": 36.7909666,
          "longitude": 127.1491985
        },
        {
          "id": "A0014435",
          "name": "동현주유소",
          "brand": "RTO",
          "brandCode": "RTO",
          "price": 1969,
          "address": "충남 공주시 장기면 동현리 562-2",
          "roadAddress": "충남 공주시 장기면 차령로 1851",
          "katecX": 325479.966,
          "katecY": 431195.1176,
          "latitude": 36.478646,
          "longitude": 127.1661836
        }
      ]
    },
    {
      "regionCode": "06",
      "regionName": "전북",
      "fuelCode": "B027",
      "fuelName": "휘발유",
      "stations": [
        {
          "id": "A0018150",
          "name": "블루그린㈜ 효자1지점",
          "brand": "현대오일뱅크",
          "brandCode": "HDO",
          "price": 1934,
          "address": "전북 전주시 완산구 효자동3가 1046-2",
          "roadAddress": "전북 전주시 완산구 콩쥐팥쥐로 1701",
          "katecX": 317514.8703,
          "katecY": 358396.0072,
          "latitude": 35.8219456,
          "longitude": 127.084959
        },
        {
          "id": "A0018249",
          "name": "(유)백제주유소",
          "brand": "RTO",
          "brandCode": "RTO",
          "price": 1944,
          "address": "전북 전주시 완산구 효자동3가 1155",
          "roadAddress": "전북 전주시 완산구 효자로 67-3 (효자동3가)",
          "katecX": 318222.63609,
          "katecY": 358019.25946,
          "latitude": 35.8186096,
          "longitude": 127.0928295
        },
        {
          "id": "A0018685",
          "name": "진봉농업협동조합주유소",
          "brand": "현대오일뱅크",
          "brandCode": "HDO",
          "price": 1959,
          "address": "전북 김제시 진봉면 고사리 4-14",
          "roadAddress": "전북 김제시 지평선로 1787",
          "katecX": 288997.75349,
          "katecY": 362603.42927,
          "latitude": 35.8570435,
          "longitude": 126.768833
        },
        {
          "id": "A0018147",
          "name": "보물단지주유소",
          "brand": "RTO",
          "brandCode": "RTO",
          "price": 1959,
          "address": "전북 완주군 봉동읍 구만리 220-1",
          "roadAddress": "전북 완주군 봉동읍 완주로 533",
          "katecX": 324400.44513,
          "katecY": 368311.70674,
          "latitude": 35.9118653,
          "longitude": 127.1602112
        },
        {
          "id": "A0019115",
          "name": "광활농협주유소",
          "brand": "농협알뜰",
          "brandCode": "NHO",
          "price": 1959,
          "address": "전북 김제시 광활면 옥포리 668-10",
          "roadAddress": "전북 김제시 광활면 광활로 470",
          "katecX": 286320.9,
          "katecY": 359877.5,
          "latitude": 35.8321724,
          "longitude": 126.7395908
        },
        {
          "id": "A0018432",
          "name": "㈜태성에너지",
          "brand": "S-OIL",
          "brandCode": "SOL",
          "price": 1961,
          "address": "전북 김제시 금구면 대화리 7-4",
          "roadAddress": "전북 김제시 금구면 선비로 1311",
          "katecX": 314654,
          "katecY": 355042,
          "latitude": 35.7914735,
          "longitude": 127.0536604
        },
        {
          "id": "A0018663",
          "name": "(유)우주에너지주유소/충전소",
          "brand": "현대오일뱅크",
          "brandCode": "HDO",
          "price": 1962,
          "address": "전북 김제시 금구면 용지리10-3",
          "roadAddress": "전북 김제시 금구면 선비로 905",
          "katecX": 311156,
          "katecY": 354105,
          "latitude": 35.7827184,
          "longitude": 127.0150723
        },
        {
          "id": "A0018988",
          "name": "고산주유소",
          "brand": "자가상표",
          "brandCode": "ETC",
          "price": 1965,
          "address": "전북 고창군 신림면 무림리559",
          "roadAddress": "전북 고창군 신림면 고인돌대로 2430",
          "katecX": 282360.8374,
          "katecY": 322571.9705,
          "latitude": 35.4955335,
          "longitude": 126.7012262
        },
        {
          "id": "A0018612",
          "name": "수교주유소",
          "brand": "RTO",
          "brandCode": "RTO",
          "price": 1965,
          "address": "전북 김제시 성덕면 대석리 218-35",
          "roadAddress": "전북 김제시 성덕면 해학로 380",
          "katecX": 292208.76834,
          "katecY": 356425.22304,
          "latitude": 35.8017281,
          "longitude": 126.8052123
        },
        {
          "id": "A0017471",
          "name": "동군산셀프주유소",
          "brand": "RTO",
          "brandCode": "RTO",
          "price": 1965,
          "address": "전북 군산시 대야면 복교리 463-8",
          "roadAddress": "전북 군산시 대야면 만경로 1767",
          "katecX": 294300.5162,
          "katecY": 370721.871,
          "latitude": 35.9307892,
          "longitude": 126.826453
        },
        {
          "id": "A0017955",
          "name": "행복주유소",
          "brand": "RTO",
          "brandCode": "RTO",
          "price": 1965,
          "address": "전북 전주시 덕진구 우아동3가 258-5",
          "roadAddress": "전북 전주시 덕진구 동부대로 641 (우아동3가)",
          "katecX": 324557.2,
          "katecY": 361028.8,
          "latitude": 35.8462414,
          "longitude": 127.1626389
        },
        {
          "id": "A0022666",
          "name": "역전셀프주유소",
          "brand": "RTO",
          "brandCode": "RTO",
          "price": 1965,
          "address": "전북 전주시 덕진구 우아동3가 570-1",
          "roadAddress": "전북 전주시 덕진구  동부대로 748 (우아동3가)",
          "katecX": 324126.0677,
          "katecY": 362030.47794,
          "latitude": 35.8552355,
          "longitude": 127.1577711
        },
        {
          "id": "A0017640",
          "name": "(유)월명주유소",
          "brand": "RTO",
          "brandCode": "RTO",
          "price": 1968,
          "address": "전북 군산시 소룡동 1047-7",
          "roadAddress": "전북 군산시 해망로 517",
          "katecX": 281693.5196,
          "katecY": 376698.5478,
          "latitude": 35.9831971,
          "longitude": 126.6858818
        },