{
  "mode": "opinet",
  "source": "한국석유공사 오피넷 Open API",
  "generatedAt": "2026-05-07T08:42:32.293Z",
  "notice": "한국석유공사 오피넷 Open API 기준 데이터입니다. 실제 판매 가격과 차이가 있을 수 있습니다.",
  "datasets": [
    {
      "regionCode": "ALL",
      "regionName": "전국",
      "fuelCode": "B027",
      "fuelName": "휘발유",
      "stations": [
        {
          "id": "A0014172",
          "name": "대일종합에너지주유소 태전점",
          "brand": "현대오일뱅크",
          "brandCode": "HDO",
          "price": 1939,
          "address": "대구 북구 태전동 148-7",
          "roadAddress": "대구 북구 태전로 14 (태전동)",
          "katecX": 449464.77744,
          "katecY": 369233.75327,
          "latitude": 35.9218714,
          "longitude": 128.5459301
        },
        {
          "id": "A0024102",
          "name": "시선㈜ 경주지점",
          "brand": "RTO",
          "brandCode": "RTO",
          "price": 1947,
          "address": "경북 경주시 동방동 307-1",
          "roadAddress": "경북 경주시 산업로 3585",
          "katecX": 513773,
          "katecY": 357440,
          "latitude": 35.8102424,
          "longitude": 129.2567358
        },
        {
          "id": "A0021958",
          "name": "천포주유소",
          "brand": "S-OIL",
          "brandCode": "SOL",
          "price": 1950,
          "address": "전남 보성군 회천면 화죽리 417",
          "roadAddress": "전남 보성군 회천면 충의로 792",
          "katecX": 319805,
          "katecY": 236020,
          "latitude": 34.7191427,
          "longitude": 127.1222798
        },
        {
          "id": "A0028484",
          "name": "㈜미니E 직영주유소",
          "brand": "RTO",
          "brandCode": "RTO",
          "price": 1950,
          "address": "경남 창원시 마산회원구 회원동 43-1",
          "roadAddress": "경남 창원시 마산회원구 3.15대로 524",
          "katecX": 452464.98915,
          "katecY": 291495.16461,
          "latitude": 35.2210333,
          "longitude": 128.5741527
        },
        {
          "id": "A0033247",
          "name": "미니주유소",
          "brand": "RTO",
          "brandCode": "RTO",
          "price": 1950,
          "address": "대구 북구 침산동 25-10",
          "roadAddress": "대구 북구 침산남로 224",
          "katecX": 454359.4543,
          "katecY": 365311.65891,
          "latitude": 35.8862636,
          "longitude": 128.5998983
        },
        {
          "id": "A0024530",
          "name": "청하self주유소",
          "brand": "RTO",
          "brandCode": "RTO",
          "price": 1953,
          "address": "경북 포항시 북구 청하면 미남리 133",
          "roadAddress": "경북 포항시 북구 청하면 동해대로 2405",
          "katecX": 520946,
          "katecY": 398970,
          "latitude": 36.1835994,
          "longitude": 129.3424146
        },
        {
          "id": "A0030597",
          "name": "에이디에너지(주)",
          "brand": "RTO",
          "brandCode": "RTO",
          "price": 1953,
          "address": "경남 김해시 안동 257-21",
          "roadAddress": "경남 김해시 김해대로 2651 (안동)",
          "katecX": 483621,
          "katecY": 292635,
          "latitude": 35.2292002,
          "longitude": 128.9164805
        },
        {
          "id": "A0024185",
          "name": "삼일주유소",
          "brand": "SK에너지",
          "brandCode": "SKE",
          "price": 1954,
          "address": "경북 경주시 천북면 모아리 973-4",
          "roadAddress": "경북 경주시 천북면 산업로 4866",
          "katecX": 512255.36746,
          "katecY": 368597.53595,
          "latitude": 35.9109598,
          "longitude": 129.2415135
        },
        {
          "id": "A0018612",
          "name": "수교주유소",
          "brand": "RTO",
          "brandCode": "RTO",
          "price": 1955,
          "address": "전북 김제시 성덕면 대석리 218-35",
          "roadAddress": "전북 김제시 성덕면 해학로 380",
          "katecX": 292208.76834,
          "katecY": 356425.22304,
          "latitude": 35.8017281,
          "longitude": 126.8052123
        },
        {
          "id": "A0023692",
          "name": "아스트로주유소",
          "brand": "RTO",
          "brandCode": "RTO",
          "price": 1955,
          "address": "대구 북구 노원동 282-1",
          "roadAddress": "대구 북구 팔달로 215",
          "katecX": 451965.7179,
          "katecY": 365507.5955,
          "latitude": 35.888159,
          "longitude": 128.5733993
        },
        {
          "id": "A0019581",
          "name": "한영주유소",
          "brand": "RTO",
          "brandCode": "RTO",
          "price": 1956,
          "address": "전남 화순군 동복면 유천리 491-1",
          "roadAddress": "전남 화순군 동복면 동주로 1414",
          "katecX": 324826.3,
          "katecY": 275963.8,
          "latitude": 35.0795724,
          "longitude": 127.173498
        },
        {
          "id": "A0031594",
          "name": "럭키스파밸리 직영주유소",
          "brand": "RTO",
          "brandCode": "RTO",
          "price": 1957,
          "address": "울산 울주군 범서읍 굴화리 383-3",
          "roadAddress": "울산 울주군 범서읍 울밀로 2844",
          "katecX": 514358,
          "katecY": 329389,
          "latitude": 35.5573955,
          "longitude": 129.2592289
        },
        {
          "id": "A0024256",
          "name": "불국에너지(주)선덕지점",
          "brand": "현대오일뱅크",
          "brandCode": "HDO",
          "price": 1957,
          "address": "경북 경주시 배반동 336-1",
          "roadAddress": "경북 경주시 산업로 3667",
          "katecX": 513180.00283,
          "katecY": 358007.9959,
          "latitude": 35.8154292,
          "longitude": 129.2502558
        },
        {
          "id": "A0024257",
          "name": "불국에너지(주)",
          "brand": "현대오일뱅크",
          "brandCode": "HDO",
          "price": 1957,
          "address": "경북 경주시 시래동 308-9",
          "roadAddress": "경북 경주시 산업로 2987(시래동)",
          "katecX": 517880,
          "katecY": 353401,
          "latitude": 35.773363,
          "longitude": 129.3015765
        },
        {
          "id": "A0033697",
          "name": "진량농협주유소",
          "brand": "농협알뜰",
          "brandCode": "NHO",
          "price": 1958,
          "address": "경북 경산시 진량읍 문천리 790",
          "roadAddress": "경북 경산시 진량읍 공단11로 257-10",
          "katecX": 475983.51756,
          "katecY": 364684.40756,
          "latitude": 35.8791757,
          "longitude": 128.8393262
        },
        {
          "id": "A0026102",
          "name": "행운에너지",
          "brand": "SK에너지",
          "brandCode": "SKE",
          "price": 1958,
          "address": "경북 칠곡군 약목면 복성리 639-1",
          "roadAddress": "경북 칠곡군 약목면 칠곡대로 504",
          "katecX": 431892.5353,
          "katecY": 382542.8176,
          "latitude": 36.0425531,
          "longitude": 128.3517493
        },
        {
          "id": "A0026752",
          "name": "(주)미니에너지",
          "brand": "RTO",
          "brandCode": "RTO",
          "price": 1958,
          "address": "경북 경산시 압량면 현흥리 24-8",
          "roadAddress": "경북 경산시 압량면 대학로 754",
          "katecX": 470598.8,
          "katecY": 363819.4,
          "latitude": 35.8717817,
          "longitude": 128.7796197
        },
        {
          "id": "A0017261",
          "name": "문당주유소",
          "brand": "SK에너지",
          "brandCode": "SKE",
          "price": 1959,
          "address": "충북 괴산군 청안면 문당리 80-8",
          "roadAddress": "충북 괴산군 청안면 질마로 865",
          "katecX": 372454,
          "katecY": 460270,
          "latitude": 36.743182,
          "longitude": 127.6893337
        },
        {
          "id": "A0018147",
          "name": "보물단지주유소",
          "brand": "RTO",
          "brandCode": "RTO",
          "price": 1959,
          "address": "전북 완주군 봉동읍 구만리 220-1",
          "roadAddress": "전북 완주군 봉동읍 완주로 533",
          "katecX": 324400.44513,
          "katecY": 368311.70674,
          "latitude": 35.9118653,
          "longitude": 127.1602112
        },
        {
          "id": "A0019115",
          "name": "광활농협주유소",
          "brand": "농협알뜰",
          "brandCode": "NHO",
          "price": 1959,
          "address": "전북 김제시 광활면 옥포리 668-10",
          "roadAddress": "전북 김제시 광활면 광활로 470",
          "katecX": 286320.9,
          "katecY": 359877.5,
          "latitude": 35.8321724,
          "longitude": 126.7395908
        }
      ]
    },
    {
      "regionCode": "ALL",
      "regionName": "전국",
      "fuelCode": "D047",
      "fuelName": "경유",
      "stations": [
        {
          "id": "A0024382",
          "name": "청명주유소",
          "brand": "SK에너지",
          "brandCode": "SKE",
          "price": 1935,
          "address": "경북 영천시 고경면 덕암리 52-1",
          "roadAddress": "경북 영천시 고경면 호국로 1529",
          "katecX": 498527.00285,
          "katecY": 377393.99585,
          "latitude": 35.9917057,
          "longitude": 129.0905296
        },
        {
          "id": "A0014172",
          "name": "대일종합에너지주유소 태전점",
          "brand": "현대오일뱅크",
          "brandCode": "HDO",
          "price": 1939,
          "address": "대구 북구 태전동 148-7",
          "roadAddress": "대구 북구 태전로 14 (태전동)",
          "katecX": 449464.77744,
          "katecY": 369233.75327,
          "latitude": 35.9218714,
          "longitude": 128.5459301
        },
        {
          "id": "A0033247",
          "name": "미니주유소",
          "brand": "RTO",
          "brandCode": "RTO",
          "price": 1940,
          "address": "대구 북구 침산동 25-10",
          "roadAddress": "대구 북구 침산남로 224",
          "katecX": 454359.4543,
          "katecY": 365311.65891,
          "latitude": 35.8862636,
          "longitude": 128.5998983
        },
        {
          "id": "A0028484",
          "name": "㈜미니E 직영주유소",
          "brand": "RTO",
          "brandCode": "RTO",
          "price": 1940,
          "address": "경남 창원시 마산회원구 회원동 43-1",
          "roadAddress": "경남 창원시 마산회원구 3.15대로 524",
          "katecX": 452464.98915,
          "katecY": 291495.16461,
          "latitude": 35.2210333,
          "longitude": 128.5741527
        },
        {
          "id": "A0014705",
          "name": "㈜교촌에너지 건양지점",
          "brand": "SK에너지",
          "brandCode": "SKE",
          "price": 1943,
          "address": "충남 논산시 내동 60-2",
          "roadAddress": "충남 논산시 시민로 78 (내동)",
          "katecX": 319500,
          "katecY": 397543,
          "latitude": 36.1749044,
          "longitude": 127.1029394
        },
        {
          "id": "A0022528",
          "name": "청운주유소",
          "brand": "S-OIL",
          "brandCode": "SOL",
          "price": 1944,
          "address": "전북 김제시 용지면 부교리 194-23",
          "roadAddress": "전북 김제시 용지면 콩쥐팥쥐로 717",
          "katecX": 307961.41996,
          "katecY": 357782.39752,
          "latitude": 35.8155645,
          "longitude": 126.9793166
        },
        {
          "id": "A0019581",
          "name": "한영주유소",
          "brand": "RTO",
          "brandCode": "RTO",
          "price": 1945,
          "address": "전남 화순군 동복면 유천리 491-1",
          "roadAddress": "전남 화순군 동복면 동주로 1414",
          "katecX": 324826.3,
          "katecY": 275963.8,
          "latitude": 35.0795724,
          "longitude": 127.173498
        },
        {
          "id": "A0023692",
          "name": "아스트로주유소",
          "brand": "RTO",
          "brandCode": "RTO",
          "price": 1945,
          "address": "대구 북구 노원동 282-1",
          "roadAddress": "대구 북구 팔달로 215",
          "katecX": 451965.7179,
          "katecY": 365507.5955,
          "latitude": 35.888159,
          "longitude": 128.5733993
        },
        {
          "id": "A0026885",
          "name": "팔공제일주유소",
          "brand": "자가상표",
          "brandCode": "ETC",
          "price": 1945,
          "address": "경북 경산시 와촌면 신한리 198",
          "roadAddress": "경북 경산시 와촌면 새터길 99",
          "katecX": 472086.45912,
          "katecY": 373257.12267,
          "latitude": 35.9567301,
          "longitude": 128.7969451
        },
        {
          "id": "A0030597",
          "name": "에이디에너지(주)",
          "brand": "RTO",
          "brandCode": "RTO",
          "price": 1945,
          "address": "경남 김해시 안동 257-21",
          "roadAddress": "경남 김해시 김해대로 2651 (안동)",
          "katecX": 483621,
          "katecY": 292635,
          "latitude": 35.2292002,
          "longitude": 128.9164805
        },
        {
          "id": "A0028011",
          "name": "청룡휴게주유소",
          "brand": "자가상표",
          "brandCode": "ETC",
          "price": 1949,
          "address": "경남 창녕군 창녕읍 여초리 281-24",
          "roadAddress": "경남 창녕군 창녕읍 경남대로 4233",
          "katecX": 446245.8103,
          "katecY": 323446.8317,
          "latitude": 35.5093416,
          "longitude": 128.5076383
        },
        {
          "id": "A0011160",
          "name": "횡성농협클린주유소",
          "brand": "농협알뜰",
          "brandCode": "NHO",
          "price": 1949,
          "address": "강원 횡성군 횡성읍 읍상리 494",
          "roadAddress": "강원 횡성군 횡성읍 한우로 323",
          "katecX": 399201.87945,
          "katecY": 542759.60599,
          "latitude": 37.486936,
          "longitude": 127.988744
        },
        {
          "id": "A0026811",
          "name": "흥국주유소",
          "brand": "현대오일뱅크",
          "brandCode": "HDO",
          "price": 1949,
          "address": "경북 경산시 와촌면 소월리 73-1",
          "roadAddress": "경북 경산시 와촌면 금송로 377",
          "katecX": 475508.4009,
          "katecY": 371758.1313,
          "latitude": 35.9429629,
          "longitude": 128.8347342
        },
        {
          "id": "A0020705",
          "name": "(주)평동제일주유소",
          "brand": "RTO",
          "brandCode": "RTO",
          "price": 1949,
          "address": "광주 광산구 장록동 527-4",
          "roadAddress": "광주 광산구 동곡로 552 (장록동)",
          "katecX": 288668.8689,
          "katecY": 282013.4589,
          "latitude": 35.1307448,
          "longitude": 126.7762561
        },
        {
          "id": "A0033156",
          "name": "(주)버들주유소",
          "brand": "현대오일뱅크",
          "brandCode": "HDO",
          "price": 1949,
          "address": "광주광역시 광산구 월전동 2-75",
          "roadAddress": "광주광역시 광산구 동곡로 510",
          "katecX": 288646.95553,
          "katecY": 281576.4216,
          "latitude": 35.1268037,
          "longitude": 126.7760746
        },
        {
          "id": "A0026733",
          "name": "활주로주유소",
          "brand": "자가상표",
          "brandCode": "ETC",
          "price": 1949,
          "address": "대구 달서구 월암동 998-1",
          "roadAddress": "대구 달서구 성서로36길 75 (월암동)",
          "katecX": 446789,
          "katecY": 359364,
          "latitude": 35.833047,
          "longitude": 128.5157042
        },
        {
          "id": "A0011150",
          "name": "횡성농협 유현지점주유소",
          "brand": "농협알뜰",
          "brandCode": "NHO",
          "price": 1949,
          "address": "강원 횡성군 서원면 유현리 128-1",
          "roadAddress": "강원 횡성군 서원면 경강로 800",
          "katecX": 389998.5945,
          "katecY": 547190.9416,
          "latitude": 37.5268101,
          "longitude": 127.8846123
        },
        {
          "id": "A0001245",
          "name": "고암주유소",
          "brand": "SK에너지",
          "brandCode": "SKE",
          "price": 1949,
          "address": "충북 제천시 고암동 264-5",
          "roadAddress": "충북 제천시 내토로 1027",
          "katecX": 421215,
          "katecY": 507133,
          "latitude": 37.1656652,
          "longitude": 128.2366578
        },
        {
          "id": "A0024102",
          "name": "시선㈜ 경주지점",
          "brand": "RTO",
          "brandCode": "RTO",
          "price": 1949,
          "address": "경북 경주시 동방동 307-1",
          "roadAddress": "경북 경주시 산업로 3585",
          "katecX": 513773,
          "katecY": 357440,
          "latitude": 35.8102424,
          "longitude": 129.2567358
        },
        {
          "id": "A0028390",
          "name": "대산농협주유소",
          "brand": "농협알뜰",
          "brandCode": "NHO",
          "price": 1950,
          "address": "경남 함안군 대산면 평림리 480-3",
          "roadAddress": "경남 함안군 대산면 대산중앙로 172",
          "katecX": 439441.20419,
          "katecY": 305700.93264,
          "latitude": 35.3496772,
          "longitude": 128.4317719
        }
      ]
    },
    {
      "regionCode": "01",
      "regionName": "서울",
      "fuelCode": "B027",
      "fuelName": "휘발유",
      "stations": [
        {
          "id": "A0000428",
          "name": "주식회사 새서울글로벌",
          "brand": "현대오일뱅크",
          "brandCode": "HDO",
          "price": 1969,
          "address": "서울 동작구 신대방동 686-44",
          "roadAddress": "서울 동작구 시흥대로 616 (신대방동)",
          "katecX": 303404.15715,
          "katecY": 543341.8704,
          "latitude": 37.4871133,
          "longitude": 126.9054815
        },
        {
          "id": "A0009906",
          "name": "극동유화(주) 전당앞주유소",
          "brand": "S-OIL",
          "brandCode": "SOL",
          "price": 1979,
          "address": "서울 서초구 서초동 1464-18",
          "roadAddress": "서울 서초구 남부순환로 2391 (서초동)",
          "katecX": 312816.7694,
          "katecY": 542484.5787,
          "latitude": 37.4803275,
          "longitude": 127.012004
        },
        {
          "id": "A0000549",
          "name": "이케이에너지(주) 강서주유소",
          "brand": "현대오일뱅크",
          "brandCode": "HDO",
          "price": 1979,
          "address": "서울 강서구 화곡동 983-1",
          "roadAddress": "서울 강서구 화곡로 273 (화곡동)",
          "katecX": 298318.039,
          "katecY": 550276.2648,
          "latitude": 37.5490384,
          "longitude": 126.8470181
        },
        {
          "id": "A0000519",
          "name": "화곡역주유소",
          "brand": "RTO",
          "brandCode": "RTO",
          "price": 1979,
          "address": "서울 강서구 화곡동 1076-14",
          "roadAddress": "서울 강서구 강서로 154 (화곡동)",
          "katecX": 297830.02778,
          "katecY": 549333.51356,
          "latitude": 37.5404911,
          "longitude": 126.8416277
        },
        {
          "id": "A0001015",
          "name": "동일석유㈜개나리주유소",
          "brand": "SK에너지",
          "brandCode": "SKE",
          "price": 1984,
          "address": "서울 양천구 신월동 206-1",
          "roadAddress": "서울 양천구 남부순환로 442 (신월동)",
          "katecX": 297042.8987,
          "katecY": 548004.3926,
          "latitude": 37.5284295,
          "longitude": 126.832909
        },
        {
          "id": "A0001005",
          "name": "현대주유소",
          "brand": "S-OIL",
          "brandCode": "SOL",
          "price": 1984,
          "address": "서울 양천구 신월동 167-1",
          "roadAddress": "서울 양천구 남부순환로 372 (신월동)",
          "katecX": 296738.3507,
          "katecY": 548590.8561,
          "latitude": 37.5336788,
          "longitude": 126.8293814
        },
        {
          "id": "A0000011",
          "name": "이케이에너지(주) 무산주유소",
          "brand": "현대오일뱅크",
          "brandCode": "HDO",
          "price": 1984,
          "address": "서울 양천구 신정3동 1294-6",
          "roadAddress": "서울 양천구 신정로 236",
          "katecX": 298323.406,
          "katecY": 546013.55295,
          "latitude": 37.5106363,
          "longitude": 126.8476698
        },
        {
          "id": "A0000686",
          "name": "(주)디오티디 은평유니콘주유소",
          "brand": "현대오일뱅크",
          "brandCode": "HDO",
          "price": 1984,
          "address": "서울 은평구 진관동 73-22",
          "roadAddress": "서울 은평구 통일로 1151",
          "katecX": 304199,
          "katecY": 560741,
          "latitude": 37.6439469,
          "longitude": 126.9121908
        },
        {
          "id": "A0001023",
          "name": "㈜자연에너지 남부주유소",
          "brand": "현대오일뱅크",
          "brandCode": "HDO",
          "price": 1984,
          "address": "서울 양천구 신월4동 525-1",
          "roadAddress": "서울 양천구 남부순환로 553",
          "katecX": 297546.1436,
          "katecY": 546999.2892,
          "latitude": 37.5194307,
          "longitude": 126.838742
        },
        {
          "id": "A0001029",
          "name": "(주)타이거오일 신정주유소",
          "brand": "SK에너지",
          "brandCode": "SKE",
          "price": 1984,
          "address": "서울 양천구 신정동 1052-12",
          "roadAddress": "서울 양천구 중앙로 226 (신정동)",
          "katecX": 298952.04545,
          "katecY": 546698.44763,
          "latitude": 37.5168757,
          "longitude": 126.854685
        },
        {
          "id": "A0000680",
          "name": "서정주유소",
          "brand": "GS칼텍스",
          "brandCode": "GSC",
          "price": 1984,
          "address": "서울 은평구 진관동 240-27",
          "roadAddress": "서울 은평구 통일로 968 (진관동)",
          "katecX": 304825,
          "katecY": 559220,
          "latitude": 37.6303093,
          "longitude": 126.9194817
        },
        {
          "id": "A0001157",
          "name": "㈜CW창원",
          "brand": "현대오일뱅크",
          "brandCode": "HDO",
          "price": 1985,
          "address": "서울 관악구 남현동 602-306",
          "roadAddress": "서울 관악구 과천대로 921 (남현동)",
          "katecX": 310169.34427,
          "katecY": 541693.21359,
          "latitude": 37.4729436,
          "longitude": 126.982171
        },
        {
          "id": "A0010071",
          "name": "신일셀프주유소",
          "brand": "SK에너지",
          "brandCode": "SKE",
          "price": 1988,
          "address": "서울 중랑구 망우동 523-4",
          "roadAddress": "서울 중랑구 상봉로 58 (망우동)",
          "katecX": 320159.4797,
          "katecY": 554686.3927,
          "latitude": 37.5909266,
          "longitude": 127.0936873
        },
        {
          "id": "A0001164",
          "name": "(주)화동유업 화동주유소",
          "brand": "SK에너지",
          "brandCode": "SKE",
          "price": 1988,
          "address": "서울 금천구 독산동 967",
          "roadAddress": "서울 금천구 시흥대로 484",
          "katecX": 302821.53096,
          "katecY": 542201.78194,
          "latitude": 37.4767808,
          "longitude": 126.8990451
        },
        {
          "id": "A0009272",
          "name": "(주)연우에너지 신관주유소",
          "brand": "RTO",
          "brandCode": "RTO",
          "price": 1988,
          "address": "서울 관악구 신림동 1641-58",
          "roadAddress": "서울 관악구 신림로 290 (신림동)",
          "katecX": 305616.56394,
          "katecY": 542563.88518,
          "latitude": 37.4803333,
          "longitude": 126.9305948
        },
        {
          "id": "A0001132",
          "name": "㈜씨더블유 이엔지 금천지점",
          "brand": "현대오일뱅크",
          "brandCode": "HDO",
          "price": 1988,
          "address": "서울 금천구 시흥동 860-36",
          "roadAddress": "서울 금천구 독산로 147",
          "katecX": 303289.50294,
          "katecY": 540374.09535,
          "latitude": 37.4603639,
          "longitude": 126.9045755
        },
        {
          "id": "A0001141",
          "name": "㈜씨더블유이엔지",
          "brand": "현대오일뱅크",
          "brandCode": "HDO",
          "price": 1988,
          "address": "서울 금천구 독산동 900-4",
          "roadAddress": "서울 금천구 남부순환로 1410 (독산동)",
          "katecX": 303569.4,
          "katecY": 542566.5,
          "latitude": 37.4801451,
          "longitude": 126.9074514
        },
        {
          "id": "A0001086",
          "name": "(주)백운주유소",
          "brand": "RTO",
          "brandCode": "RTO",
          "price": 1988,
          "address": "서울 금천구 독산동 1077-3",
          "roadAddress": "서울 금천구 시흥대로 282",
          "katecX": 302825.0476,
          "katecY": 540202.8721,
          "latitude": 37.4587725,
          "longitude": 126.8993489
        },
        {
          "id": "A0009765",
          "name": "능동주유소 ㈜케이에스넷",
          "brand": "RTO",
          "brandCode": "RTO",
          "price": 1989,
          "address": "서울 광진구 능동 236-4",
          "roadAddress": "서울 광진구 천호대로 584",
          "katecX": 319125.63185,
          "katecY": 550763.88584,
          "latitude": 37.5554961,
          "longitude": 127.0824155
        },
        {
          "id": "A0000856",
          "name": "씨앤에스유통(주) 구로드림주유소",
          "brand": "S-OIL",
          "brandCode": "SOL",
          "price": 1989,
          "address": "서울 구로구 온수동 35-3",
          "roadAddress": "서울 구로구 경인로 41 (온수동)",
          "katecX": 296439,
          "katecY": 543853,
          "latitude": 37.4909622,
          "longitude": 126.8266633
        }
      ]
    },
    {
      "regionCode": "01",
      "regionName": "서울",
      "fuelCode": "D047",
      "fuelName": "경유",
      "stations": [
        {
          "id": "A0000428",
          "name": "주식회사 새서울글로벌",
          "brand": "현대오일뱅크",
          "brandCode": "HDO",
          "price": 1978,
          "address": "서울 동작구 신대방동 686-44",
          "roadAddress": "서울 동작구 시흥대로 616 (신대방동)",
          "katecX": 303404.15715,
          "katecY": 543341.8704,
          "latitude": 37.4871133,
          "longitude": 126.9054815
        },
        {
          "id": "A0000549",
          "name": "이케이에너지(주) 강서주유소",
          "brand": "현대오일뱅크",
          "brandCode": "HDO",
          "price": 1978,
          "address": "서울 강서구 화곡동 983-1",
          "roadAddress": "서울 강서구 화곡로 273 (화곡동)",
          "katecX": 298318.039,
          "katecY": 550276.2648,
          "latitude": 37.5490384,
          "longitude": 126.8470181
        },
        {
          "id": "A0000519",
          "name": "화곡역주유소",
          "brand": "RTO",
          "brandCode": "RTO",
          "price": 1978,
          "address": "서울 강서구 화곡동 1076-14",
          "roadAddress": "서울 강서구 강서로 154 (화곡동)",
          "katecX": 297830.02778,
          "katecY": 549333.51356,
          "latitude": 37.5404911,
          "longitude": 126.8416277
        },
        {
          "id": "A0009906",
          "name": "극동유화(주) 전당앞주유소",
          "brand": "S-OIL",
          "brandCode": "SOL",
          "price": 1979,
          "address": "서울 서초구 서초동 1464-18",
          "roadAddress": "서울 서초구 남부순환로 2391 (서초동)",
          "katecX": 312816.7694,
          "katecY": 542484.5787,
          "latitude": 37.4803275,
          "longitude": 127.012004
        },
        {
          "id": "A0033600",
          "name": "위례드림주유소",
          "brand": "S-OIL",
          "brandCode": "SOL",
          "price": 1983,
          "address": "서울시 송파구 장지동 646-7",
          "roadAddress": "서울시 송파구  위례중앙로 10",
          "katecX": 323108.45628,
          "katecY": 541830.80795,
          "latitude": 37.4753528,
          "longitude": 127.1284255
        },
        {
          "id": "A0005900",
          "name": "(주)아이에스피에너지(서울서부고속주유소)",
          "brand": "현대오일뱅크",
          "brandCode": "HDO",
          "price": 1983,
          "address": "서울 은평구 응암동 594-1",
          "roadAddress": "서울 은평구 응암로 163",
          "katecX": 304456.00039,
          "katecY": 554380.95521,
          "latitude": 37.5866758,
          "longitude": 126.9159347
        },
        {
          "id": "A0000491",
          "name": "(주)타이거오일 방화주유소",
          "brand": "SK에너지",
          "brandCode": "SKE",
          "price": 1983,
          "address": "서울 강서구 방화동 609-59",
          "roadAddress": "서울 강서구 방화동로 58-2",
          "katecX": 295279,
          "katecY": 552147.9,
          "latitude": 37.5655588,
          "longitude": 126.8123639
        },
        {
          "id": "A0000680",
          "name": "서정주유소",
          "brand": "GS칼텍스",
          "brandCode": "GSC",
          "price": 1984,
          "address": "서울 은평구 진관동 240-27",
          "roadAddress": "서울 은평구 통일로 968 (진관동)",
          "katecX": 304825,
          "katecY": 559220,
          "latitude": 37.6303093,
          "longitude": 126.9194817
        },
        {
          "id": "A0009330",
          "name": "서울중앙고속주유소",
          "brand": "SK에너지",
          "brandCode": "SKE",
          "price": 1984,
          "address": "서울 광진구 중곡동 610-7",
          "roadAddress": "서울 광진구 동일로 345 (중곡동)",
          "katecX": 318456.00298,
          "katecY": 551467.99536,
          "latitude": 37.5617806,
          "longitude": 127.074759
        },
        {
          "id": "A0000571",
          "name": "타이거주유소",
          "brand": "SK에너지",
          "brandCode": "SKE",
          "price": 1984,
          "address": "서울 은평구 증산동 222-6",
          "roadAddress": "서울 은평구 수색로 188 (증산동)",
          "katecX": 303210.6238,
          "katecY": 553470.303,
          "latitude": 37.5783413,
          "longitude": 126.9019564
        },
        {
          "id": "A0001029",
          "name": "(주)타이거오일 신정주유소",
          "brand": "SK에너지",
          "brandCode": "SKE",
          "price": 1984,
          "address": "서울 양천구 신정동 1052-12",
          "roadAddress": "서울 양천구 중앙로 226 (신정동)",
          "katecX": 298952.04545,
          "katecY": 546698.44763,
          "latitude": 37.5168757,
          "longitude": 126.854685
        },
        {
          "id": "A0001023",
          "name": "㈜자연에너지 남부주유소",
          "brand": "현대오일뱅크",
          "brandCode": "HDO",
          "price": 1984,
          "address": "서울 양천구 신월4동 525-1",
          "roadAddress": "서울 양천구 남부순환로 553",
          "katecX": 297546.1436,
          "katecY": 546999.2892,
          "latitude": 37.5194307,
          "longitude": 126.838742
        },
        {
          "id": "A0000686",
          "name": "(주)디오티디 은평유니콘주유소",
          "brand": "현대오일뱅크",
          "brandCode": "HDO",
          "price": 1984,
          "address": "서울 은평구 진관동 73-22",
          "roadAddress": "서울 은평구 통일로 1151",
          "katecX": 304199,
          "katecY": 560741,
          "latitude": 37.6439469,
          "longitude": 126.9121908
        },
        {
          "id": "A0000011",
          "name": "이케이에너지(주) 무산주유소",
          "brand": "현대오일뱅크",
          "brandCode": "HDO",
          "price": 1984,
          "address": "서울 양천구 신정3동 1294-6",
          "roadAddress": "서울 양천구 신정로 236",
          "katecX": 298323.406,
          "katecY": 546013.55295,
          "latitude": 37.5106363,
          "longitude": 126.8476698
        },
        {
          "id": "A0001005",
          "name": "현대주유소",
          "brand": "S-OIL",
          "brandCode": "SOL",
          "price": 1984,
          "address": "서울 양천구 신월동 167-1",
          "roadAddress": "서울 양천구 남부순환로 372 (신월동)",
          "katecX": 296738.3507,
          "katecY": 548590.8561,
          "latitude": 37.5336788,
          "longitude": 126.8293814
        },
        {
          "id": "A0001015",
          "name": "동일석유㈜개나리주유소",
          "brand": "SK에너지",
          "brandCode": "SKE",
          "price": 1984,
          "address": "서울 양천구 신월동 206-1",
          "roadAddress": "서울 양천구 남부순환로 442 (신월동)",
          "katecX": 297042.8987,
          "katecY": 548004.3926,
          "latitude": 37.5284295,
          "longitude": 126.832909
        },
        {
          "id": "A0000139",
          "name": "(주)타이거통상 월드컵주유소",
          "brand": "S-OIL",
          "brandCode": "SOL",
          "price": 1984,
          "address": "서울 마포구 성산동 200-4",
          "roadAddress": "서울 마포구 월드컵북로 170 (성산제2동)",
          "katecX": 303877,
          "katecY": 552253,
          "latitude": 37.5674445,
          "longitude": 126.9096594
        },
        {
          "id": "A0009180",
          "name": "대원주유소",
          "brand": "GS칼텍스",
          "brandCode": "GSC",
          "price": 1985,
          "address": "서울 중랑구 면목동 161-17",
          "roadAddress": "서울 중랑구 동일로 600",
          "katecX": 318949.33634,
          "katecY": 553926.04177,
          "latitude": 37.5839702,
          "longitude": 127.0800701
        },
        {
          "id": "A0009411",
          "name": "㈜동화오일 대원주유소",
          "brand": "GS칼텍스",
          "brandCode": "GSC",
          "price": 1985,
          "address": "서울 광진구 중곡4동 18-70",
          "roadAddress": "서울 광진구 용마산로 122 (중곡동)",
          "katecX": 319532.5163,
          "katecY": 551757.6597,
          "latitude": 37.5644852,
          "longitude": 127.0869109
        },
        {
          "id": "A0000134",
          "name": "구도일주유소 두꺼비",
          "brand": "S-OIL",
          "brandCode": "SOL",
          "price": 1985,
          "address": "서울 서대문구 연희동 220-55",
          "roadAddress": "서울 서대문구 성산로 312",
          "katecX": 305218,
          "katecY": 552080,
          "latitude": 37.5660251,
          "longitude": 126.9248594
        }
      ]
    },
    {
      "regionCode": "02",
      "regionName": "경기",
      "fuelCode": "B027",
      "fuelName": "휘발유",
      "stations": [
        {
          "id": "A0004155",
          "name": "광신직영(랜드마크셀프)",
          "brand": "S-OIL",
          "brandCode": "SOL",
          "price": 1965,
          "address": "경기 이천시 모가면 어농리 61-1",
          "roadAddress": "경기 이천시 모가면 사실로 878",
          "katecX": 350559.32839,
          "katecY": 509973.36797,
          "latitude": 37.1901778,
          "longitude": 127.440902
        },
        {
          "id": "A0006954",
          "name": "㈜승지 승일주유소",
          "brand": "RTO",
          "brandCode": "RTO",
          "price": 1969,
          "address": "경기 부천시 원미구 상동 621-1",
          "roadAddress": "경기 부천시 원미구 상일로 42",
          "katecX": 289363,
          "katecY": 543979,
          "latitude": 37.4912756,
          "longitude": 126.7466433
        },
        {
          "id": "A0004417",
          "name": "KH에너지㈜직영 대복주유소",
          "brand": "자가상표",
          "brandCode": "ETC",
          "price": 1973,
          "address": "경기 양주시 광사동 401",
          "roadAddress": "경기 양주시 부흥로 1807",
          "katecX": 318243,
          "katecY": 576398,
          "latitude": 37.7863656,
          "longitude": 127.0695478
        },
        {
          "id": "A0005555",
          "name": "(주)원흥 고양동지점",
          "brand": "현대오일뱅크",
          "brandCode": "HDO",
          "price": 1973,
          "address": "경기 고양시 덕양구 고양동 590",
          "roadAddress": "경기 고양시 덕양구 호국로 1789",
          "katecX": 303780.00298,
          "katecY": 568143.99533,
          "latitude": 37.710596,
          "longitude": 126.9064652
        },
        {
          "id": "A0005030",
          "name": "(주)교현 알뜰주유소",
          "brand": "RTO",
          "brandCode": "RTO",
          "price": 1973,
          "address": "경기 양주시 장흥면 교현리 333-3",
          "roadAddress": "경기 양주시 장흥면 북한산로 863",
          "katecX": 309314,
          "katecY": 566778,
          "latitude": 37.698855,
          "longitude": 126.9693909
        },
        {
          "id": "A0005272",
          "name": "안곡주유소",
          "brand": "현대오일뱅크",
          "brandCode": "HDO",
          "price": 1973,
          "address": "경기 고양시 일산동구 중산동 산83-5",
          "roadAddress": "경기 고양시 일산동구 고양대로 831",
          "katecX": 293286.7961,
          "katecY": 565014.8523,
          "latitude": 37.6812434,
          "longitude": 126.7879368
        },
        {
          "id": "A0005571",
          "name": "(주)원흥 풍동지점",
          "brand": "현대오일뱅크",
          "brandCode": "HDO",
          "price": 1973,
          "address": "경기 고양시 일산동구 풍동619-2",
          "roadAddress": "경기 고양시 일산동구 무궁화로 299 (풍동)",
          "katecX": 293736.87552,
          "katecY": 564350.87533,
          "latitude": 37.6753142,
          "longitude": 126.7931353
        },
        {
          "id": "A0005266",
          "name": "(주)원흥 원당동지점",
          "brand": "현대오일뱅크",
          "brandCode": "HDO",
          "price": 1973,
          "address": "경기 고양시 덕양구 원당동 179-1",
          "roadAddress": "경기 고양시 덕양구 호국로 1113",
          "katecX": 299700,
          "katecY": 564256,
          "latitude": 37.6751318,
          "longitude": 126.8607354
        },
        {
          "id": "A0006122",
          "name": "㈜원흥.양주지점 제이앤에스",
          "brand": "현대오일뱅크",
          "brandCode": "HDO",
          "price": 1973,
          "address": "경기 양주시 산북동 198-3",
          "roadAddress": "경기 양주시 평화로 1107 (산북동)",
          "katecX": 316375.4981,
          "katecY": 576840.0958,
          "latitude": 37.7901792,
          "longitude": 127.0482971
        },
        {
          "id": "A0009185",
          "name": "무지내주유소",
          "brand": "RTO",
          "brandCode": "RTO",
          "price": 1973,
          "address": "경기 시흥시 무지내동 277-1",
          "roadAddress": "경기 시흥시  금오로 144 (무지내동)",
          "katecX": 297552,
          "katecY": 535584,
          "latitude": 37.4165906,
          "longitude": 126.8403979
        },
        {
          "id": "A0005297",
          "name": "개나리주유소",
          "brand": "RTO",
          "brandCode": "RTO",
          "price": 1973,
          "address": "경기 고양시 덕양구 벽제동 544-3",
          "roadAddress": "경기 고양시 덕양구 보광로 126 (벽제동)",
          "katecX": 303927.8,
          "katecY": 569871.1,
          "latitude": 37.7261708,
          "longitude": 126.9079128
        },
        {
          "id": "A0005463",
          "name": "(주)원흥 원흥동지점",
          "brand": "현대오일뱅크",
          "brandCode": "HDO",
          "price": 1973,
          "address": "경기 고양시 덕양구 원흥동 367",
          "roadAddress": "경기 고양시 덕양구 서오릉로 712 (원흥동)",
          "katecX": 300064.6586,
          "katecY": 560361.0942,
          "latitude": 37.6400831,
          "longitude": 126.8654026
        },
        {
          "id": "A0017620",
          "name": "오일필드㈜ 남양지점",
          "brand": "자가상표",
          "brandCode": "ETC",
          "price": 1973,
          "address": "경기 화성시 만세구 남양동 443-3",
          "roadAddress": "경기 화성시 만세구 남양성지로 17",
          "katecX": 294144.00578,
          "katecY": 512188.99072,
          "latitude": 37.2054375,
          "longitude": 126.805245
        },
        {
          "id": "A0004529",
          "name": "씨앤에스유통㈜ 장암IC주유소",
          "brand": "S-OIL",
          "brandCode": "SOL",
          "price": 1973,
          "address": "경기 의정부시 신곡동 266-9외10",
          "roadAddress": "경기 의정부시 금신로 30 (신곡동)",
          "katecX": 317604.2,
          "katecY": 569471.1,
          "latitude": 37.7239021,
          "longitude": 127.0630836
        },
        {
          "id": "A0004819",
          "name": "㈜제이씨네트웍 양주제일백석점",
          "brand": "현대오일뱅크",
          "brandCode": "HDO",
          "price": 1973,
          "address": "경기 양주시 백석읍 방성리 51-16",
          "roadAddress": "경기 양주시 백석읍 부흥로 991",
          "katecX": 312009,
          "katecY": 578770,
          "latitude": 37.8071549,
          "longitude": 126.9984924
        },
        {
          "id": "A0004808",
          "name": "서울이엔지㈜ 일월주유소",
          "brand": "현대오일뱅크",
          "brandCode": "HDO",
          "price": 1973,
          "address": "경기 양주시 백석읍 방성리 471-4",
          "roadAddress": "경기 양주시 백석읍 부흥로 1126",
          "katecX": 312834.00301,
          "katecY": 577764.99533,
          "latitude": 37.7981801,
          "longitude": 127.0079814
        },
        {
          "id": "A0007077",
          "name": "대야동주유소",
          "brand": "RTO",
          "brandCode": "RTO",
          "price": 1973,
          "address": "경기 시흥시 대야동 362-9",
          "roadAddress": "경기 시흥시 복지로 68",
          "katecX": 293165.6499,
          "katecY": 538804.2813,
          "latitude": 37.4451056,
          "longitude": 126.7903877
        },
        {
          "id": "A0005003",
          "name": "(주)어하둥둥알뜰주유소",
          "brand": "RTO",
          "brandCode": "RTO",
          "price": 1973,
          "address": "경기 양주시 유양동 612-4",
          "roadAddress": "경기 양주시 부흥로 1300",
          "katecX": 313875.60453,
          "katecY": 576535.82059,
          "latitude": 37.7872053,
          "longitude": 127.0199536
        },
        {
          "id": "A0005163",
          "name": "㈜너멍골",
          "brand": "S-OIL",
          "brandCode": "SOL",
          "price": 1973,
          "address": "경기 고양시 덕양구 신원동 437-4",
          "roadAddress": "경기 고양시 덕양구 호국로 1259",
          "katecX": 301060.6,
          "katecY": 564428.4,
          "latitude": 37.6768329,
          "longitude": 126.8761333
        },
        {
          "id": "A0008197",
          "name": "남선석유(주) 구도일주유소 평촌",
          "brand": "S-OIL",
          "brandCode": "SOL",
          "price": 1974,
          "address": "경기 의왕시 내손동 797",
          "roadAddress": "경기도 의왕시  갈미로 2 (내손동)",
          "katecX": 308916,
          "katecY": 531020,
          "latitude": 37.3766606,
          "longitude": 126.9693221
        }
      ]
    },
    {
      "regionCode": "02",
      "regionName": "경기",
      "fuelCode": "D047",
      "fuelName": "경유",
      "stations": [
        {
          "id": "A0005367",
          "name": "구도일주유소 송포",
          "brand": "S-OIL",
          "brandCode": "SOL",
          "price": 1961,
          "address": "경기 고양 일산서 덕이 1363-1 외 2필지",
          "roadAddress": "경기 고양시 일산서구 송산로 494 (덕이동)",
          "katecX": 288443,
          "katecY": 565845,
          "latitude": 37.6881446,
          "longitude": 126.7329066
        },
        {
          "id": "A0005463",
          "name": "(주)원흥 원흥동지점",
          "brand": "현대오일뱅크",
          "brandCode": "HDO",
          "price": 1963,
          "address": "경기 고양시 덕양구 원흥동 367",
          "roadAddress": "경기 고양시 덕양구 서오릉로 712 (원흥동)",
          "katecX": 300064.6586,
          "katecY": 560361.0942,
          "latitude": 37.6400831,
          "longitude": 126.8654026
        },
        {
          "id": "A0005606",
          "name": "(주)디오티디 고양야옹이주유소",
          "brand": "현대오일뱅크",
          "brandCode": "HDO",
          "price": 1963,
          "address": "경기 고양시 일산서구 덕이동 805",
          "roadAddress": "경기 고양시 일산서구 덕이로 188 (덕이동)",
          "katecX": 289112.30296,
          "katecY": 566566.09531,
          "latitude": 37.6947217,
          "longitude": 126.7403838
        },
        {
          "id": "A0005571",
          "name": "(주)원흥 풍동지점",
          "brand": "현대오일뱅크",
          "brandCode": "HDO",
          "price": 1963,
          "address": "경기 고양시 일산동구 풍동619-2",
          "roadAddress": "경기 고양시 일산동구 무궁화로 299 (풍동)",
          "katecX": 293736.87552,
          "katecY": 564350.87533,
          "latitude": 37.6753142,
          "longitude": 126.7931353
        },
        {
          "id": "A0004808",
          "name": "서울이엔지㈜ 일월주유소",
          "brand": "현대오일뱅크",
          "brandCode": "HDO",
          "price": 1963,
          "address": "경기 양주시 백석읍 방성리 471-4",
          "roadAddress": "경기 양주시 백석읍 부흥로 1126",
          "katecX": 312834.00301,
          "katecY": 577764.99533,
          "latitude": 37.7981801,
          "longitude": 127.0079814
        },
        {
          "id": "A0005272",
          "name": "안곡주유소",
          "brand": "현대오일뱅크",
          "brandCode": "HDO",
          "price": 1963,
          "address": "경기 고양시 일산동구 중산동 산83-5",
          "roadAddress": "경기 고양시 일산동구 고양대로 831",
          "katecX": 293286.7961,
          "katecY": 565014.8523,
          "latitude": 37.6812434,
          "longitude": 126.7879368
        },
        {
          "id": "A0004819",
          "name": "㈜제이씨네트웍 양주제일백석점",
          "brand": "현대오일뱅크",
          "brandCode": "HDO",
          "price": 1963,
          "address": "경기 양주시 백석읍 방성리 51-16",
          "roadAddress": "경기 양주시 백석읍 부흥로 991",
          "katecX": 312009,
          "katecY": 578770,
          "latitude": 37.8071549,
          "longitude": 126.9984924
        },
        {
          "id": "A0005163",
          "name": "㈜너멍골",
          "brand": "S-OIL",
          "brandCode": "SOL",
          "price": 1963,
          "address": "경기 고양시 덕양구 신원동 437-4",
          "roadAddress": "경기 고양시 덕양구 호국로 1259",
          "katecX": 301060.6,
          "katecY": 564428.4,
          "latitude": 37.6768329,
          "longitude": 126.8761333
        },
        {
          "id": "A0005297",
          "name": "개나리주유소",
          "brand": "RTO",
          "brandCode": "RTO",
          "price": 1963,
          "address": "경기 고양시 덕양구 벽제동 544-3",
          "roadAddress": "경기 고양시 덕양구 보광로 126 (벽제동)",
          "katecX": 303927.8,
          "katecY": 569871.1,
          "latitude": 37.7261708,
          "longitude": 126.9079128
        },
        {
          "id": "A0005266",
          "name": "(주)원흥 원당동지점",
          "brand": "현대오일뱅크",
          "brandCode": "HDO",
          "price": 1963,
          "address": "경기 고양시 덕양구 원당동 179-1",
          "roadAddress": "경기 고양시 덕양구 호국로 1113",
          "katecX": 299700,
          "katecY": 564256,
          "latitude": 37.6751318,
          "longitude": 126.8607354
        },
        {
          "id": "A0007077",
          "name": "대야동주유소",
          "brand": "RTO",
          "brandCode": "RTO",
          "price": 1963,
          "address": "경기 시흥시 대야동 362-9",
          "roadAddress": "경기 시흥시 복지로 68",
          "katecX": 293165.6499,
          "katecY": 538804.2813,
          "latitude": 37.4451056,
          "longitude": 126.7903877
        },
        {
          "id": "A0006122",
          "name": "㈜원흥.양주지점 제이앤에스",
          "brand": "현대오일뱅크",
          "brandCode": "HDO",
          "price": 1963,
          "address": "경기 양주시 산북동 198-3",
          "roadAddress": "경기 양주시 평화로 1107 (산북동)",
          "katecX": 316375.4981,
          "katecY": 576840.0958,
          "latitude": 37.7901792,
          "longitude": 127.0482971
        },
        {
          "id": "A0005030",
          "name": "(주)교현 알뜰주유소",
          "brand": "RTO",
          "brandCode": "RTO",
          "price": 1963,
          "address": "경기 양주시 장흥면 교현리 333-3",
          "roadAddress": "경기 양주시 장흥면 북한산로 863",
          "katecX": 309314,
          "katecY": 566778,
          "latitude": 37.698855,
          "longitude": 126.9693909
        },
        {
          "id": "A0017725",
          "name": "광적주유소",
          "brand": "S-OIL",
          "brandCode": "SOL",
          "price": 1963,
          "address": "경기 양주시 광적면 가납리 444-25",
          "roadAddress": "경기 양주시 광적면 부흥로 917",
          "katecX": 311466.46291,
          "katecY": 579265.73919,
          "latitude": 37.8115684,
          "longitude": 126.9922713
        },
        {
          "id": "A0004417",
          "name": "KH에너지㈜직영 대복주유소",
          "brand": "자가상표",
          "brandCode": "ETC",
          "price": 1963,
          "address": "경기 양주시 광사동 401",
          "roadAddress": "경기 양주시 부흥로 1807",
          "katecX": 318243,
          "katecY": 576398,
          "latitude": 37.7863656,
          "longitude": 127.0695478
        },
        {
          "id": "A0009185",
          "name": "무지내주유소",
          "brand": "RTO",
          "brandCode": "RTO",
          "price": 1963,
          "address": "경기 시흥시 무지내동 277-1",
          "roadAddress": "경기 시흥시  금오로 144 (무지내동)",
          "katecX": 297552,
          "katecY": 535584,
          "latitude": 37.4165906,
          "longitude": 126.8403979
        },
        {
          "id": "A0005003",
          "name": "(주)어하둥둥알뜰주유소",
          "brand": "RTO",
          "brandCode": "RTO",
          "price": 1963,
          "address": "경기 양주시 유양동 612-4",
          "roadAddress": "경기 양주시 부흥로 1300",
          "katecX": 313875.60453,
          "katecY": 576535.82059,
          "latitude": 37.7872053,
          "longitude": 127.0199536
        },
        {
          "id": "A0005613",
          "name": "태림주유소",
          "brand": "현대오일뱅크",
          "brandCode": "HDO",
          "price": 1963,
          "address": "경기 고양시 일산서구 가좌동 220-1",
          "roadAddress": "경기 고양시 일산서구 송산로 406",
          "katecX": 287648.298,
          "katecY": 565555.1289,
          "latitude": 37.6854362,
          "longitude": 126.7239429
        },
        {
          "id": "A0005555",
          "name": "(주)원흥 고양동지점",
          "brand": "현대오일뱅크",
          "brandCode": "HDO",
          "price": 1963,
          "address": "경기 고양시 덕양구 고양동 590",
          "roadAddress": "경기 고양시 덕양구 호국로 1789",
          "katecX": 303780.00298,
          "katecY": 568143.99533,
          "latitude": 37.710596,
          "longitude": 126.9064652
        },
        {
          "id": "A0006988",
          "name": "동백호수주유소",
          "brand": "S-OIL",
          "brandCode": "SOL",
          "price": 1963,
          "address": "경기 용인시 기흥구 중동 709",
          "roadAddress": "경기도 용인시 기흥구 동백죽전대로 381",
          "katecX": 324672.13544,
          "katecY": 519428.57526,
          "latitude": 37.2736371,
          "longitude": 127.1483879
        }
      ]
    },
    {
      "regionCode": "03",
      "regionName": "강원",
      "fuelCode": "B027",
      "fuelName": "휘발유",
      "stations": [
        {
          "id": "A0011160",
          "name": "횡성농협클린주유소",
          "brand": "농협알뜰",
          "brandCode": "NHO",
          "price": 1964,
          "address": "강원 횡성군 횡성읍 읍상리 494",
          "roadAddress": "강원 횡성군 횡성읍 한우로 323",
          "katecX": 399201.87945,
          "katecY": 542759.60599,
          "latitude": 37.486936,
          "longitude": 127.988744
        },
        {
          "id": "A0011150",
          "name": "횡성농협 유현지점주유소",
          "brand": "농협알뜰",
          "brandCode": "NHO",
          "price": 1964,
          "address": "강원 횡성군 서원면 유현리 128-1",
          "roadAddress": "강원 횡성군 서원면 경강로 800",
          "katecX": 389998.5945,
          "katecY": 547190.9416,
          "latitude": 37.5268101,
          "longitude": 127.8846123
        },
        {
          "id": "A0011396",
          "name": "회산주유소",
          "brand": "S-OIL",
          "brandCode": "SOL",
          "price": 1966,
          "address": "강원 강릉시 회산동 234-1",
          "roadAddress": "강원 강릉시 관솔길 27 (회산동)",
          "katecX": 476869.0913,
          "katecY": 571111.1021,
          "latitude": 37.7391922,
          "longitude": 128.8699272
        },
        {
          "id": "A0011488",
          "name": "솔향주유소",
          "brand": "RTO",
          "brandCode": "RTO",
          "price": 1968,
          "address": "강원 강릉시 홍제동 757-1",
          "roadAddress": "강원 강릉시 공제로437번길 1 (홍제동)",
          "katecX": 476659,
          "katecY": 571877,
          "latitude": 37.7461101,
          "longitude": 128.8676243
        },
        {
          "id": "A0010994",
          "name": "동명주유소",
          "brand": "RTO",
          "brandCode": "RTO",
          "price": 1973,
          "address": "강원 원주시 태장1동 155",
          "roadAddress": "강원 원주시 치악로 2090 (태장동)",
          "katecX": 396880,
          "katecY": 529274,
          "latitude": 37.3654125,
          "longitude": 127.9625489
        },
        {
          "id": "A0010431",
          "name": "㈜붕붕붕주유소",
          "brand": "GS칼텍스",
          "brandCode": "GSC",
          "price": 1974,
          "address": "강원 춘천시 석사동 430-1",
          "roadAddress": "강원 춘천시 공지로 156-3",
          "katecX": 377764.15575,
          "katecY": 584168.95196,
          "latitude": 37.8597823,
          "longitude": 127.7450548
        },
        {
          "id": "A0010392",
          "name": "춘천주유소",
          "brand": "SK에너지",
          "brandCode": "SKE",
          "price": 1974,
          "address": "강원 춘천시 효자동 287-1",
          "roadAddress": "강원 춘천시  공지로 234-1 (효자동)",
          "katecX": 377115.7567,
          "katecY": 584606.7506,
          "latitude": 37.8637108,
          "longitude": 127.7376721
        },
        {
          "id": "A0010326",
          "name": "새춘천주유소",
          "brand": "RTO",
          "brandCode": "RTO",
          "price": 1975,
          "address": "강원 춘천시 동내면 거두리 667-1",
          "roadAddress": "강원 춘천시 동내면 세실로 38",
          "katecX": 379030.8987,
          "katecY": 584271.8049,
          "latitude": 37.8607393,
          "longitude": 127.7594478
        },
        {
          "id": "A0010481",
          "name": "㈜갤럭시(Galaxy)E＆S",
          "brand": "GS칼텍스",
          "brandCode": "GSC",
          "price": 1975,
          "address": "강원 춘천시 동내면 거두리 682-8",
          "roadAddress": "강원 춘천시 동내면 세실로 20",
          "katecX": 379108.27023,
          "katecY": 584110.51545,
          "latitude": 37.8592879,
          "longitude": 127.7603318
        },
        {
          "id": "A0010686",
          "name": "보우㈜ 백마주유소",
          "brand": "현대오일뱅크",
          "brandCode": "HDO",
          "price": 1978,
          "address": "강원 동해시 송정동 1084-1",
          "roadAddress": "강원 동해시 대동로 261-28",
          "katecX": 499385.5909,
          "katecY": 544011.6822,
          "latitude": 37.4928937,
          "longitude": 129.1216884
        },
        {
          "id": "A0032992",
          "name": "동해농협클린주유소",
          "brand": "농협알뜰",
          "brandCode": "NHO",
          "price": 1980,
          "address": "강원 동해시 송정동 1128",
          "roadAddress": "강원 동해시 대동로 249",
          "katecX": 499498.71924,
          "katecY": 543907.2071,
          "latitude": 37.4919403,
          "longitude": 129.1229534
        },
        {
          "id": "A0011446",
          "name": "㈜범일로 북강릉주유소",
          "brand": "SK에너지",
          "brandCode": "SKE",
          "price": 1980,
          "address": "강원 강릉시 연곡면 동덕리 259",
          "roadAddress": "강원 강릉시 연곡면 동해대로 4094",
          "katecX": 474361.5,
          "katecY": 583073.8,
          "latitude": 37.8471756,
          "longitude": 128.8427019
        },
        {
          "id": "A0010832",
          "name": "주식회사월인삼마치주유소",
          "brand": "GS칼텍스",
          "brandCode": "GSC",
          "price": 1983,
          "address": "강원 홍천군 홍천읍 삼마치리 606-10",
          "roadAddress": "강원 홍천군 홍천읍 영서로 1500",
          "katecX": 391113,
          "katecY": 556432,
          "latitude": 37.6100903,
          "longitude": 127.8971061
        },
        {
          "id": "A0033649",
          "name": "춘천농협주유소 엔타점",
          "brand": "농협알뜰",
          "brandCode": "NHO",
          "price": 1984,
          "address": "강원 춘천시 석사동 980",
          "roadAddress": "강원 춘천시 후석로 120",
          "katecX": 378016.80833,
          "katecY": 584557.98708,
          "latitude": 37.8632938,
          "longitude": 127.7479142
        },
        {
          "id": "A0010293",
          "name": "에이스주유소",
          "brand": "GS칼텍스",
          "brandCode": "GSC",
          "price": 1985,
          "address": "강원 춘천시 효자동 666-2",
          "roadAddress": "강원 춘천시 효자로 94 (효자동)",
          "katecX": 376685.5657,
          "katecY": 585443.334,
          "latitude": 37.8712376,
          "longitude": 127.7327557
        },
        {
          "id": "A0010507",
          "name": "㈜대경유업 퇴계로주유소",
          "brand": "현대오일뱅크",
          "brandCode": "HDO",
          "price": 1985,
          "address": "강원 춘천시 석사동 818-6",
          "roadAddress": "강원 춘천시 퇴계로 231",
          "katecX": 377692.6239,
          "katecY": 583748.2141,
          "latitude": 37.8559896,
          "longitude": 127.744255
        },
        {
          "id": "A0010557",
          "name": "오일필드㈜ 원주북원지점",
          "brand": "현대오일뱅크",
          "brandCode": "HDO",
          "price": 1985,
          "address": "강원 원주시 태장동 1401",
          "roadAddress": "강원 원주시 북원로 2664",
          "katecX": 395512.40303,
          "katecY": 531038.5955,
          "latitude": 37.3813074,
          "longitude": 127.947098
        },
        {
          "id": "A0010761",
          "name": "내린천주유소",
          "brand": "GS칼텍스",
          "brandCode": "GSC",
          "price": 1986,
          "address": "강원 홍천군 내면 창촌리 1597-11",
          "roadAddress": "강원 홍천군 내면 구룡령로 5263",
          "katecX": 434636.8,
          "katecY": 574592.3,
          "latitude": 37.7731209,
          "longitude": 128.3909363
        },
        {
          "id": "A0033146",
          "name": "대성주유소(주)대성에너지",
          "brand": "S-OIL",
          "brandCode": "SOL",
          "price": 1986,
          "address": "강원 원주시 우산동 59-1",
          "roadAddress": "강원 원주시 북원로 2607 (우산동)",
          "katecX": 395216.82196,
          "katecY": 530447.22606,
          "latitude": 37.375977,
          "longitude": 127.9437642
        },
        {
          "id": "A0011171",
          "name": "문막(인천방향)주유소",
          "brand": "고속도로알뜰",
          "brandCode": "RTX",
          "price": 1987,
          "address": "강원 원주시 문막읍 포진리 926-1",
          "roadAddress": "강원도 원주시 문막읍 개나루길 13",
          "katecX": 384001.4485,
          "katecY": 521697.18839,
          "latitude": 37.297002,
          "longitude": 127.8173196
        }
      ]
    },
    {
      "regionCode": "03",
      "regionName": "강원",
      "fuelCode": "D047",
      "fuelName": "경유",
      "stations": [
        {
          "id": "A0011150",
          "name": "횡성농협 유현지점주유소",
          "brand": "농협알뜰",
          "brandCode": "NHO",
          "price": 1949,
          "address": "강원 횡성군 서원면 유현리 128-1",
          "roadAddress": "강원 횡성군 서원면 경강로 800",
          "katecX": 389998.5945,
          "katecY": 547190.9416,
          "latitude": 37.5268101,
          "longitude": 127.8846123
        },
        {
          "id": "A0011160",
          "name": "횡성농협클린주유소",
          "brand": "농협알뜰",
          "brandCode": "NHO",
          "price": 1949,
          "address": "강원 횡성군 횡성읍 읍상리 494",
          "roadAddress": "강원 횡성군 횡성읍 한우로 323",
          "katecX": 399201.87945,
          "katecY": 542759.60599,
          "latitude": 37.486936,
          "longitude": 127.988744
        },
        {
          "id": "A0011396",
          "name": "회산주유소",
          "brand": "S-OIL",
          "brandCode": "SOL",
          "price": 1956,
          "address": "강원 강릉시 회산동 234-1",
          "roadAddress": "강원 강릉시 관솔길 27 (회산동)",
          "katecX": 476869.0913,
          "katecY": 571111.1021,
          "latitude": 37.7391922,
          "longitude": 128.8699272
        },
        {
          "id": "A0011488",
          "name": "솔향주유소",
          "brand": "RTO",
          "brandCode": "RTO",
          "price": 1958,
          "address": "강원 강릉시 홍제동 757-1",
          "roadAddress": "강원 강릉시 공제로437번길 1 (홍제동)",
          "katecX": 476659,
          "katecY": 571877,
          "latitude": 37.7461101,
          "longitude": 128.8676243
        },
        {
          "id": "A0011223",
          "name": "(주)중앙에너지산업귀래지점 석산주유소",
          "brand": "SK에너지",
          "brandCode": "SKE",
          "price": 1959,
          "address": "강원 원주시 귀래면 귀래리 1395-4",
          "roadAddress": "강원 원주시 귀래면 고청길 70",
          "katecX": 388479.21555,
          "katecY": 514032.72127,
          "latitude": 37.2280033,
          "longitude": 127.8679469
        },
        {
          "id": "A0010481",
          "name": "㈜갤럭시(Galaxy)E＆S",
          "brand": "GS칼텍스",
          "brandCode": "GSC",
          "price": 1965,
          "address": "강원 춘천시 동내면 거두리 682-8",
          "roadAddress": "강원 춘천시 동내면 세실로 20",
          "katecX": 379108.27023,
          "katecY": 584110.51545,
          "latitude": 37.8592879,
          "longitude": 127.7603318
        },
        {
          "id": "A0010326",
          "name": "새춘천주유소",
          "brand": "RTO",
          "brandCode": "RTO",
          "price": 1965,
          "address": "강원 춘천시 동내면 거두리 667-1",
          "roadAddress": "강원 춘천시 동내면 세실로 38",
          "katecX": 379030.8987,
          "katecY": 584271.8049,
          "latitude": 37.8607393,
          "longitude": 127.7594478
        },
        {
          "id": "A0010686",
          "name": "보우㈜ 백마주유소",
          "brand": "현대오일뱅크",
          "brandCode": "HDO",
          "price": 1968,
          "address": "강원 동해시 송정동 1084-1",
          "roadAddress": "강원 동해시 대동로 261-28",
          "katecX": 499385.5909,
          "katecY": 544011.6822,
          "latitude": 37.4928937,
          "longitude": 129.1216884
        },
        {
          "id": "A0010566",
          "name": "북삼주유소",
          "brand": "RTO",
          "brandCode": "RTO",
          "price": 1969,
          "address": "강원 동해시 동회동 255-6",
          "roadAddress": "강원 동해시 효자로 636",
          "katecX": 497830.6266,
          "katecY": 543802.1186,
          "latitude": 37.4911713,
          "longitude": 129.104079
        },
        {
          "id": "A0011446",
          "name": "㈜범일로 북강릉주유소",
          "brand": "SK에너지",
          "brandCode": "SKE",
          "price": 1970,
          "address": "강원 강릉시 연곡면 동덕리 259",
          "roadAddress": "강원 강릉시 연곡면 동해대로 4094",
          "katecX": 474361.5,
          "katecY": 583073.8,
          "latitude": 37.8471756,
          "longitude": 128.8427019
        },
        {
          "id": "A0033649",
          "name": "춘천농협주유소 엔타점",
          "brand": "농협알뜰",
          "brandCode": "NHO",
          "price": 1970,
          "address": "강원 춘천시 석사동 980",
          "roadAddress": "강원 춘천시 후석로 120",
          "katecX": 378016.80833,
          "katecY": 584557.98708,
          "latitude": 37.8632938,
          "longitude": 127.7479142
        },
        {
          "id": "A0032992",
          "name": "동해농협클린주유소",
          "brand": "농협알뜰",
          "brandCode": "NHO",
          "price": 1970,
          "address": "강원 동해시 송정동 1128",
          "roadAddress": "강원 동해시 대동로 249",
          "katecX": 499498.71924,
          "katecY": 543907.2071,
          "latitude": 37.4919403,
          "longitude": 129.1229534
        },
        {
          "id": "A0033812",
          "name": "여량농협 북평주유소",
          "brand": "농협알뜰",
          "brandCode": "NHO",
          "price": 1970,
          "address": "강원 정선군 북평면 나전리 144-3",
          "roadAddress": "강원 정선군 북평면 서동로 1838",
          "katecX": 457483.5729,
          "katecY": 537303.0846,
          "latitude": 37.4359958,
          "longitude": 128.6473486
        },
        {
          "id": "A0011553",
          "name": "북강릉농협주유소",
          "brand": "농협알뜰",
          "brandCode": "NHO",
          "price": 1970,
          "address": "강원 강릉시 주문진읍 주문리 1157-8",
          "roadAddress": "강원 강릉시 주문진읍 신영길 43",
          "katecX": 472000.22036,
          "katecY": 589543.3872,
          "latitude": 37.9056512,
          "longitude": 128.8165172
        },
        {
          "id": "A0010431",
          "name": "㈜붕붕붕주유소",
          "brand": "GS칼텍스",
          "brandCode": "GSC",
          "price": 1973,
          "address": "강원 춘천시 석사동 430-1",
          "roadAddress": "강원 춘천시 공지로 156-3",
          "katecX": 377764.15575,
          "katecY": 584168.95196,
          "latitude": 37.8597823,
          "longitude": 127.7450548
        },
        {
          "id": "A0010392",
          "name": "춘천주유소",
          "brand": "SK에너지",
          "brandCode": "SKE",
          "price": 1973,
          "address": "강원 춘천시 효자동 287-1",
          "roadAddress": "강원 춘천시  공지로 234-1 (효자동)",
          "katecX": 377115.7567,
          "katecY": 584606.7506,
          "latitude": 37.8637108,
          "longitude": 127.7376721
        },
        {
          "id": "A0010994",
          "name": "동명주유소",
          "brand": "RTO",
          "brandCode": "RTO",
          "price": 1973,
          "address": "강원 원주시 태장1동 155",
          "roadAddress": "강원 원주시 치악로 2090 (태장동)",
          "katecX": 396880,
          "katecY": 529274,
          "latitude": 37.3654125,
          "longitude": 127.9625489
        },
        {
          "id": "A0010507",
          "name": "㈜대경유업 퇴계로주유소",
          "brand": "현대오일뱅크",
          "brandCode": "HDO",
          "price": 1975,
          "address": "강원 춘천시 석사동 818-6",
          "roadAddress": "강원 춘천시 퇴계로 231",
          "katecX": 377692.6239,
          "katecY": 583748.2141,
          "latitude": 37.8559896,
          "longitude": 127.744255
        },
        {
          "id": "A0011171",
          "name": "문막(인천방향)주유소",
          "brand": "고속도로알뜰",
          "brandCode": "RTX",
          "price": 1979,
          "address": "강원 원주시 문막읍 포진리 926-1",
          "roadAddress": "강원도 원주시 문막읍 개나루길 13",
          "katecX": 384001.4485,
          "katecY": 521697.18839,
          "latitude": 37.297002,
          "longitude": 127.8173196
        },
        {
          "id": "A0000647",
          "name": "CJ대한통운㈜ 강원주유소",
          "brand": "GS칼텍스",
          "brandCode": "GSC",
          "price": 1980,
          "address": "강원 원주시 흥업면 사제리 1339-1",
          "roadAddress": "강원 원주시 흥업면 원문로 898",
          "katecX": 389787.55413,
          "katecY": 526827.78283,
          "latitude": 37.343317,
          "longitude": 127.8825117
        }
      ]
    },
    {
      "regionCode": "04",
      "regionName": "충북",
      "fuelCode": "B027",
      "fuelName": "휘발유",
      "stations": [
        {
          "id": "A0017261",
          "name": "문당주유소",
          "brand": "SK에너지",
          "brandCode": "SKE",
          "price": 1959,
          "address": "충북 괴산군 청안면 문당리 80-8",
          "roadAddress": "충북 괴산군 청안면 질마로 865",
          "katecX": 372454,
          "katecY": 460270,
          "latitude": 36.743182,
          "longitude": 127.6893337
        },
        {
          "id": "A0016924",
          "name": "(유)그린 주유소",
          "brand": "RTO",
          "brandCode": "RTO",
          "price": 1978,
          "address": "충북 청주시 서원구 개신동 316-4",
          "roadAddress": "충북 청주시 서원구 서부로 1409 (개신동)",
          "katecX": 351380.9459,
          "katecY": 446648.4016,
          "latitude": 36.6195786,
          "longitude": 127.4542354
        },
        {
          "id": "A0012494",
          "name": "㈜신화에너지 오해피주유소",
          "brand": "SK에너지",
          "brandCode": "SKE",
          "price": 1978,
          "address": "충북 청주시 서원구 산남동 334-7",
          "roadAddress": "충북 청주시 서원구 구룡산로 217",
          "katecX": 352784,
          "katecY": 446207,
          "latitude": 36.6156716,
          "longitude": 127.4699481
        },
        {
          "id": "A0012896",
          "name": "선인주유소",
          "brand": "현대오일뱅크",
          "brandCode": "HDO",
          "price": 1979,
          "address": "충북 음성군 음성읍 신천리 107-5",
          "roadAddress": "충북 음성군 음성읍 충청대로 1235",
          "katecX": 372782.96601,
          "katecY": 479709.11911,
          "latitude": 36.9183717,
          "longitude": 127.6923167
        },
        {
          "id": "A0012731",
          "name": "상평주유소",
          "brand": "자가상표",
          "brandCode": "ETC",
          "price": 1979,
          "address": "충북 음성군 감곡면 상평리 300-2",
          "roadAddress": "충북 음성군 감곡면 감노로 239",
          "katecX": 368262,
          "katecY": 496186.9,
          "latitude": 37.0667179,
          "longitude": 127.6408793
        },
        {
          "id": "A0012001",
          "name": "거북이주유소",
          "brand": "RTO",
          "brandCode": "RTO",
          "price": 1979,
          "address": "충북 청주시 청원구 북이면 대율리 160-14",
          "roadAddress": "충북 청주시 청원구 북이면 팔결신대로 517",
          "katecX": 357397,
          "katecY": 459468.4,
          "latitude": 36.7353987,
          "longitude": 127.5207764
        },
        {
          "id": "A0012072",
          "name": "증평self주유소",
          "brand": "현대오일뱅크",
          "brandCode": "HDO",
          "price": 1979,
          "address": "충북 증평군 연탄리 507-1",
          "roadAddress": "충북 증평군 증평읍 삼보로 7",
          "katecX": 361775.24852,
          "katecY": 465275.00385,
          "latitude": 36.7879134,
          "longitude": 127.5695048
        },
        {
          "id": "A0017227",
          "name": "스카이주유소",
          "brand": "현대오일뱅크",
          "brandCode": "HDO",
          "price": 1979,
          "address": "충북 괴산군 청안면 청용리 180-2",
          "roadAddress": "충북 괴산군 청안면 중부로 2973",
          "katecX": 367689.4765,
          "katecY": 465929.5235,
          "latitude": 36.7940331,
          "longitude": 127.6357408
        },
        {
          "id": "A0017307",
          "name": "현도주유소",
          "brand": "현대오일뱅크",
          "brandCode": "HDO",
          "price": 1979,
          "address": "충북 청주시 서원구 현도면 달계리 543",
          "roadAddress": "충북 청주시 서원구 현도면 청남로 264",
          "katecX": 348811.85953,
          "katecY": 431025.03728,
          "latitude": 36.4786484,
          "longitude": 127.4265554
        },
        {
          "id": "A0012007",
          "name": "맹꽁이주유소",
          "brand": "RTO",
          "brandCode": "RTO",
          "price": 1979,
          "address": "충북 괴산군 문광면 송평리 116-3",
          "roadAddress": "충북 괴산군 문광면 괴산로 3314",
          "katecX": 379589.0029,
          "katecY": 464953.99554,
          "latitude": 36.7855754,
          "longitude": 127.7691035
        },
        {
          "id": "A0017311",
          "name": "너구리주유소",
          "brand": "RTO",
          "brandCode": "RTO",
          "price": 1979,
          "address": "충북 괴산군 사리면 방축리 236",
          "roadAddress": "충북 괴산군 사리면 중부로 321",
          "katecX": 369116.21437,
          "katecY": 467580.27242,
          "latitude": 36.8089571,
          "longitude": 127.6516602
        },
        {
          "id": "A0012178",
          "name": "장성주유소",
          "brand": "RTO",
          "brandCode": "RTO",
          "price": 1979,
          "address": "충북 청주시 서원구 남이면 양촌리 9-3",
          "roadAddress": "충북 청주시 서원구 남이면 양촌4길 3",
          "katecX": 353239.9,
          "katecY": 443819.1,
          "latitude": 36.5941748,
          "longitude": 127.4751904
        },
        {
          "id": "A0017127",
          "name": "두꺼비주유소",
          "brand": "RTO",
          "brandCode": "RTO",
          "price": 1979,
          "address": "충북 괴산군 청안면 청용리 202",
          "roadAddress": "충북 괴산군 중부로 2974",
          "katecX": 367712.8,
          "katecY": 465855,
          "latitude": 36.7933623,
          "longitude": 127.6360054
        },
        {
          "id": "A0017291",
          "name": "칠성알뜰주유소",
          "brand": "RTO",
          "brandCode": "RTO",
          "price": 1980,
          "address": "충북 괴산군 칠성면 사평리 8-1번지 외 3필지",
          "roadAddress": "충북 괴산군 칠성면 중부로 5609",
          "katecX": 389332.47862,
          "katecY": 464665.7522,
          "latitude": 36.7831396,
          "longitude": 127.8782738
        },
        {
          "id": "A0013206",
          "name": "충주농협주유소",
          "brand": "농협알뜰",
          "brandCode": "NHO",
          "price": 1982,
          "address": "충북 충주시 칠금동 420-52",
          "roadAddress": "충북 충주시 탄금대로 364",
          "katecX": 390754.13856,
          "katecY": 487306.53948,
          "latitude": 36.9871882,
          "longitude": 127.8939198
        },
        {
          "id": "A0012353",
          "name": "드림주유소",
          "brand": "현대오일뱅크",
          "brandCode": "HDO",
          "price": 1982,
          "address": "충북 진천군 광혜원면 회죽리 8-11",
          "roadAddress": "충청북도 진천군 광혜원면 생거진천로 2650",
          "katecX": 349925.76286,
          "katecY": 486553.95666,
          "latitude": 36.9791109,
          "longitude": 127.4353336
        },
        {
          "id": "A0013221",
          "name": "㈜한진 충주롯데마트주유소",
          "brand": "S-OIL",
          "brandCode": "SOL",
          "price": 1982,
          "address": "충북 충주시 칠금동 849",
          "roadAddress": "충북 충주시 충원대로 626(칠금동)",
          "katecX": 392566.40527,
          "katecY": 486786.93533,
          "latitude": 36.9825222,
          "longitude": 127.9142833
        },
        {
          "id": "A0013225",
          "name": "퍼스트셀프주유소",
          "brand": "현대오일뱅크",
          "brandCode": "HDO",
          "price": 1982,
          "address": "충북 음성군 대소면 태생리 44-7",
          "roadAddress": "충북 음성군 대소면 대금로 623-1",
          "katecX": 356250,
          "katecY": 485366,
          "latitude": 36.9687224,
          "longitude": 127.5064361
        },
        {
          "id": "A0012417",
          "name": "㈜상일주유소",
          "brand": "RTO",
          "brandCode": "RTO",
          "price": 1983,
          "address": "충북 청주시 서원구 남이면 외천리 172-1",
          "roadAddress": "충청북도 청주시 서원구 남이면 청남로 1164",
          "katecX": 349318,
          "katecY": 439624,
          "latitude": 36.5561684,
          "longitude": 127.4316371
        },
        {
          "id": "A0011986",
          "name": "신창에너지㈜직영 내덕셀프주유소",
          "brand": "S-OIL",
          "brandCode": "SOL",
          "price": 1983,
          "address": "충북 청주시 청원구 내덕동 426-5",
          "roadAddress": "충북 청주시 청원구 충청대로 71",
          "katecX": 354797.5214,
          "katecY": 451450.0062,
          "latitude": 36.6630185,
          "longitude": 127.4921472
        }
      ]
    },
    {
      "regionCode": "04",
      "regionName": "충북",
      "fuelCode": "D047",
      "fuelName": "경유",
      "stations": [
        {
          "id": "A0001245",
          "name": "고암주유소",
          "brand": "SK에너지",
          "brandCode": "SKE",
          "price": 1949,
          "address": "충북 제천시 고암동 264-5",
          "roadAddress": "충북 제천시 내토로 1027",
          "katecX": 421215,
          "katecY": 507133,
          "latitude": 37.1656652,
          "longitude": 128.2366578
        },
        {
          "id": "A0012030",
          "name": "태양주유소",
          "brand": "SK에너지",
          "brandCode": "SKE",
          "price": 1957,
          "address": "충북 청주시 청원군 오창면 화산리 278-4",
          "roadAddress": "충북 청주시 청원구 오창읍 중부로 1559",
          "katecX": 354874.4106,
          "katecY": 462732.9694,
          "latitude": 36.7647007,
          "longitude": 127.4923388
        },
        {
          "id": "A0017261",
          "name": "문당주유소",
          "brand": "SK에너지",
          "brandCode": "SKE",
          "price": 1959,
          "address": "충북 괴산군 청안면 문당리 80-8",
          "roadAddress": "충북 괴산군 청안면 질마로 865",
          "katecX": 372454,
          "katecY": 460270,
          "latitude": 36.743182,
          "longitude": 127.6893337
        },
        {
          "id": "A0026263",
          "name": "대황주유소",
          "brand": "현대오일뱅크",
          "brandCode": "HDO",
          "price": 1959,
          "address": "충북 제천시 봉양읍 원박리 903",
          "roadAddress": "충북 제천시 봉양읍 북부로 913",
          "katecX": 406691.13669,
          "katecY": 504135.99441,
          "latitude": 37.1388718,
          "longitude": 128.0730946
        },
        {
          "id": "A0016924",
          "name": "(유)그린 주유소",
          "brand": "RTO",
          "brandCode": "RTO",
          "price": 1964,
          "address": "충북 청주시 서원구 개신동 316-4",
          "roadAddress": "충북 청주시 서원구 서부로 1409 (개신동)",
          "katecX": 351380.9459,
          "katecY": 446648.4016,
          "latitude": 36.6195786,
          "longitude": 127.4542354
        },
        {
          "id": "A0006114",
          "name": "충북석유(주)성화주유소",
          "brand": "SK에너지",
          "brandCode": "SKE",
          "price": 1968,
          "address": "충북 청주시 서원구개신동 321-13",
          "roadAddress": "충청북도 청주시 서원구 서부로 1354",
          "katecX": 350887,
          "katecY": 446428,
          "latitude": 36.617567,
          "longitude": 127.4487275
        },
        {
          "id": "A0012178",
          "name": "장성주유소",
          "brand": "RTO",
          "brandCode": "RTO",
          "price": 1968,
          "address": "충북 청주시 서원구 남이면 양촌리 9-3",
          "roadAddress": "충북 청주시 서원구 남이면 양촌4길 3",
          "katecX": 353239.9,
          "katecY": 443819.1,
          "latitude": 36.5941748,
          "longitude": 127.4751904
        },
        {
          "id": "A0017311",
          "name": "너구리주유소",
          "brand": "RTO",
          "brandCode": "RTO",
          "price": 1969,
          "address": "충북 괴산군 사리면 방축리 236",
          "roadAddress": "충북 괴산군 사리면 중부로 321",
          "katecX": 369116.21437,
          "katecY": 467580.27242,
          "latitude": 36.8089571,
          "longitude": 127.6516602
        },
        {
          "id": "A0012731",
          "name": "상평주유소",
          "brand": "자가상표",
          "brandCode": "ETC",
          "price": 1969,
          "address": "충북 음성군 감곡면 상평리 300-2",
          "roadAddress": "충북 음성군 감곡면 감노로 239",
          "katecX": 368262,
          "katecY": 496186.9,
          "latitude": 37.0667179,
          "longitude": 127.6408793
        },
        {
          "id": "A0012494",
          "name": "㈜신화에너지 오해피주유소",
          "brand": "SK에너지",
          "brandCode": "SKE",
          "price": 1969,
          "address": "충북 청주시 서원구 산남동 334-7",
          "roadAddress": "충북 청주시 서원구 구룡산로 217",
          "katecX": 352784,
          "katecY": 446207,
          "latitude": 36.6156716,
          "longitude": 127.4699481
        },
        {
          "id": "A0012001",
          "name": "거북이주유소",
          "brand": "RTO",
          "brandCode": "RTO",
          "price": 1969,
          "address": "충북 청주시 청원구 북이면 대율리 160-14",
          "roadAddress": "충북 청주시 청원구 북이면 팔결신대로 517",
          "katecX": 357397,
          "katecY": 459468.4,
          "latitude": 36.7353987,
          "longitude": 127.5207764
        },
        {
          "id": "A0017227",
          "name": "스카이주유소",
          "brand": "현대오일뱅크",
          "brandCode": "HDO",
          "price": 1969,
          "address": "충북 괴산군 청안면 청용리 180-2",
          "roadAddress": "충북 괴산군 청안면 중부로 2973",
          "katecX": 367689.4765,
          "katecY": 465929.5235,
          "latitude": 36.7940331,
          "longitude": 127.6357408
        },
        {
          "id": "A0012007",
          "name": "맹꽁이주유소",
          "brand": "RTO",
          "brandCode": "RTO",
          "price": 1969,
          "address": "충북 괴산군 문광면 송평리 116-3",
          "roadAddress": "충북 괴산군 문광면 괴산로 3314",
          "katecX": 379589.0029,
          "katecY": 464953.99554,
          "latitude": 36.7855754,
          "longitude": 127.7691035
        },
        {
          "id": "A0012896",
          "name": "선인주유소",
          "brand": "현대오일뱅크",
          "brandCode": "HDO",
          "price": 1969,
          "address": "충북 음성군 음성읍 신천리 107-5",
          "roadAddress": "충북 음성군 음성읍 충청대로 1235",
          "katecX": 372782.96601,
          "katecY": 479709.11911,
          "latitude": 36.9183717,
          "longitude": 127.6923167
        },
        {
          "id": "A0017127",
          "name": "두꺼비주유소",
          "brand": "RTO",
          "brandCode": "RTO",
          "price": 1969,
          "address": "충북 괴산군 청안면 청용리 202",
          "roadAddress": "충북 괴산군 중부로 2974",
          "katecX": 367712.8,
          "katecY": 465855,
          "latitude": 36.7933623,
          "longitude": 127.6360054
        },
        {
          "id": "A0017291",
          "name": "칠성알뜰주유소",
          "brand": "RTO",
          "brandCode": "RTO",
          "price": 1970,
          "address": "충북 괴산군 칠성면 사평리 8-1번지 외 3필지",
          "roadAddress": "충북 괴산군 칠성면 중부로 5609",
          "katecX": 389332.47862,
          "katecY": 464665.7522,
          "latitude": 36.7831396,
          "longitude": 127.8782738
        },
        {
          "id": "A0012457",
          "name": "신창에너지㈜직영 청주셀프주유소",
          "brand": "S-OIL",
          "brandCode": "SOL",
          "price": 1972,
          "address": "충북 청주시 서원구 미평동 11-1",
          "roadAddress": "충북 청주시 서원구 청남로 1917",
          "katecX": 353605.542,
          "katecY": 444993.3944,
          "latitude": 36.6047753,
          "longitude": 127.4792056
        },
        {
          "id": "A0017130",
          "name": "(주)청주관문주유소",
          "brand": "RTO",
          "brandCode": "RTO",
          "price": 1972,
          "address": "충북 청주시 서원구 미평동 19-2",
          "roadAddress": "충북 청주시 서원구 청남로 1894",
          "katecX": 353571,
          "katecY": 444752,
          "latitude": 36.6025982,
          "longitude": 127.4788342
        },
        {
          "id": "A0012500",
          "name": "행복에너지㈜ 행복에너지2주유소",
          "brand": "GS칼텍스",
          "brandCode": "GSC",
          "price": 1972,
          "address": "충북 청주시 서원구 미평동 6",
          "roadAddress": "충북 청주시 서원구 청남로 1937 (미평동)",
          "katecX": 353716,
          "katecY": 445145,
          "latitude": 36.6061469,
          "longitude": 127.4804311
        },
        {
          "id": "A0011986",
          "name": "신창에너지㈜직영 내덕셀프주유소",
          "brand": "S-OIL",
          "brandCode": "SOL",
          "price": 1973,
          "address": "충북 청주시 청원구 내덕동 426-5",
          "roadAddress": "충북 청주시 청원구 충청대로 71",
          "katecX": 354797.5214,
          "katecY": 451450.0062,
          "latitude": 36.6630185,
          "longitude": 127.4921472
        }
      ]
    },
    {
      "regionCode": "05",
      "regionName": "충남",
      "fuelCode": "B027",
      "fuelName": "휘발유",
      "stations": [
        {
          "id": "A0015265",
          "name": "우루사Self주유소",
          "brand": "SK에너지",
          "brandCode": "SKE",
          "price": 1968,
          "address": "충남 당진시 신평면 운정리 714-1",
          "roadAddress": "충남 당진시 신평면 서해로 7522",
          "katecX": 294295,
          "katecY": 476159,
          "latitude": 36.8808393,
          "longitude": 126.812015
        },
        {
          "id": "A0014719",
          "name": "(주)오케이에너지 수정주유소",
          "brand": "SK에너지",
          "brandCode": "SKE",
          "price": 1969,
          "address": "충남 논산시 연무읍 마전리 287-35",
          "roadAddress": "충남 논산시 연무읍 황화로 116",
          "katecX": 318494.94213,
          "katecY": 387432.19794,
          "latitude": 36.0837037,
          "longitude": 127.0928172
        },
        {
          "id": "A0016058",
          "name": "천안대로셀프",
          "brand": "S-OIL",
          "brandCode": "SOL",
          "price": 1969,
          "address": "충남 천안시 동남구 원성동 11-11",
          "roadAddress": "충남 천안시 동남구 천안대로 727",
          "katecX": 325646.44184,
          "katecY": 468322.85853,
          "latitude": 36.813224,
          "longitude": 127.1644351
        },
        {
          "id": "A0016224",
          "name": "(주)대성제2주유소",
          "brand": "GS칼텍스",
          "brandCode": "GSC",
          "price": 1973,
          "address": "충남 천안시 동남구 신부동 115-32",
          "roadAddress": "충남 천안시 동남구 가마골1길 10 (신부동)",
          "katecX": 325559.11593,
          "katecY": 469177.88704,
          "latitude": 36.8209217,
          "longitude": 127.1633726
        },
        {
          "id": "A0016038",
          "name": "왕대박셀프주유소",
          "brand": "현대오일뱅크",
          "brandCode": "HDO",
          "price": 1974,
          "address": "충남 천안시 서북구 성정동 714-4",
          "roadAddress": "충남 천안시 서북구 성정9길 23-29 (성정동)",
          "katecX": 323662.50388,
          "katecY": 468718.85006,
          "latitude": 36.8166339,
          "longitude": 127.1421616
        },
        {
          "id": "A0016904",
          "name": "진우11주유소",
          "brand": "GS칼텍스",
          "brandCode": "GSC",
          "price": 1974,
          "address": "충남 천안시 동남구 봉명동 444",
          "roadAddress": "충남 천안시 동남구 쌍용대로 175",
          "katecX": 322914.67855,
          "katecY": 468327.34911,
          "latitude": 36.8130454,
          "longitude": 127.1338202
        },
        {
          "id": "A0016250",
          "name": "아평주유소",
          "brand": "현대오일뱅크",
          "brandCode": "HDO",
          "price": 1975,
          "address": "충남 천안시 동남구 신부동 115-61",
          "roadAddress": "충남 천안시 동남구 천안대로 784",
          "katecX": 325709.75549,
          "katecY": 468905.99894,
          "latitude": 36.8184836,
          "longitude": 127.1650876
        },
        {
          "id": "A0014741",
          "name": "처음주유소",
          "brand": "현대오일뱅크",
          "brandCode": "HDO",
          "price": 1975,
          "address": "충남 논산시 연산면 청동리 178-137",
          "roadAddress": "충남 논산시 연산면 계백로 2091",
          "katecX": 328595.14943,
          "katecY": 401287.02587,
          "latitude": 36.2093603,
          "longitude": 127.2036935
        },
        {
          "id": "A0033709",
          "name": "(주)신평믿음오일",
          "brand": "SK에너지",
          "brandCode": "SKE",
          "price": 1976,
          "address": "충청남도 당진시 신평면 거산리 278-1",
          "roadAddress": "충청남도 당진시 신평면 중말길 29-16",
          "katecX": 288824.64224,
          "katecY": 476443.92938,
          "latitude": 36.8827772,
          "longitude": 126.750621
        },
        {
          "id": "A0008392",
          "name": "해바라기당진점",
          "brand": "현대오일뱅크",
          "brandCode": "HDO",
          "price": 1978,
          "address": "충남 당진시 송악읍 광명리 236-37",
          "roadAddress": "충남 당진시 송악읍 서해로 6622",
          "katecX": 285911,
          "katecY": 477749,
          "latitude": 36.8941872,
          "longitude": 126.7177465
        },
        {
          "id": "A0014911",
          "name": "홍동주유소",
          "brand": "SK에너지",
          "brandCode": "SKE",
          "price": 1979,
          "address": "충남 홍성군 홍동면 신기리 614-4",
          "roadAddress": "충남 홍성군 홍동면 충절로 587",
          "katecX": 284652.726,
          "katecY": 442596.5087,
          "latitude": 36.5773205,
          "longitude": 126.7089472
        },
        {
          "id": "A0014807",
          "name": "강경농협주유소",
          "brand": "농협알뜰",
          "brandCode": "NHO",
          "price": 1979,
          "address": "충남 논산시 강경읍 채산리 534-3",
          "roadAddress": "충남 논산시 강경읍 계백로 57",
          "katecX": 311062.7,
          "katecY": 395066.9,
          "latitude": 36.1518516,
          "longitude": 127.0094401
        },
        {
          "id": "A0016260",
          "name": "두두림주유소",
          "brand": "S-OIL",
          "brandCode": "SOL",
          "price": 1979,
          "address": "충남 천안시 서북구 성성동 341",
          "roadAddress": "충남 천안시 서북구 번영로 525",
          "katecX": 321921.56131,
          "katecY": 472068.70082,
          "latitude": 36.8466764,
          "longitude": 127.1223055
        },
        {
          "id": "A0014435",
          "name": "동현주유소",
          "brand": "RTO",
          "brandCode": "RTO",
          "price": 1979,
          "address": "충남 공주시 장기면 동현리 562-2",
          "roadAddress": "충남 공주시 장기면 차령로 1851",
          "katecX": 325479.966,
          "katecY": 431195.1176,
          "latitude": 36.478646,
          "longitude": 127.1661836
        },
        {
          "id": "A0014388",
          "name": "한옥마을주유소",
          "brand": "현대오일뱅크",
          "brandCode": "HDO",
          "price": 1979,
          "address": "충남 공주시 신기동 450-1",
          "roadAddress": "충남 공주시 전진배길 283",
          "katecX": 323801.87764,
          "katecY": 425322.38852,
          "latitude": 36.425592,
          "longitude": 127.1480376
        },
        {
          "id": "A0015368",
          "name": "면천IC하나주유소",
          "brand": "현대오일뱅크",
          "brandCode": "HDO",
          "price": 1980,
          "address": "충남 당진시 면천면 송학리 469-3",
          "roadAddress": "충남 당진시 면천면 아미로 93",
          "katecX": 280263.62835,
          "katecY": 470377.80589,
          "latitude": 36.8270771,
          "longitude": 126.6555643
        },
        {
          "id": "A0006910",
          "name": "박카스self주유소",
          "brand": "SK에너지",
          "brandCode": "SKE",
          "price": 1981,
          "address": "충남 당진시 신평면 부수리 344",
          "roadAddress": "충남 당진시 신평면 북부산업로 157",
          "katecX": 294033.75339,
          "katecY": 477785.29824,
          "latitude": 36.8954626,
          "longitude": 126.8088574
        },
        {
          "id": "A0014283",
          "name": "(주)신창에너지 공주대주유소",
          "brand": "S-OIL",
          "brandCode": "SOL",
          "price": 1982,
          "address": "충남 공주시 신관동 56-2",
          "roadAddress": "충남 공주시 무령로 435 (신관동)",
          "katecX": 323192.05995,
          "katecY": 429756.7248,
          "latitude": 36.465503,
          "longitude": 127.1407971
        },
        {
          "id": "A0014398",
          "name": "강녕주유소",
          "brand": "GS칼텍스",
          "brandCode": "GSC",
          "price": 1982,
          "address": "충남 공주시 석장리동 80",
          "roadAddress": "충남 공주시 금벽로 1004-49",
          "katecX": 327921.07958,
          "katecY": 427576.95865,
          "latitude": 36.4462281,
          "longitude": 127.1937607
        },
        {
          "id": "A0015335",
          "name": "차사랑 내트럭주유소",
          "brand": "S-OIL",
          "brandCode": "SOL",
          "price": 1983,
          "address": "충남 당진시 신평면 신흥리 442-25",
          "roadAddress": "충남 당진시 신평면 서해로 7279",
          "katecX": 291844,
          "katecY": 476129,
          "latitude": 36.880291,
          "longitude": 126.7845302
        }
      ]
    },
    {
      "regionCode": "05",
      "regionName": "충남",
      "fuelCode": "D047",
      "fuelName": "경유",
      "stations": [
        {
          "id": "A0014705",
          "name": "㈜교촌에너지 건양지점",
          "brand": "SK에너지",
          "brandCode": "SKE",
          "price": 1943,
          "address": "충남 논산시 내동 60-2",
          "roadAddress": "충남 논산시 시민로 78 (내동)",
          "katecX": 319500,
          "katecY": 397543,
          "latitude": 36.1749044,
          "longitude": 127.1029394
        },
        {
          "id": "A0015156",
          "name": "행복주유소",
          "brand": "GS칼텍스",
          "brandCode": "GSC",
          "price": 1953,
          "address": "충남 당진시 신평면 신흥리 59-9",
          "roadAddress": "충남 당진시 신평면 서해로 7410",
          "katecX": 293086.4647,
          "katecY": 475980.0975,
          "latitude": 36.8790911,
          "longitude": 126.7984859
        },
        {
          "id": "A0032939",
          "name": "탑셀프주유소",
          "brand": "현대오일뱅크",
          "brandCode": "HDO",
          "price": 1959,
          "address": "충남 홍성군 은하면 장척리 40-3",
          "roadAddress": "충남 홍성군 은하면 충서로 87-1",
          "katecX": 276056.51079,
          "katecY": 433298.73803,
          "latitude": 36.4924719,
          "longitude": 126.6144162
        },
        {
          "id": "A0014719",
          "name": "(주)오케이에너지 수정주유소",
          "brand": "SK에너지",
          "brandCode": "SKE",
          "price": 1959,
          "address": "충남 논산시 연무읍 마전리 287-35",
          "roadAddress": "충남 논산시 연무읍 황화로 116",
          "katecX": 318494.94213,
          "katecY": 387432.19794,
          "latitude": 36.0837037,
          "longitude": 127.0928172
        },
        {
          "id": "A0015265",
          "name": "우루사Self주유소",
          "brand": "SK에너지",
          "brandCode": "SKE",
          "price": 1963,
          "address": "충남 당진시 신평면 운정리 714-1",
          "roadAddress": "충남 당진시 신평면 서해로 7522",
          "katecX": 294295,
          "katecY": 476159,
          "latitude": 36.8808393,
          "longitude": 126.812015
        },
        {
          "id": "A0014518",
          "name": "중앙주유소",
          "brand": "GS칼텍스",
          "brandCode": "GSC",
          "price": 1963,
          "address": "충남 논산시 상월면 월오리 141-2",
          "roadAddress": "충남 논산시 상월면 득안대로 3035",
          "katecX": 322353.20484,
          "katecY": 412475.62599,
          "latitude": 36.3097066,
          "longitude": 127.1331688
        },
        {
          "id": "A0014748",
          "name": "㈜행운",
          "brand": "GS칼텍스",
          "brandCode": "GSC",
          "price": 1965,
          "address": "충남 논산시 연산면 송정리 343",
          "roadAddress": "충남 논산시 연산면 계백로 2500",
          "katecX": 330818,
          "katecY": 403648,
          "latitude": 36.2307992,
          "longitude": 127.2282034
        },
        {
          "id": "A0032692",
          "name": "백두산주유소",
          "brand": "자가상표",
          "brandCode": "ETC",
          "price": 1965,
          "address": "충남 보령시 요암동 371-6",
          "roadAddress": "충남 보령시 대해로 498 (요암동)",
          "katecX": 270336.8,
          "katecY": 414653.8,
          "latitude": 36.3237298,
          "longitude": 126.5537117
        },
        {
          "id": "A0015014",
          "name": "서해안이데아주유소",
          "brand": "GS칼텍스",
          "brandCode": "GSC",
          "price": 1965,
          "address": "충남 홍성군 광천읍 은하면 장척리 627-1",
          "roadAddress": "충남 홍성군 은하면 홍남로 435",
          "katecX": 275130.67053,
          "katecY": 433968.3925,
          "latitude": 36.4983849,
          "longitude": 126.603977
        },
        {
          "id": "A0014236",
          "name": "달산주유소",
          "brand": "현대오일뱅크",
          "brandCode": "HDO",
          "price": 1965,
          "address": "충남 공주시 이인면 달산리 28-1",
          "roadAddress": "충남 공주시 이인면 검바위로 71",
          "katecX": 315266.7,
          "katecY": 417198.5,
          "latitude": 36.3516681,
          "longitude": 127.0537519
        },
        {
          "id": "A0015069",
          "name": "주식회사 우리들",
          "brand": "GS칼텍스",
          "brandCode": "GSC",
          "price": 1965,
          "address": "충남 홍성군 구항면 마온리 1-1",
          "roadAddress": "충청남도 홍성군 구항면 충서로 1067-13",
          "katecX": 279610.16606,
          "katecY": 442164.846,
          "latitude": 36.5728079,
          "longitude": 126.6526848
        },
        {
          "id": "A0016287",
          "name": "유한회사 우진에너지",
          "brand": "RTO",
          "brandCode": "RTO",
          "price": 1965,
          "address": "충남 보령시 남곡동 288-1",
          "roadAddress": "충남 보령시 대해로 294",
          "katecX": 271783.2675,
          "katecY": 415934.0462,
          "latitude": 36.3354584,
          "longitude": 126.5696059
        },
        {
          "id": "A0014807",
          "name": "강경농협주유소",
          "brand": "농협알뜰",
          "brandCode": "NHO",
          "price": 1969,
          "address": "충남 논산시 강경읍 채산리 534-3",
          "roadAddress": "충남 논산시 강경읍 계백로 57",
          "katecX": 311062.7,
          "katecY": 395066.9,
          "latitude": 36.1518516,
          "longitude": 127.0094401
        },
        {
          "id": "A0012793",
          "name": "(주)대륙주유소",
          "brand": "GS칼텍스",
          "brandCode": "GSC",
          "price": 1969,
          "address": "충남 천안시 동남구 신부동 58-1",
          "roadAddress": "충남 천안시 동남구 천안대로 782",
          "katecX": 325734,
          "katecY": 468853,
          "latitude": 36.8180079,
          "longitude": 127.1653645
        },
        {
          "id": "A0033295",
          "name": "무지개주유소",
          "brand": "자가상표",
          "brandCode": "ETC",
          "price": 1969,
          "address": "충남 서산시 음암면 도당리 28-12",
          "roadAddress": "충남 서산시 음암면 백제사신로 1180",
          "katecX": 269794.95942,
          "katecY": 469197.65964,
          "latitude": 36.8150607,
          "longitude": 126.5384478
        },
        {
          "id": "A0014531",
          "name": "미래주유소",
          "brand": "RTO",
          "brandCode": "RTO",
          "price": 1969,
          "address": "충남 논산시 연산면 한전리 127-7",
          "roadAddress": "충남 논산시 연산면 계백로 1983",
          "katecX": 327545.00275,
          "katecY": 401184.99552,
          "latitude": 36.2083625,
          "longitude": 127.1920251
        },
        {
          "id": "A0033628",
          "name": "문정주유소",
          "brand": "GS칼텍스",
          "brandCode": "GSC",
          "price": 1969,
          "address": "충남 서산시 음암면 도당리 115-15",
          "roadAddress": "충남 서산시 음암면 간대산길 66",
          "katecX": 268553.65683,
          "katecY": 469832.80942,
          "latitude": 36.8206109,
          "longitude": 126.5244296
        },
        {
          "id": "A0014435",
          "name": "동현주유소",
          "brand": "RTO",
          "brandCode": "RTO",
          "price": 1969,
          "address": "충남 공주시 장기면 동현리 562-2",
          "roadAddress": "충남 공주시 장기면 차령로 1851",
          "katecX": 325479.966,
          "katecY": 431195.1176,
          "latitude": 36.478646,
          "longitude": 127.1661836
        },
        {
          "id": "A0009048",
          "name": "원성깨비셀프",
          "brand": "현대오일뱅크",
          "brandCode": "HDO",
          "price": 1969,
          "address": "충남 천안시 동남구 원성동 486-4",
          "roadAddress": "충남 천안시 동남구 천안대로 653",
          "katecX": 325601,
          "katecY": 467613,
          "latitude": 36.8068239,
          "longitude": 127.1639954
        },
        {
          "id": "A0016338",
          "name": "명해로주유소",
          "brand": "자가상표",
          "brandCode": "ETC",
          "price": 1970,
          "address": "충남 보령시 궁촌동 219-5",
          "roadAddress": "충남 보령시 명해로 111 (궁촌동)",
          "katecX": 273840,
          "katecY": 416156,
          "latitude": 36.3377301,
          "longitude": 126.5924735
        }
      ]
    },
    {
      "regionCode": "06",
      "regionName": "전북",
      "fuelCode": "B027",
      "fuelName": "휘발유",
      "stations": [
        {
          "id": "A0018612",
          "name": "수교주유소",
          "brand": "RTO",
          "brandCode": "RTO",
          "price": 1955,
          "address": "전북 김제시 성덕면 대석리 218-35",
          "roadAddress": "전북 김제시 성덕면 해학로 380",
          "katecX": 292208.76834,
          "katecY": 356425.22304,
          "latitude": 35.8017281,
          "longitude": 126.8052123
        },
        {
          "id": "A0018147",
          "name": "보물단지주유소",
          "brand": "RTO",
          "brandCode": "RTO",
          "price": 1959,
          "address": "전북 완주군 봉동읍 구만리 220-1",
          "roadAddress": "전북 완주군 봉동읍 완주로 533",
          "katecX": 324400.44513,
          "katecY": 368311.70674,
          "latitude": 35.9118653,
          "longitude": 127.1602112
        },
        {
          "id": "A0018685",
          "name": "진봉농업협동조합주유소",
          "brand": "현대오일뱅크",
          "brandCode": "HDO",
          "price": 1959,
          "address": "전북 김제시 진봉면 고사리 4-14",
          "roadAddress": "전북 김제시 지평선로 1787",
          "katecX": 288997.75349,
          "katecY": 362603.42927,
          "latitude": 35.8570435,
          "longitude": 126.768833
        },
        {
          "id": "A0019115",
          "name": "광활농협주유소",
          "brand": "농협알뜰",
          "brandCode": "NHO",
          "price": 1959,
          "address": "전북 김제시 광활면 옥포리 668-10",
          "roadAddress": "전북 김제시 광활면 광활로 470",
          "katecX": 286320.9,
          "katecY": 359877.5,
          "latitude": 35.8321724,
          "longitude": 126.7395908
        },
        {
          "id": "A0018663",
          "name": "(유)우주에너지주유소/충전소",
          "brand": "현대오일뱅크",
          "brandCode": "HDO",
          "price": 1962,
          "address": "전북 김제시 금구면 용지리10-3",
          "roadAddress": "전북 김제시 금구면 선비로 905",
          "katecX": 311156,
          "katecY": 354105,
          "latitude": 35.7827184,
          "longitude": 127.0150723
        },
        {
          "id": "A0018432",
          "name": "㈜태성에너지",
          "brand": "S-OIL",
          "brandCode": "SOL",
          "price": 1967,
          "address": "전북 김제시 금구면 대화리 7-4",
          "roadAddress": "전북 김제시 금구면 선비로 1311",
          "katecX": 314654,
          "katecY": 355042,
          "latitude": 35.7914735,
          "longitude": 127.0536604
        },
        {
          "id": "A0017955",
          "name": "행복주유소",
          "brand": "RTO",
          "brandCode": "RTO",
          "price": 1967,
          "address": "전북 전주시 덕진구 우아동3가 258-5",
          "roadAddress": "전북 전주시 덕진구 동부대로 641 (우아동3가)",
          "katecX": 324557.2,
          "katecY": 361028.8,
          "latitude": 35.8462414,
          "longitude": 127.1626389
        },
        {
          "id": "A0017471",
          "name": "동군산셀프주유소",
          "brand": "RTO",
          "brandCode": "RTO",
          "price": 1968,
          "address": "전북 군산시 대야면 복교리 463-8",
          "roadAddress": "전북 군산시 대야면 만경로 1767",
          "katecX": 294300.5162,
          "katecY": 370721.871,
          "latitude": 35.9307892,
          "longitude": 126.826453
        },
        {
          "id": "A0018397",
          "name": "금광주유소",
          "brand": "GS칼텍스",
          "brandCode": "GSC",
          "price": 1969,
          "address": "전북 김제시 금구면 금구리 656",
          "roadAddress": "전북 김제시 금구면 선비로 799-3",
          "katecX": 310249.6,
          "katecY": 353516.5,
          "latitude": 35.7773322,
          "longitude": 127.0051136
        },
        {
          "id": "A0018502",
          "name": "샘터주유소",
          "brand": "현대오일뱅크",
          "brandCode": "HDO",
          "price": 1969,
          "address": "전북 김제시 금구면 옥성리 498-20",
          "roadAddress": "전북 김제시 금구면 풍요로 795",
          "katecX": 308452,
          "katecY": 354601,
          "latitude": 35.7869397,
          "longitude": 126.9851094
        },
        {
          "id": "A0019036",
          "name": "해리농협주유소",
          "brand": "농협알뜰",
          "brandCode": "NHO",
          "price": 1970,
          "address": "전북 고창군 상하면 하장리 918-3",
          "roadAddress": "전북 고창군 상하면 상하로 78",
          "katecX": 263480.02939,
          "katecY": 317196.69424,
          "latitude": 35.444679,
          "longitude": 126.4940883
        },
        {
          "id": "A0017640",
          "name": "(유)월명주유소",
          "brand": "RTO",
          "brandCode": "RTO",
          "price": 1973,
          "address": "전북 군산시 소룡동 1047-7",
          "roadAddress": "전북 군산시 해망로 517",
          "katecX": 281693.5196,
          "katecY": 376698.5478,
          "latitude": 35.9831971,
          "longitude": 126.6858818
        },
        {
          "id": "A0018249",
          "name": "(유)백제주유소",
          "brand": "RTO",
          "brandCode": "RTO",
          "price": 1973,
          "address": "전북 전주시 완산구 효자동3가 1155",
          "roadAddress": "전북 전주시 완산구 효자로 67-3 (효자동3가)",
          "katecX": 318222.63609,
          "katecY": 358019.25946,
          "latitude": 35.8186096,
          "longitude": 127.0928295
        },